country,lat,lon,website,place_type
AT,46.8259676,15.4505929,zumthomann.at,Facility
AT,48.2182199,16.4037752,anglertreff.at,Commerce
AT,47.586078,12.172477,farthofergmbh.com,Commerce
AT,47.2790217,16.1715942,dasdellacher.at,Facility
AT,48.221321,16.3564436,iqoqi-vienna.at,Facility
AT,47.054094,10.6192313,apart-diana.at,Facility
AT,46.8239442,15.3174331,cafe-pizzeria-restaurant-edlinger.at,Facility
AT,47.3558793,11.7011639,ksk-logistik.com,Commerce
AT,46.985526,10.2284559,desiree-ischgl.at,Facility
AT,47.5807184,9.8086068,walderlebnispfad.at,Facility
AT,48.2298035,13.9189514,heilbornapo.at,Commerce
AT,48.1282768,16.2535223,reha-perchtoldsdorf.at,Facility
AT,47.0741395,15.4398871,berlinchen.at,Commerce
AT,48.1019719,13.137441,auto2rad-geigl.at,Commerce
AT,47.7205149,14.6317236,laussabauer.at,Facility
AT,48.1819426,13.6442125,sandberger.at,Facility
AT,48.0662918,15.0487865,pizzamanufaktur16.at,Facility
AT,47.5047831,15.4486285,foto-puntigam.at,Commerce
AT,48.2161607,16.3881799,physio-baillou.at,Facility
AT,48.884506,15.5144705,w4tischler.at,Unknown
AT,47.2546966,10.1081357,koerbersee.at,Facility
AT,47.2323926,10.293627,alpenhof-lorenz.at,Facility
AT,47.2744999,11.4418072,friseur-lisa.at,Facility
AT,47.3576594,9.6638119,vitaaktiva.at,Commerce
AT,47.0746353,15.5066594,ichwillbessersehen.at,Facility
AT,48.2755132,14.2875286,dr-schreiner.at,Facility
AT,47.0385814,15.4116146,autoankauf-oesterreich.at,Commerce
AT,47.7464863,13.066989,schlossapothekeanif.at,Commerce
AT,48.0481707,15.028595,fs-motorsport.at,Commerce
AT,46.9889532,10.2461224,chasa-altana.at,Facility
AT,48.6645089,15.6559776,friseur-burak.at,Facility
AT,47.7225291,16.0806361,fuchsundspatz.at,Commerce
AT,48.1935211,16.3638878,judithzila.at,Facility
AT,46.7218505,15.5179664,wein-pongratz.at,Facility
AT,46.6090024,14.1449516,pyramidenkogel.info,Facility
AT,47.4399285,12.7193356,salzburgerhof.eu,Facility
AT,48.3729396,15.345216,feuerwehr-muehldorf.at,Facility
AT,47.2679434,11.3909416,marktbar-studios.at,Facility
AT,48.2341888,16.1922392,ordination-grigorova.at,Facility
AT,48.4580436,16.5922769,tinarawpatisserie.com,Commerce
AT,48.2063113,15.6345493,help-gebaeudereinigung.at,Facility
AT,46.6272908,13.3689746,meckis-imbiss-hermagor.at,Facility
AT,47.2649084,11.398195,paninothek.at,Commerce
AT,48.2040427,16.3849621,ordination-bauer.at,Facility
AT,47.1677182,14.6612321,kosmetik-bassetti.at,Commerce
AT,48.09521,17.0645761,chocolate-austria.com,Commerce
AT,48.4353669,15.1144964,georgshaus.at,Facility
AT,47.4068564,12.903585,stablerkraemer.at,Facility
AT,47.5386521,15.98328,ffmariensee.at,Facility
AT,48.3329536,14.4608935,biohof-gratzer.at,Commerce
AT,47.2909256,9.6544005,biohof-breuss.at,Commerce
AT,47.0549062,12.2979201,essener-rostocker-huette.com,Facility
AT,47.5836971,16.4251648,gasthaus-fuchs.at,Facility
AT,47.2809513,16.005462,lechner-partner.at,Commerce
AT,48.4488387,15.6058077,gasthausbrauneis.at,Facility
AT,46.7246554,14.0955177,naturkost-duschlbaur.at,Facility
AT,48.0968009,14.5410127,alles-boden.at,Commerce
AT,47.317363,10.8379243,seeblick-nassereith.at,Facility
AT,48.2191164,14.5926956,aulehrpfad.at,Facility
AT,47.9331105,15.4948256,pbz-tuernitz.at,Facility
AT,48.4577677,14.7854235,pension-stellnberger.at,Facility
AT,46.7033904,15.6157511,neubauer-weine.at,Facility
AT,48.2261915,16.1508654,seniorenzentrum-gablitz.at,Facility
AT,47.9899304,13.1164427,musikhaus-latocha.at,Commerce
AT,48.2169077,16.3361845,fahrschule-hernals.at,Facility
AT,47.2703872,11.8465197,hochzillertal.at,Facility
AT,48.3288319,16.1941761,zigzagfitness.at,Facility
AT,47.2153853,14.8279394,goldschmiede-berger.at,Commerce
AT,47.2153871,14.828158,xn--bltenhandwerk-xob.at,Commerce
AT,47.0970318,15.4657921,netconnect.at,Commerce
AT,47.229018,12.9942668,hausrenate.at,Facility
AT,47.7107625,13.6263507,ff-badischl.at,Facility
AT,47.4338074,12.1309662,milchbuben.at,Commerce
AT,48.2007263,13.4762073,fischersports.com,Unknown
AT,48.2109352,16.3722819,nails-first.at,Facility
AT,47.2051023,10.1397097,margarethe-lech.at,Facility
AT,48.1920462,16.365767,penetration-inc.com,Facility
AT,48.3561684,16.5753585,gasthaus-lebenszeit.at,Facility
AT,47.9599385,14.7659823,bachleitner.info,Commerce
AT,47.2929589,16.0807284,bullinarium.com,Facility
AT,47.3208972,11.5577372,martinsstuben.at,Facility
AT,47.053456,15.8413229,hartmannsdorf.at,Facility
AT,48.0428049,14.2502256,schnitzelwirt-bachmayr.at,Facility
AT,47.2186875,13.1062629,obergroebnergut.com,Facility
AT,47.0422398,15.8332397,weinhof-grabner.at,Facility
AT,48.7007803,14.8924575,ebike-neunteufel.at,Commerce
AT,48.2145123,16.5117628,palmenapotheke.at,Commerce
AT,46.8077122,15.4207355,weingut-schmoelzer.at,Facility
AT,47.3792113,11.8399961,restaurant-zum-senner.at,Facility
AT,47.451232,11.8711759,hotelsonnenuhr.at,Facility
AT,48.2220471,16.4323431,zum-straba.at,Facility
AT,47.1597288,15.8580025,goellesmetallbau.com,Unknown
AT,47.021806,15.4239544,sportboote.at,Commerce
AT,47.388917,11.2598302,haus-waldheim.info,Facility
AT,46.7560476,15.1539886,seewaldhof.at,Facility
AT,48.1990971,16.3377788,kinderatelier.at,Unknown
AT,47.7247788,16.3574652,schwedenbox.at,Commerce
AT,47.2260294,12.0369724,sportalm-gerlos.at,Facility
AT,48.1926513,16.2883497,sportcentercumberland.at,Facility
AT,48.6025439,15.1624596,seelenruhig.at,Facility
AT,48.191403,13.9289621,aab-eisterer.at,Unknown
AT,47.1937974,14.7471797,cafe-wasserturm.at,Facility
AT,47.1726717,11.867468,almhof-mayrhofen.at,Facility
AT,48.3119382,14.2996658,b7fahrradzentrum.at,Commerce
AT,47.8527744,13.3450434,goeschlberger-mondsee.at,Facility
AT,48.1945687,16.3522047,kaiserwalzer.at,Facility
AT,47.4394516,11.894771,brauhaus-rattenberg.at,Facility
AT,47.9593366,14.7734994,flash-line.at,Facility
AT,46.9383233,14.7303749,buchbauer-klippitz.at,Facility
AT,47.40099,11.7935983,kinderreha-wiesing.at,Facility
AT,47.3171897,11.6684799,asw-installationen.at,Unknown
AT,48.1946408,15.6225514,panther-apotheke.at,Commerce
AT,47.1130938,14.2136808,petautschnig.at,Commerce
AT,48.2000857,16.3107593,besenparty.at,Commerce
AT,48.4501795,13.5945848,kaltenmarkt.at,Facility
AT,46.8399543,12.8458023,straganzhof.at,Facility
AT,47.9506099,16.8389992,arendt-wendelin.at,Unknown
AT,47.9175257,13.8041585,traunseenet.at,Commerce
AT,46.8026076,14.8298229,eventhalle-wolfsberg.at,Facility
AT,48.1614545,16.4175788,cityapartments-wien.com,Facility
AT,48.1976169,16.3810242,restaurant-hu.at,Facility
AT,48.1006323,14.4351543,obstbau-stoegbauer.at,Commerce
AT,48.3309871,14.3147227,dornacher-stubn.at,Facility
AT,48.2606319,16.3656095,dr-pfister.at,Unknown
AT,47.1266111,13.8100954,tourismuslungau.at,Facility
AT,47.9914331,14.1655558,peterseil-nussbach.at,Commerce
AT,47.9505877,16.7618832,zweiradklinik.com,Commerce
AT,48.5410779,16.5479408,weingutkurz.at,Commerce
AT,47.7253912,12.9069584,marienheilzentrum.org,Facility
AT,47.5228269,15.2326405,pizza-koenig-thoerl.at,Facility
AT,47.1067796,11.6094844,alpengasthof-kasern.at,Facility
AT,47.5879756,12.5628577,glockendorf.tirol,Facility
AT,48.1268352,16.283213,catenasport.at,Commerce
AT,47.6966677,15.9839205,buchbach-liesling.at,Facility
AT,47.5272168,9.860668,tonis-kuhstall.at,Facility
AT,48.1586185,14.0253276,basler-beauty.at,Commerce
AT,47.9261943,14.4322244,vslosenstein.com,Facility
AT,48.5863044,15.6611299,ff-zitternberg.at,Facility
AT,48.4549634,13.4420773,sk-schaerding.at,Unknown
AT,48.1407589,16.4822417,waschbaer-innenreinigung.at,Commerce
AT,47.9373111,14.1135114,wiho-formenbau.at,Commerce
AT,48.1050459,15.6054926,florian-hink.at,Commerce
AT,48.1895346,16.3273756,biomed-austria.at,Commerce
AT,47.9884821,16.6590201,landgasthausschiller.at,Facility
AT,46.7037341,12.6778828,untertilliach.at,Facility
AT,48.1909958,16.3526766,brehm-immobilien.at,Commerce
AT,47.2702783,11.4070628,tirolergeschichtsverein.org,Unknown
AT,48.103161,12.7613738,reithof-piber.at,Facility
AT,46.6138661,13.8477205,bikers-republic.at,Commerce
AT,48.1965477,16.3647612,zahnarzt-1040wien.at,Facility
AT,48.2635313,16.4527889,friseur-haarlekin.at,Facility
AT,48.088722,16.3103596,urologe-georgiades.at,Facility
AT,47.1386625,10.2804156,arlbergerin.at,Facility
AT,48.7580826,15.9516981,museumretz.at,Facility
AT,47.4157555,11.8780679,elektro-bischofer.at,Commerce
AT,48.5956994,15.670794,eislaufplatz-gars.at,Facility
AT,48.125647,16.2700324,kopfschritte.at,Commerce
AT,47.1695245,16.0135372,ms-badwaltersdorf.at,Facility
AT,47.4933809,12.0704539,kts-schmidt.at,Commerce
AT,48.2057328,14.3843431,florianerbahn.at,Facility
AT,47.252847,11.3938045,buchbinder-koell.com,Commerce
AT,47.5916612,16.533013,kerschbaum.at,Commerce
AT,47.1539372,11.7236797,sonnleiten.at,Facility
AT,47.475044,9.7253648,papperocks.com,Commerce
AT,48.6000159,15.1688865,im-inn-zwettl.at,Facility
AT,47.5602253,14.258117,jet-austria.at,Commerce
AT,48.3030692,14.0155816,kuba-eferding.at,Unknown
AT,47.0432187,15.4550083,reisenhofer-transporte.at,Commerce
AT,46.6835025,12.8337988,zimmer-lesachtal.at,Facility
AT,47.3913477,13.0571672,mittereggalm.com,Facility
AT,48.1754211,16.3816246,smartapart.at,Facility
AT,47.1325536,15.340589,schichlvet.at,Commerce
AT,47.1944554,14.6738446,therme-aqualux.at,Facility
AT,47.1438249,12.628076,gletscherwelt-weissee.at,Facility
AT,47.3638112,13.4534025,radstadt-altenmarkt.at,Unknown
AT,48.2322271,16.2933282,arco-adige.at,Facility
AT,47.9804862,13.6983397,schranzinger.at,Commerce
AT,47.0821558,10.4628873,hotel-mallaun.at,Facility
AT,47.4149246,11.2093394,moessmer-leutasch.at,Facility
AT,48.1191111,13.1572567,pfarre-schalchen.at,Facility
AT,47.938713,16.142567,krueger-group.com,Commerce
AT,47.1192435,14.7163475,horseshoe4you.at,Commerce
AT,48.2307213,16.3682078,kluckyland.com,Facility
AT,46.8634565,15.9016571,bestattung-luttenberger.at,Commerce
AT,48.1913,16.3344411,doktorgraf.at,Facility
AT,47.8809103,13.0200932,salzburger-oelmuehle.at,Commerce
AT,47.8839982,14.1351888,pizzeriadanonnaelvira.com,Facility
AT,47.2646715,11.3913758,nami-innsbruck.at,Facility
AT,47.173403,15.334681,ssi-schaefer.com,Commerce
AT,47.3897063,11.7997103,hblfa-tirol.at,Facility
AT,48.1908786,16.3475987,doncamillo-lieferung.at,Facility
AT,48.2354964,16.4638696,zum-goldhirsch.at,Facility
AT,46.8635762,15.7677457,kniewallner.at,Commerce
AT,46.9751645,16.0443801,rucksackpeter.at,Facility
AT,47.3298399,11.1898769,reinigung-seefeld.at,Commerce
AT,48.1734209,16.3943967,amkempelenpark.at,Commerce
AT,47.4063338,12.9043915,pfarre-mariaalm.at,Facility
AT,47.5537949,14.1491594,anettsgasthaus.at,Facility
AT,48.708047,15.8465429,weinterrasse-pulkau.at,Facility
AT,48.2133025,16.3718177,rolfbenz-fuhrmann.at,Commerce
AT,47.2765475,12.4862101,felberschmied.at,Unknown
AT,48.7002033,14.8975772,blumen-weitra.at,Commerce
AT,47.7907577,12.9643034,diebachschmiede.at,Facility
AT,48.3095416,16.325505,schrannenhof.at,Facility
AT,48.5119042,14.5056584,foxi-schlosstaverne.at,Facility
AT,46.8210066,15.3162302,gefluegel-wild-draxler.at,Commerce
AT,47.5840504,12.1710466,kufsteinerhof.at,Facility
AT,47.8132473,13.076762,hotel-hofmann.at,Facility
AT,47.3262131,13.3466434,gipfelstadl.at,Facility
AT,48.2027154,15.7626169,kickinger-bau.at,Commerce
AT,46.981163,14.2158066,hut-kollmann.at,Commerce
AT,46.8355734,14.5402849,zumdorfschmied.at,Facility
AT,48.3928474,15.467256,weingutprager.at,Commerce
AT,48.2134514,16.3827051,praterstrasse.wien,Facility
AT,47.0554627,14.4257959,schlosslind.at,Facility
AT,47.5410787,14.8956864,dental-markt.com,Facility
AT,48.40929,15.5965063,hofbraeu-am-steinertor.at,Facility
AT,48.0553959,14.5841331,wirtshauskuchl.com,Facility
AT,47.5043067,9.7477971,toscana-bregenz.at,Facility
AT,47.2584545,11.4119152,physio-einspunktnull.com,Facility
AT,48.4276626,14.4834774,gh-oxnwirt.at,Facility
AT,47.2681989,12.753118,dorfkrug-kaprun.at,Facility
AT,48.4102268,15.6039452,notarpartner.at,Commerce
AT,48.1985094,16.3630743,nautilus-fischrestaurant.at,Facility
AT,48.3035532,14.3001462,optikmayer.com,Commerce
AT,47.5879268,12.1768245,pizzeria-jolly.at,Facility
AT,47.4623839,12.3879834,kfz-pancheri.at,Commerce
AT,48.1663658,16.2727796,waldschule1130.at,Facility
AT,47.4330482,13.5145019,schischule-filzmoos.at,Facility
AT,47.1135051,15.5030733,body-mind-spirit.at,Facility
AT,47.0309561,15.4054385,durmazgastro.com,Commerce
AT,46.6258412,14.3418131,falle-fischertreff.at,Commerce
AT,48.8288938,15.0903559,putzteufel-kfz-aufbereiter.at,Commerce
AT,47.4212253,13.6662402,obergrabnerhof.at,Facility
AT,48.1747469,16.3585108,davinci-apotheke.at,Commerce
AT,47.9297763,16.1765233,casa-indigo.at,Facility
AT,48.2532745,16.4203395,ordi-donaukids.at,Facility
AT,48.0313574,15.2260361,hueberderwirt.at,Facility
AT,47.016721,15.7293762,gartenservice-zettl.at,Facility
AT,47.267164,11.3955335,kogler-wolle.at,Commerce
AT,47.0200561,9.974889,appartgastauer.com,Facility
AT,46.9771471,16.2044849,gemeinde-weichselbaum.at,Facility
AT,47.5630064,12.7135471,luftenstein.at,Facility
AT,48.1420534,13.7400385,getreidetechnik.com,Commerce
AT,47.2172499,10.1523524,pensionalpenrose.com,Facility
AT,48.1249728,14.3247741,tirolerstueberl.at,Facility
AT,46.6838181,12.928351,gasthof-ainetter.at,Facility
AT,47.3727176,11.1661046,landhaus-rustika.com,Facility
AT,48.059582,15.1330628,fusspflegeevelyn.at,Facility
AT,47.3748317,11.1687573,landhaus-solaris.at,Facility
AT,47.4498855,12.1558169,brixental-apotheke.at,Commerce
AT,47.4517278,9.7416493,egonboehler.at,Commerce
AT,47.7964377,13.0482711,paul-stube.at,Facility
AT,47.3417334,10.844933,nassereither-alm.at,Facility
AT,47.052907,10.7510021,weisseespitze.com,Facility
AT,48.4088716,15.6174771,st-nikolaus-krems.at,Facility
AT,47.2594945,12.2762091,panorama-bogensport.at,Facility
AT,47.0305197,15.4649244,optik-temmel.at,Commerce
AT,48.1473179,16.2826497,pfarre-erloeserkirche.at,Facility
AT,48.6368774,13.9708304,stift-schlaegl.at,Facility
AT,48.4139021,15.7725222,wachau-automobile.at,Commerce
AT,46.9577381,15.3590734,motor-huetter.at,Commerce
AT,48.3023114,16.4079132,tierärztin.at,Commerce
AT,47.9568193,14.7780995,musikschulewaidhofen.at,Facility
AT,48.1958406,16.291654,dr-schlegel.at,Facility
AT,47.4200312,9.71895,gertruds-garten.at,Commerce
AT,48.4581454,15.7200795,hadersdorf-kammern.at,Facility
AT,47.7743305,13.0426014,dueckelmann.at,Facility
AT,47.4620905,13.1998016,physiotherapie-pfarrwerfen.at,Facility
AT,47.281962,15.9556456,weinbau-schmallegger.at,Facility
AT,47.3307145,11.1934397,schoenangerhof.com,Facility
AT,48.2005679,16.3614561,ifdogsrunfree.com,Facility
AT,48.05864,13.1609762,reitshammer.at,Commerce
AT,48.1945368,16.3626452,friendlyfire.at,Commerce
AT,47.028156,15.4733539,svliebenau.at,Facility
AT,48.2222889,13.3281062,mediwohl-massage.at,Facility
AT,48.6766,16.6236485,hotel-neustifter.com,Facility
AT,48.057711,14.8550695,gasthaus-zur-palme.at,Facility
AT,47.5665666,12.7052821,ferienhotel-lofer.com,Facility
AT,46.8342557,14.405221,liebenwein-weco.at,Unknown
AT,46.9008854,11.0512134,rimlsports.com,Commerce
AT,48.1169558,14.0188343,elektro-achleithner.at,Commerce
AT,48.1489981,16.3094312,dampfvilla.at,Commerce
AT,48.1770532,16.409863,kfz-fichtinger.at,Commerce
AT,48.6109997,15.1578158,mazda-kolm.at,Commerce
AT,47.7171539,16.0820735,zahnarzt-neunkirchen.at,Facility
AT,48.3338989,16.4567569,design-fliesen.at,Unknown
AT,47.2147458,10.7826304,guenters-schlosserei.at,Commerce
AT,48.1811956,16.3191284,umzugsexpress.at,Commerce
AT,48.2347557,13.8302601,grieskirchner@trachtenalm.at,Commerce
AT,48.1989777,15.6124634,vinzenzpauli.at,Facility
AT,48.1551865,15.6141102,car-center-sued.at,Commerce
AT,48.2281492,16.3705109,cafe-henriette.at,Facility
AT,47.8588916,13.7833996,braeuwiese.at,Facility
AT,48.1926924,16.3526778,polyklamott.at,Commerce
AT,48.2044527,16.3857698,elisabeth-pflege.at,Facility
AT,47.2585704,10.0943419,berghaus-schroecken.at,Facility
AT,47.4876515,14.4883108,blumenblattwerk.at,Commerce
AT,47.2837861,11.509509,parkhotel-hall.com,Facility
AT,48.0146605,14.4148132,sport-kaiser.com,Commerce
AT,47.7707032,13.361372,haus-am-hang.at,Facility
AT,48.160437,13.1226459,krabbelstube-uttendorf.at,Facility
AT,48.1798479,16.3687517,samariter-favoriten.at,Unknown
AT,47.9406476,16.851866,schreiner-fenster.at,Commerce
AT,47.2885537,12.4754957,schachernhof.at,Facility
AT,47.24294,10.2958933,gaestehaus-zangerl.at,Facility
AT,48.3906261,16.8397645,weingut-kriegl.at,Facility
AT,48.205356,16.3760655,springer-vienna.com,Commerce
AT,48.0407747,13.5808726,automax-puchkirchen.at,Commerce
AT,48.1742598,16.3658178,hoechsmann-kfz.at,Commerce
AT,48.3097723,16.3248997,dr-guggenberger.at,Facility
AT,48.0107985,16.5749364,jozef-pisarcik.at,Unknown
AT,48.1167897,16.2280481,kammersteinerhuette.at,Facility
AT,48.3027008,16.5638509,barbarapacejka.com,Commerce
AT,46.5895642,13.8466532,tieraerztin.org,Commerce
AT,46.6130145,13.8467963,neuebuehnevillach.at,Facility
AT,47.573135,10.456159,landhausmueller.info,Facility
AT,47.2765988,11.4075992,nematis-saggen.at,Facility
AT,47.2091563,10.138697,grissemann-lech.at,Facility
AT,47.897218,15.9641744,hanna-gruber-friseur.at,Facility
AT,48.2774778,16.4410938,frohes-schaffen.info,Facility
AT,48.0297288,14.4254746,bestpartner.at,Commerce
AT,47.4869909,15.7328422,gasthof-zurklause.at,Facility
AT,46.9549206,12.9609965,sadnighaus.at,Facility
AT,48.317954,16.0220266,hotel-tullnerfeld.at,Facility
AT,47.4752039,11.9761519,garten-eder.at,Commerce
AT,48.1944306,16.2942639,cafefidelios.at,Facility
AT,48.2047973,15.6256433,cucina-vini.at,Facility
AT,48.1742967,16.3788366,ipm-amalienbad.at,Facility
AT,47.1318109,15.5791677,su-hartpurgstall.at,Facility
AT,47.3193646,9.9985453,alpenrose-au.at,Facility
AT,48.5608006,16.6574552,gasthof-schmidt.at,Facility
AT,48.1840888,16.3554427,chicken-house.at,Facility
AT,48.1669876,14.0248296,knoedelwirt.at,Facility
AT,48.1971986,15.9087671,friseur-reiser.at,Facility
AT,48.1645296,16.3148724,dolce-vita-pizzeria-wien.at,Facility
AT,47.168293,10.7309904,alpina-pitztal.at,Facility
AT,48.2102616,14.2588308,sportpark-obermayr.com,Facility
AT,47.3795165,11.7715809,bauernkuchl.at,Facility
AT,48.2169759,16.4873967,cafe-hummel.com,Facility
AT,47.7122277,13.6189485,castello-pizzeria.at,Facility
AT,47.0692365,15.4418952,kardiologie-pap.at,Facility
AT,47.2142518,14.8245641,musikschule-knittelfeld.at,Facility
AT,47.4608958,11.8911091,fischerstube.eu,Facility
AT,47.6238284,13.6441817,agathawirt.at,Facility
AT,48.2073196,16.3759548,santospirito.at,Facility
AT,48.2206263,16.3446731,mondial-medica.at,Commerce
AT,48.0458967,14.6227503,simonebraeu.at,Facility
AT,48.2988017,15.369075,familienpark-hubhof.at,Facility
AT,48.3411678,16.7216946,haustechnik-legerer.at,Commerce
AT,48.1544564,16.2776722,ac-sagittarius.at,Facility
AT,48.2464746,16.4287152,japaneseschool-wien.at,Facility
AT,48.2121407,16.3645416,klosterladen.at,Commerce
AT,47.5210527,9.8841561,wellnesshotellinde.at,Facility
AT,48.2271508,16.3407055,lepetitchou.at,Commerce
AT,48.219348,16.3170391,dr-wuketich.at,Facility
AT,47.0928282,15.7187054,rcgleisdorf.com,Facility
AT,47.80578,16.1432182,weikersdorf.at,Facility
AT,47.3449706,11.8510783,therapie-balance.at,Facility
AT,47.070601,10.7472407,wiesenhof-kaunertal.at,Facility
AT,47.2174071,15.6242434,derfeiertag.at,Commerce
AT,47.3810391,15.0937007,schluesseldienst-lausecker.at,Commerce
AT,47.6250217,12.214949,ferienwohnung-bucher.com,Facility
AT,47.0706232,15.4416745,bright-hairdressers.at,Facility
AT,47.2697361,11.4046072,bike-klinik.com,Facility
AT,48.3496406,16.7271998,ak-autoteile.at,Commerce
AT,48.435561,14.0428787,mandl-bauer.at,Commerce
AT,48.1363575,13.9444843,ffgunskirchen.at,Facility
AT,48.2711467,14.2916693,hilly-billy-tanzclub.com,Facility
AT,47.0526799,10.6512276,hotel-linde.at,Facility
AT,47.0476675,15.1500705,notarhuber.at,Commerce
AT,48.5637277,16.5648272,restaurant-diesner.com,Facility
AT,47.5101146,10.5551536,comfortcamp.eu,Facility
AT,47.6161357,15.7536797,spitalamsemmering.com,Facility
AT,47.2626164,11.3984227,kinderarzt-gschoesser.at,Facility
AT,47.3859686,9.9048113,sonne-bezau.at,Facility
AT,47.8704921,16.9741946,weingut-biohoflang.at,Commerce
AT,47.914333,16.6927395,braunstein.at,Facility
AT,47.1707363,10.1621619,hotel-erzberg.at,Facility
AT,48.4113572,15.601585,schwarze-kuchl.at,Facility
AT,48.1235004,14.0932327,autodelfin.at,Commerce
AT,48.5150832,15.4982452,drlasinger.at,Facility
AT,47.1006212,14.0868518,clubhotel-kreischberg.at,Facility
AT,48.2120372,16.3290657,ddrgeyerhofer.at,Facility
AT,48.2080556,16.3324278,geschickt-bestickt.at,Commerce
AT,48.027834,14.2115667,promente-reha.at,Commerce
AT,47.1344219,10.2734376,parseierblick.at,Facility
AT,48.0052247,16.2312688,tomate-baden.at,Facility
AT,48.2362173,16.4236382,dr-bitriol.at,Facility
AT,48.8692667,15.1256429,originalteile.at,Commerce
AT,47.4900744,9.6867754,hotelamsee.biz,Facility
AT,48.0504168,14.3967164,riegler-metall.at,Unknown
AT,48.2186279,13.8814728,cncservice.at,Unknown
AT,47.2746236,13.6931161,xn--keinprechthtte-qsb.at,Facility
AT,47.266755,11.389995,dr-gabauer-fidalgo.at,Facility
AT,47.7856466,13.066302,med-salzburg.at,Facility
AT,48.2442981,14.2944375,lechner-textil.at,Commerce
AT,48.3153115,15.9120045,countryclub.at,Facility
AT,48.2358026,14.2770085,anger-machining.com,Commerce
AT,48.1880921,16.267417,wannaphabeauty.com,Facility
AT,47.8690033,14.6743146,holzner-tuning.at,Commerce
AT,48.3046355,14.0225591,pts-eferding.at,Facility
AT,48.1076241,16.2828963,moerk-moerkenstein.at,Facility
AT,48.0416641,14.6321152,elektrofahrzeugeschachner.at,Commerce
AT,47.3506053,15.0088471,zahnarzt-karelly.at,Facility
AT,48.2290872,16.3980795,colala-wien.at,Facility
AT,47.5639105,13.3463989,pfarrverband-lammertal.at,Unknown
AT,46.6971679,15.4238112,weinbau-skringer-ranz.at,Facility
AT,48.1251447,14.8681558,holzer-weiss.at,Commerce
AT,47.0667581,15.445651,reisebuero-luggin.at,Commerce
AT,46.6063185,13.8611676,kaerntnersparkasse.at,Facility
AT,47.8158189,13.7215035,feuerkogel.com,Facility
AT,47.9473128,16.8457205,joespubneusiedl.at,Facility
AT,48.2505382,16.4790979,apotheke-breitenlee.com,Commerce
AT,47.2245458,12.0309345,michis-appartements.com,Facility
AT,48.0882207,17.0675569,landhof-laden.at,Commerce
AT,48.4483357,15.5618019,schlapfnwirt.at,Facility
AT,48.2907853,14.2891884,wuerstl-treff.at,Facility
AT,47.4092202,15.2667448,baeckerei-fuchs.at,Commerce
AT,46.9748902,11.007744,zahnarzt-soelden.at,Facility
AT,48.2747309,14.2942524,golf-direkt.com,Commerce
AT,47.3124349,10.0170673,sporthotel-krone.at,Facility
AT,47.2628033,13.1663572,aubauernhof.at,Facility
AT,48.7268589,16.5831113,3d-bogensport-falkenstein.at,Unknown
AT,47.3860777,11.2730379,harrys-huette-tirol.info,Facility
AT,47.160191,16.289074,ff-guettenbach.at,Facility
AT,47.770711,14.170619,pro-adventures.com,Facility
AT,48.2178801,16.361706,orlandobuch.at,Commerce
AT,48.2281364,16.3546099,safran-vienna.at,Facility
AT,48.3956114,15.578457,phets-thai-kitchen.at,Facility
AT,48.2044239,16.4574713,cafe-schillwasser.at,Facility
AT,48.2187616,16.3772145,schoene-perle.at,Facility
AT,47.682122,13.0960938,genusskraemerei.at,Facility
AT,48.1990073,16.3824585,versatorium.at,Facility
AT,48.3941654,15.4689049,hotel-donauhof.at,Facility
AT,46.6045127,13.8432564,perauapotheke.at,Commerce
AT,47.4024374,13.7264654,schladming-ferienwohnung.at,Facility
AT,48.2544151,16.4079227,therapie-donaufeld.com,Facility
AT,46.8281166,12.7507858,gribelehof.com,Unknown
AT,47.7274759,16.0646966,ristorante-riccardo.at,Facility
AT,46.9676207,10.5332572,traube-pfunds.at,Facility
AT,48.3392745,16.2140759,distelfink.bio,Commerce
AT,48.6446732,13.8390171,bienenplatzerl.at,Commerce
AT,48.1933025,16.3688615,waldorfkindergarten1040.at,Facility
AT,47.9691117,13.1038233,laguna-pizzeria.at,Facility
AT,48.5723777,14.8567361,bison-ranch.at,Facility
AT,48.1914416,16.363321,pizzeria-peperoni.at,Facility
AT,48.155764,16.2830912,abfluss-service.at,Unknown
AT,47.7532044,16.437639,pöttelsdorf.at,Facility
AT,48.1816223,14.0102438,revitalistgenial.at,Commerce
AT,47.8032197,13.4799618,malereimaier.at,Commerce
AT,48.4115876,15.6027759,papastapas.at,Facility
AT,47.4213338,13.655755,verweilzeit.at,Facility
AT,46.8131656,15.2255576,autohaus-hermann.at,Commerce
AT,48.3303009,16.1059265,efe-autoteile.at,Commerce
AT,46.9729495,9.9175353,alpenrose-gargellen.at,Facility
AT,48.473442,15.6757878,neubauer-dach.at,Unknown
AT,46.8389708,14.9919436,europeanlithium.com,Unknown
AT,47.2126578,14.8277423,bindergmbh.at,Commerce
AT,47.5025178,16.5051966,munzur-pizza.at,Facility
AT,46.8710067,13.3139759,kanufreizeit.at,Facility
AT,47.2395635,10.7422647,lachfabrik.at,Facility
AT,47.149616,11.3470756,tirolerhof-fulpmes.at,Facility
AT,48.2122346,13.4893539,bauboeck-gat.at,Commerce
AT,47.8773467,16.0044432,reichentalerhof.at,Facility
AT,47.9410417,14.8567767,riesskelomat.at,Commerce
AT,48.1869479,16.3787454,semperitgroup.com,Commerce
AT,47.4526612,9.9184173,aczenteinholz.at,Unknown
AT,47.8323959,16.2592237,bierwiener.at,Commerce
AT,47.270464,11.3947071,congress-innsbruck.at,Facility
AT,48.1913329,16.3579187,daniels-haare.com,Facility
AT,47.3577033,13.3894937,atempause-flachau.at,Facility
AT,46.8681837,10.8793002,breslauerhuette.at,Facility
AT,48.5666652,16.5688027,schnittstelle-mistelbach.at,Facility
AT,46.8898061,15.2731667,tenniscenter-stainz.at,Facility
AT,48.1574698,14.0257819,hoellertaschen.at,Unknown
AT,47.4361714,12.7395742,fewo-herbst.at,Unknown
AT,47.7647428,14.2074682,gasthaus-niesl.at,Facility
AT,48.3536162,16.7363668,maler-horny.at,Unknown
AT,47.1179462,15.3398369,mach-partner.at,Unknown
AT,48.1858452,14.1049517,mm-projekt.at,Unknown
AT,48.1784918,14.5381588,feuerwehr-stvalentin.at,Facility
AT,46.9467827,15.9148597,elektro-a-markt.at,Commerce
AT,47.9047742,16.3903133,vspottendorf.at,Facility
AT,47.2760868,15.5144719,zottler-tischlerei.at,Commerce
AT,48.0461836,14.4126243,fliesenmarkt-steyr.at,Commerce
AT,48.1366496,15.2763674,irlinger-gmbh.at,Commerce
AT,46.8026626,13.577847,villa-margarethe.at,Facility
AT,47.3199539,15.6900417,ff-koglhof.at,Facility
AT,48.3022614,14.2873963,zwei-spittelwiese.at,Commerce
AT,47.2556034,11.3802261,barefootcoffee.at,Facility
AT,48.7198374,16.3862884,kutschenmuseum-laa.at,Facility
AT,47.7701425,13.3680936,uyc-wolfgangsee.at,Facility
AT,47.4946631,10.7368592,plansee-group.com,Facility
AT,47.8093117,13.0321185,biber-salzburg.at,Facility
AT,48.2046259,16.3744617,kellergwoelb.com,Facility
AT,47.2395319,9.6006058,kinderaerztin-jonas-feldkirch.com,Facility
AT,48.2002668,15.619918,glaserei-mayrhofer.at,Commerce
AT,48.0791876,14.1631463,bogensport-schicklberg.at,Facility
AT,46.6376765,14.2946162,dasgutachten.at,Commerce
AT,47.8032505,13.0458715,trumer-stube.at,Facility
AT,47.8574742,13.3473278,alpen-bike.com,Facility
AT,47.9441577,14.8090922,hirtenlehner-bau.at,Commerce
AT,46.631675,14.537012,sicherrestaurant.at,Facility
AT,47.5483347,10.6315543,ibf-solutions.com,Commerce
AT,47.7994858,16.673122,nhaberhauer.at,Facility
AT,47.0341319,15.1754011,buchhauser.at,Commerce
AT,48.3211203,15.8864848,strug-graf.at,Commerce
AT,47.8603705,16.1031804,scherrerwirt.com,Facility
AT,47.6361135,13.7517079,apartment-altaussee.at,Facility
AT,47.0677856,15.4429401,digitalcameragraz.at,Commerce
AT,48.1577278,14.0247436,rustica-wels.at,Facility
AT,47.142549,10.7091883,hoteltischler.at,Commerce
AT,47.7087743,16.0276093,christof-group.com,Unknown
AT,47.3163077,10.0145073,haus-dorfblick.at,Facility
AT,47.457185,9.7525445,romadolcevita.at,Facility
AT,48.151203,16.267942,yogazentrum-mauer.at,Facility
AT,48.2910761,16.3142243,ffweidling.at,Facility
AT,46.974902,15.6909094,steinkleibl.at,Commerce
AT,48.1904877,14.1142544,brillenrappan.at,Commerce
AT,48.1983038,16.3166673,neuhold-nt.at,Commerce
AT,47.1253225,10.2592407,haus-flatscher.com,Facility
AT,46.8866137,15.8970311,hindenburghof.at,Facility
AT,48.1498142,16.6635823,fcmarchfeld.at,Facility
AT,47.0798611,15.4691474,bbmri-eric.eu,Facility
AT,47.1266372,11.6951887,waldheim-tux.at,Facility
AT,48.1879551,16.352271,taekwondowien.at,Facility
AT,48.22592,16.3513953,gruenraum-robitza.at,Commerce
AT,47.4405532,16.0685139,musikschule-pinggau.at,Facility
AT,47.2648365,11.4395594,create-sports.com,Commerce
AT,47.0329821,15.8333269,ursteirerhof.at,Facility
AT,48.814811,15.2872994,kunst-galerie-waldviertel.at,Facility
AT,47.2623674,11.3946892,notariat-innsbruck.at,Commerce
AT,47.2131098,10.6972561,alpenrast-tyrol.at,Facility
AT,48.1746612,16.3802273,meixners-gastwirtschaft.at,Facility
AT,47.9579757,14.7167686,pension-seisenbacher.at,Facility
AT,47.2413413,13.1036135,pension-theresia.com,Facility
AT,48.1390119,16.3121831,pizzeria-aladdin.at,Facility
AT,48.1541867,14.0361264,tfp-fertility.com,Facility
AT,47.2440247,15.5529893,duerntalwirt.at,Facility
AT,47.4617561,10.7155259,dragon-fly.at,Commerce
AT,48.2099258,16.3440801,comic-galerie.at,Commerce
AT,47.2311898,11.4091285,kunstwerkstall-igls.at,Commerce
AT,46.7265522,15.5819126,ms-ehrenhausen.at,Facility
AT,48.0885577,16.2832269,pfadfinder-moedling.at,Facility
AT,48.1960481,16.3643482,fahrradmeister.at,Commerce
AT,46.9708464,11.0112973,landhaus-soelden.at,Facility
AT,47.2929328,11.5921293,ihre-augenaerztin.at,Facility
AT,46.6685967,12.9997821,resthurant.at,Facility
AT,47.2685728,11.4040755,christianreiter.at,Commerce
AT,48.3036921,16.3265076,restaurant-tam.at,Facility
AT,47.3958133,11.7748706,zahnschmiede.at,Facility
AT,47.1667039,11.6404603,lizumerhuette.at,Facility
AT,48.3058785,14.2848979,hofkabinett.at,Commerce
AT,48.1984964,16.3285843,wokimbiss-15bezirk.at,Facility
AT,47.3308215,11.1792723,landhaus-patrizia.at,Facility
AT,47.4208569,9.7486682,spielfabrik.at,Facility
AT,48.6507107,15.7182178,wirtshausknödelmanufaktur.at,Facility
AT,47.9568969,13.0078876,arzt-hubner.at,Facility
AT,46.9744592,11.0102251,sportpension.at,Facility
AT,48.3498065,15.7466431,nibelungenhof.at,Facility
AT,48.1396239,15.1370833,teppichwaescherei-hgw.at,Commerce
AT,47.4554977,15.3234824,vermietung-wratschko.at,Commerce
AT,48.135211,16.1883537,felgenklinik.at,Commerce
AT,46.7244487,14.095842,feldkirchen.at,Facility
AT,47.2485685,9.6101913,kaez-feldkirch.at,Facility
AT,47.1154401,16.0525232,zurpost-blumau.at,Facility
AT,48.2054609,16.3739743,losteria-del-collio.at,Facility
AT,47.48494,9.9340622,gasthaus-brauerei.at,Facility
AT,48.2059798,15.6210559,kinder-jugend-familie.at,Commerce
AT,48.2173775,16.3593344,austriaapo.at,Commerce
AT,47.4976451,9.7331056,raibabregenz.at,Facility
AT,48.5636267,16.56436,deine-kinderaerztin.at,Facility
AT,48.1935613,16.3599933,restaurant-on.at,Facility
AT,48.4107311,15.5985246,xiangmassage-krems.at,Facility
AT,47.0538696,15.8434779,markthartmannsdorf.at,Facility
AT,48.2406272,15.3359251,kerzenmeile.com,Commerce
AT,47.7557334,13.0366042,pflegerbruecke.at,Facility
AT,47.804441,13.0196618,kinderwunsch-salzburg.at,Facility
AT,47.7996473,13.043899,schatz-konditorei.at,Facility
AT,47.1339607,13.6794477,pizzeria-paletti.at,Facility
AT,48.2135059,16.3521986,wildling-foods.at,Facility
AT,47.9077261,13.7833275,gmundner-ruderverein.at,Facility
AT,47.5819416,12.170309,wtkufstein.at,Unknown
AT,48.2053143,16.3542858,ngoskitchen.com,Facility
AT,47.9301586,15.4905409,ff-tuernitz.com,Facility
AT,48.3079194,13.9580675,biohof-floimayr.at,Commerce
AT,47.9481227,14.7642107,opel-hojas.at,Commerce
AT,47.6105023,13.7845572,ausseer-stube.at,Facility
AT,47.2231441,12.7046335,salzburger-huette.at,Facility
AT,48.194752,16.2907112,macher-brot.com,Commerce
AT,47.2177964,14.8083593,elektrotechnik-ofner.at,Unknown
AT,47.4127229,9.7419986,kanzlei-rosenberger.at,Commerce
AT,48.1696507,16.0761633,vereinsmeierei.at,Unknown
AT,48.0535712,13.1521702,ziegenland.com,Commerce
AT,48.0454303,16.9308097,bsvpotzneusiedl.at,Facility
AT,46.9893732,16.2529954,heiligenkreuz-lafnitztal.at,Facility
AT,47.3354978,11.1931488,appartement-solstein.at,Facility
AT,48.2927037,16.30952,trat-wiesner.at,Facility
AT,46.9620358,11.0034289,appartkneisl.at,Facility
AT,47.8549517,13.3501699,hotel-krone-mondsee.at,Facility
AT,47.267051,11.3929563,kindermode-schuler.at,Commerce
AT,46.9493817,15.8858941,hilfswerk-steiermark.at,Facility
AT,48.3854892,16.2070648,fahrradtechnik-guenter-gerhart.com,Commerce
AT,47.7312071,13.4228168,urlaub-in-abersee.at,Facility
AT,46.6604393,14.6348865,smarthotel-voelkermarkt.at,Facility
AT,48.2229663,16.3532409,arizonabike.at,Commerce
AT,48.1939441,16.359529,sixta-restaurant.at,Facility
AT,47.7342948,16.5071315,heuriger-reiff.net,Facility
AT,47.6048457,12.6734654,hasnstall-lofer.at,Facility
AT,47.3683391,9.7057667,rentacastle.at,Facility
AT,48.5971897,15.6661112,holzbau-unfried.at,Commerce
AT,47.4312209,13.4650002,hartl-filzmoos.info,Facility
AT,48.134921,16.323981,american-restaurant.at,Facility
AT,48.1978905,14.0794381,knierzinger.at,Unknown
AT,47.0565071,10.6170697,sonnenterrasse-fiss.at,Facility
AT,47.6517344,12.7317163,baeckerei-ellmauer.at,Commerce
AT,46.9692976,11.0093515,apart-corona.at,Facility
AT,48.0680417,13.7609962,msv-schwanenstadt.at,Commerce
AT,47.4768365,9.7287915,dan-vorarlberg.at,Commerce
AT,47.3815762,9.896797,erlebnisgaestehaus-kanisfluh.at,Facility
AT,46.901059,11.05159,hotel-riml.com,Facility
AT,47.4735749,10.7124447,bkh-reutte.at,Facility
AT,47.4104667,9.7201553,schluessel-klien.at,Commerce
AT,48.1912656,16.3336159,ssnd-austria.org,Facility
AT,46.6176001,13.845896,verantwortung-erde.org,Facility
AT,47.0638923,15.4143216,ahs-reininghaus.at,Facility
AT,48.2397695,16.3849958,urologenzentrum.at,Facility
AT,48.2373097,16.3514906,hoftapezierer.at,Commerce
AT,47.37705,15.0952242,ordensgemeinschaften.at,Facility
AT,47.9596672,14.475668,erdelement.at,Commerce
AT,48.1976178,15.908372,artundwiese.at,Commerce
AT,47.2894967,9.6514286,zahnarzt-hafner.at,Facility
AT,47.5642322,13.7219577,koppenrast.at,Facility
AT,48.6043901,15.1678604,friseurmagichair.at,Facility
AT,46.9293114,13.8703269,zirbenwald-huetten.com,Unknown
AT,48.1601705,14.0244675,vermessungen.at,Unknown
AT,47.9615702,14.7740947,hno-friesenegger.at,Facility
AT,48.2179402,16.3417476,pyro-x-pert.at,Unknown
AT,47.1105412,14.1669368,hinterschweiger.at,Commerce
AT,46.8145996,13.8425977,badkleinkirchheim.at,Facility
AT,47.5132259,12.1114483,das-sieben.com,Facility
AT,47.1875694,16.1648065,vitalhotel-strobl.at,Facility
AT,48.1110999,15.1404332,unverpacktaustria.at,Commerce
AT,47.6632678,16.2066922,kfz-czeitschner.at,Commerce
AT,47.0151611,10.2924499,belvedere-ischgl.at,Facility
AT,48.2117148,15.2068999,optik-fuchs.at,Commerce
AT,47.5286458,16.4702063,draisinentour.at,Facility
AT,46.4764368,14.5910631,tc-badeisenkappel.at,Facility
AT,46.7258139,15.6306538,dr-brannan.at,Facility
AT,48.3485837,15.6488744,weinbau-rennhofer.at,Facility
AT,48.2065805,14.1620502,concomatic.at,Commerce
AT,48.0291858,14.8382989,ff-hiesbach.at,Facility
AT,47.3162194,9.6749774,rene-nachbaur.at,Commerce
AT,47.7370469,13.04501,danisbrotladen.at,Commerce
AT,47.6376684,12.2715118,haus-fischbacher.at,Facility
AT,46.7833191,12.662063,gasthof-aue.at,Facility
AT,47.8309284,13.0842741,hausarztmayrwies.net,Facility
AT,47.8036521,16.6138494,weingutwind.at,Commerce
AT,47.172589,13.1049088,app-brandner.at,Facility
AT,48.2452608,14.3706548,zum-hauermandl.at,Facility
AT,46.9739344,11.0030087,altesholzhaus.com,Facility
AT,48.2479585,16.3403258,tierarzt-wien-19.at,Commerce
AT,47.4954135,12.4167312,muellneralm.com,Facility
AT,47.4233343,14.9987567,fitness-schlager.at,Facility
AT,48.0827488,16.3166525,eumigmuseum.at,Facility
AT,48.4104819,15.6033545,optik-karin.at,Commerce
AT,48.2059042,16.3385101,apollosauna.at,Unknown
AT,47.723952,16.0810892,2rad-winkle.at,Unknown
AT,47.8550762,13.1175842,ruhe-frieden.at,Commerce
AT,47.070749,15.4339839,tanzschule-eichler.at,Facility
AT,47.3461859,9.8885342,sportnatter.com,Commerce
AT,46.9742169,11.012519,trofana-soelden.at,Facility
AT,47.807681,13.0414475,loftcollection.net,Facility
AT,47.3110737,10.119077,fewo-brunelle.at,Facility
AT,46.9615086,11.0083428,hausanneliese.at,Facility
AT,48.1809799,14.6905352,bauernhof-stadlbauer.at,Commerce
AT,48.2493603,14.2696095,topstudio-druckerei.at,Commerce
AT,48.2226254,15.6695109,grow2gether.at,Commerce
AT,47.2563105,11.3168343,easyfit-tirol.at,Facility
AT,48.2145524,16.3598476,dachverband-pan.org,Facility
AT,46.9738753,11.0032485,peak-soelden.at,Facility
AT,48.1900779,16.3890707,ibellissimi.at,Facility
AT,48.0057269,13.7083441,platzerglas.at,Commerce
AT,47.0093905,15.2154793,krottendorf-gaisfeld.at,Facility
AT,47.9972261,13.5057864,resch-haustechnik.at,Unknown
AT,48.0345215,13.5069294,hofmannplan.at,Commerce
AT,47.0638499,15.4006469,salon-kreiner.at,Facility
AT,47.3830939,13.6720201,edelweiss-rohrmoos.at,Facility
AT,47.4894166,10.8436077,musteralpe-plansee.at,Facility
AT,47.3810945,15.0938888,goldschmiede-wieser.at,Commerce
AT,47.5613911,14.0121358,sport-spanner.at,Commerce
AT,48.3449871,15.9107226,imschneidersitz.at,Facility
AT,47.4388409,11.6966313,ffpertisau.at,Facility
AT,47.0287565,15.4870913,loewensteinmedical.at,Commerce
AT,48.1858244,16.2985144,meine-textilreinigung.at,Facility
AT,47.7668037,13.3643498,konditorei-braun.at,Facility
AT,48.264083,14.2571712,pvzleonding.at,Facility
AT,46.7741033,15.5694433,edelbrand-peer.at,Commerce
AT,47.132197,11.4521648,toscana-matreiambrenner.at,Facility
AT,47.0907239,11.4671393,marien-apotheke-steinach.at,Commerce
AT,47.0919885,11.4665695,wilder-mann.at,Facility
AT,47.3939218,11.7852816,htl-jenbach.at,Facility
AT,47.1243868,13.8139765,haktamsweg.at,Facility
AT,48.25555,16.4606322,ich-will-bio.at,Unknown
AT,47.8106221,13.7703859,marktschwärmerei.at,Commerce
AT,47.2077983,10.1351803,hinterwies.at,Facility
AT,47.3535622,9.6665103,bowlinghouse.at,Facility
AT,46.6139843,14.2899523,palmfriendly.at,Commerce
AT,47.5351107,9.7784423,schoenblick.at,Facility
AT,48.2171132,14.4549796,trust-personal.at,Commerce
AT,48.219267,13.4961814,autohaus-katzlberger.at,Commerce
AT,47.4857038,12.1624732,skiverleih-itter.at,Facility
AT,47.109707,11.308573,campingstubai.at,Facility
AT,47.375539,13.4473033,zum-kaswurm.at,Facility
AT,48.5287718,15.8834982,florianihof-walzer.at,Facility
AT,48.1912403,16.3665127,kofferinsel.at,Commerce
AT,48.180087,16.385917,heriundsalli.com,Commerce
AT,46.716772,13.2948596,yachtdiver.at,Commerce
AT,47.269223,11.4386864,metalldeutsch.com,Unknown
AT,47.7749822,13.0708768,dunkelblaufastschwarz.at,Commerce
AT,48.3228298,16.0681059,tulln-stseverin.at,Facility
AT,48.2545936,13.0773298,kienesberger.at,Commerce
AT,47.4747462,9.6778712,haemmerle-spez.at,Unknown
AT,48.2173623,16.3353408,teapleaseshop.com,Facility
AT,48.2600104,16.4698086,edlerreifen.at,Commerce
AT,47.0784807,13.3446816,berghotelmalta.at,Facility
AT,48.2104163,16.3750478,alpenverein-austria.at,Commerce
AT,47.4191117,13.8736537,appartementhaus.at,Facility
AT,48.1974239,16.3656349,andfriends.at,Commerce
AT,47.2840096,9.8928106,alpinresort.eu,Facility
AT,48.1759583,16.317563,pinguin-apo.at,Commerce
AT,47.6425694,12.7259358,allsalzburghotels.com,Facility
AT,48.2411169,14.2269139,psychotherapie-hinterstoisser.at,Unknown
AT,47.7962827,13.0249052,fit-smartfood.com,Facility
AT,47.056675,10.6234178,apart-fridolin.com,Facility
AT,47.0721377,15.4526013,fontanaditrevi.at,Facility
AT,48.2048809,15.624579,griechenlandshop.at,Facility
AT,47.5815545,12.1723599,anne-lintner.at,Facility
AT,46.8044131,15.5643584,wolkenreich.at,Commerce
AT,48.2271445,16.344625,bennisnest.at,Commerce
AT,48.0974758,14.5410441,rika-kompressoren.at,Commerce
AT,48.4082466,15.6394002,feel-green.eu,Commerce
AT,48.2023193,16.3631169,germania-reinigung.at,Commerce
AT,48.2051808,15.6237738,suppendesign.at,Facility
AT,48.2122884,13.4825098,haarwerkstatt-traudi.at,Facility
AT,48.3205297,16.0808869,kammerhofer.cc,Commerce
AT,48.6028744,15.174673,lagerhaus-zwettl.at,Commerce
AT,48.1926321,13.9274902,hausleitner-schweitzer.at,Unknown
AT,47.00155,15.2659902,gaensweider.at,Unknown
AT,47.2715505,11.370198,alpin-bike.at,Commerce
AT,48.3544373,16.5982747,fernwaerme-bockfliess.at,Facility
AT,47.577914,10.4437504,berghoteltirol.de,Facility
AT,47.7860759,14.7987837,koenigsberg.at,Facility
AT,47.2274702,11.3753422,santalucia.at,Facility
AT,47.2611281,10.3449916,sportcenter-knitel.at,Commerce
AT,47.541592,14.8884206,museumsstadt.at,Facility
AT,48.235707,16.3896181,factorhappiness.at,Unknown
AT,48.3474602,16.3327584,marko-danubia.at,Facility
AT,48.1874666,16.3644516,wieselmann.land,Unknown
AT,48.0358969,15.7722156,raumzimmer.at,Commerce
AT,47.3064583,11.0718794,gamsjaeger-schmuck.at,Commerce
AT,47.2811914,11.5086292,kalligrafieraum.at,Commerce
AT,48.6752903,13.9101413,renaultkrendel.at,Commerce
AT,47.2102699,10.1451197,alpenland-lech.com,Facility
AT,48.2247125,16.3107221,weinhaus-arlt.bio,Facility
AT,47.4611834,15.3297204,koerner-kpfg.at,Facility
AT,48.2031159,16.4869939,muehlwasser-platzl.at,Facility
AT,48.3631208,14.0098463,apotheke-aschach.at,Commerce
AT,47.9461394,13.5947368,drpauzenberger.at,Facility
AT,47.3273839,12.7726622,pension-margarete.at,Facility
AT,48.1871477,16.3528145,pixelpizza.at,Facility
AT,46.6158224,13.849379,lapiazza-villach.at,Facility
AT,48.2396206,14.2454689,langholzfelderhof.at,Facility
AT,47.0638856,15.4308486,wirtshaus-bernsteiner.at,Facility
AT,48.2035017,16.3495365,klavierloft.at,Commerce
AT,48.2460445,14.2965423,welovelight.at,Unknown
AT,47.2809381,11.5067267,salon-seiwald.at,Commerce
AT,47.2690489,11.4008942,firmajirka.at,Commerce
AT,48.2128678,15.6254996,roccanapoli.at,Facility
AT,47.814858,15.544314,feuerwehr-kernhof.at,Facility
AT,47.0738812,15.4376637,schlossbergrutsche.at,Facility
AT,46.772715,15.9734371,schoeneaussichten.at,Facility
AT,46.6158689,13.8449423,fahrschule-molden.at,Facility
AT,48.1214144,16.2639955,schau-schau.at,Commerce
AT,47.5256316,12.054062,mariasteinerhof.at,Facility
AT,47.1277433,10.2636361,galzigbistrobar.at,Facility
AT,47.8222916,16.2179849,elektro-alfons.at,Commerce
AT,46.9358362,15.6630578,stahlbau-list.com,Commerce
AT,47.0216765,9.9650723,revierhotels.com,Facility
AT,47.52155,12.0937826,metallbau-kapfinger.at,Unknown
AT,47.6066139,15.671907,neurochirurgie-mrfka.at,Facility
AT,47.5025346,9.7466852,schuhvoegel.at,Commerce
AT,48.1828916,16.3739073,meyer-motorsport.at,Commerce
AT,46.9652691,11.0076749,oetzi-stadl.at,Facility
AT,48.1818547,16.2855433,osteria-piccolino.at,Facility
AT,47.4188829,9.6776927,vhv-lustenau.at,Facility
AT,47.0424073,15.4328633,derstadtelektriker.at,Commerce
AT,48.2689568,16.0121893,heuriger-kienberger.at,Facility
AT,48.2095694,16.3466977,musikhaus-berg.at,Commerce
AT,48.207885,16.3700372,trattoriasantostefano.at,Facility
AT,48.1089012,16.3148188,playworld-wien.at,Commerce
AT,47.8247726,16.1579965,weinstube-goldfuss.at,Facility
AT,47.9861832,15.1390965,oetk-scheibbs.at,Facility
AT,47.5177514,12.3394758,grottenthaler.at,Commerce
AT,47.3378906,11.8505018,chalet-fuegen.at,Facility
AT,46.9070076,13.5353505,notar-schoenlieb.at,Commerce
AT,47.1343585,12.6255727,alpinzentrum-rudolfshuette.at,Unknown
AT,48.2452647,14.2600973,peller-optik.at,Commerce
AT,47.9535049,15.0352011,bogenreiter.at,Commerce
AT,48.3852944,13.7509763,niederleitner.at,Unknown
AT,46.788223,15.5383851,hotel-guidassoni.at,Facility
AT,48.4634664,16.6540562,winzerhaus-stur.at,Facility
AT,47.4582772,9.9600578,adler-hittisau.at,Facility
AT,47.2006203,10.4785737,memmingerhuette.com,Facility
AT,48.2189289,16.4018052,tokosederhana.com,Commerce
AT,48.1808444,16.3753289,ferhat-döner.at,Facility
AT,48.2435722,13.030053,hlw-braunau.at,Facility
AT,48.2349168,13.8290955,goldschmiedehaus.at,Facility
AT,47.2267519,12.0553243,schoenachhof.at,Facility
AT,47.4077074,11.6982375,weissenbachalm.at,Facility
AT,47.2662677,11.3876885,e-bikestore.at,Commerce
AT,46.7337656,15.8794631,genusshirsch.at,Facility
AT,48.0353191,14.6547037,stift-seitenstetten.at,Facility
AT,47.3223232,9.9971345,barockbaumeister.at,Unknown
AT,47.0537554,10.612281,auriga-fiss.com,Facility
AT,46.9361192,15.3207593,tierarzt-lannach.at,Commerce
AT,47.058092,15.4525056,franziskus-apotheke.at,Commerce
AT,46.9697371,11.0103231,hotel-zentrum-soelden.at,Facility
AT,47.1034029,11.2989873,hotel-brunnenhof.at,Facility
AT,47.1414888,10.9220952,schafwollzentrum.tirol,Commerce
AT,48.1824103,16.3781058,zeitgeist-vienna.com,Facility
AT,47.4431199,11.8716857,jakoberhard.com,Commerce
AT,48.1949137,16.3611229,medammarkt.at,Facility
AT,48.7169873,15.9093861,winzerhof-wurst.at,Facility
AT,47.0163879,16.1023524,schlosserei-sorger.at,Commerce
AT,48.0491618,14.2095065,hobbytechnik.net,Commerce
AT,48.0016868,13.2300165,heutrocknung.com,Commerce
AT,47.0725517,15.4061192,mti-metalltechnik.at,Commerce
AT,47.587538,13.5403036,schwadenguetl.at,Facility
AT,48.297685,16.3282304,weinobstklosterneuburg.at,Facility
AT,48.0133533,15.5939944,keksteufel.at,Commerce
AT,48.2292936,16.3430247,stur-hofmann.at,Facility
AT,47.313293,11.1976455,jagdhof-seefeld.at,Facility
AT,47.9646407,16.3738301,dsc-ebreichsdorf.at,Unknown
AT,47.0696149,14.2993632,stlambrecht.at,Facility
AT,48.0466802,16.3181464,ff-guntramsdorf.at,Facility
AT,47.8017338,13.0675581,naturapo-shop.at,Unknown
AT,47.8071033,13.060832,urbankeller.com,Facility
AT,47.2633009,11.4052432,sven-haller.at,Facility
AT,46.7818813,13.6579809,pertl-schuh.com,Commerce
AT,47.0561547,10.6169374,montes-fiss.at,Facility
AT,47.7976311,13.0206414,massageraum.at,Facility
AT,47.5653384,13.5203543,dachsteinkoenig.at,Facility
AT,48.2145057,16.2845855,hotelgallitzinberg.at,Facility
AT,47.1823013,15.6995816,aronia-koeck.at,Commerce
AT,48.2329159,16.3670117,augenzentrum-brigittenau.wien,Facility
AT,47.8575846,13.3413816,dk-mondseeland.at,Commerce
AT,46.5944594,14.2697612,haargefluester.at,Facility
AT,47.320115,13.2054794,stern-alpendorf.at,Facility
AT,48.4157803,15.619395,injoy-krems.at,Facility
AT,46.7109685,15.5770192,obsthof-dietrich.at,Commerce
AT,46.6152155,13.2783917,booknassfeld.cz,Facility
AT,48.2118125,16.3735352,nagelundfeile.at,Facility
AT,47.2097493,11.5268465,glungezer-huette.at,Facility
AT,47.1712321,13.1019008,alpenhaus-gastein.at,Facility
AT,48.2244977,16.3544598,psychotherapie1090.at,Facility
AT,47.2920968,15.0233904,lobminger-musi.at,Facility
AT,47.1301083,10.2687514,hotel-erwin.at,Facility
AT,46.7132905,13.6897724,gasthauszumwirt.at,Facility
AT,47.266809,11.4245972,jugendland.at,Facility
AT,47.4353316,9.6626524,praxis-zucali.at,Commerce
AT,47.8325697,16.1652032,fischauer-thermalbad.at,Facility
AT,47.0673106,15.439729,dr-leithgoeb.at,Facility
AT,48.2907995,16.3093986,pizzeriadisara.at,Facility
AT,48.1954335,16.4075007,toto-sapori.at,Facility
AT,47.7519432,13.0677712,muehlenbrot.at,Commerce
AT,46.9749424,11.0099225,alpenrose-soelden.at,Facility
AT,47.3818535,13.0019818,vitalhotelpost.at,Facility
AT,48.2172244,16.3616193,kommunalkredit.at,Facility
AT,47.8944992,13.1251614,schoosleitner.at,Commerce
AT,47.2235673,12.0287418,neustockach.at,Facility
AT,48.0852968,12.9303068,bichler-schweisstechnik.com,Unknown
AT,47.2724219,12.3428752,naturresort-senningerhof.at,Facility
AT,47.5835146,12.1704155,vitusundurban.at,Facility
AT,47.3228541,12.7190796,pinzgauer-huette.at,Facility
AT,47.248046,13.5613749,rigele-royal.com,Facility
AT,48.2224613,16.363383,stressfrei-spielraum.com,Commerce
AT,48.0054746,13.4841106,gasthof-riedl.at,Facility
AT,47.0626917,15.0895826,karpfenking.at,Facility
AT,48.3173125,14.2875059,software-quality-experts.com,Commerce
AT,47.0789116,9.9208816,loewen-hotel.com,Facility
AT,48.2241522,16.3131455,torland-jeans.com,Commerce
AT,46.9227762,13.8720392,apparthotelsilbersee.at,Facility
AT,47.4155849,9.7435618,zahnregulierung-vorarlberg.at,Facility
AT,48.3346364,14.1785512,physiotherapie-ottensheim.at,Facility
AT,47.2876686,15.9788591,gartenbayer.at,Commerce
AT,48.2892268,13.2956452,pointner-installateur.at,Commerce
AT,48.229719,16.3446637,zahnarzt1180.wien,Facility
AT,48.3572134,15.696002,weingutmuellner.at,Facility
AT,46.8022528,15.4513342,pichler-schober.at,Facility
AT,46.6328252,14.3020649,augenarzt-klagenfurt.at,Facility
AT,48.206173,16.33993,stielreich.at,Commerce
AT,47.4359937,9.7078285,reitstall-birkenhof.at,Facility
AT,46.7719417,12.557172,hotel-pfleger.at,Facility
AT,48.2170784,16.3703642,medicare-wien.at,Facility
AT,47.4728689,15.3882759,ksv-modellflug.com,Facility
AT,48.3293012,16.0546319,hofmann-notar.at,Commerce
AT,47.4187196,12.8143322,schmiderer-sbg.at,Facility
AT,48.0973356,13.1747217,raphael-rauch.com,Commerce
AT,47.8019556,13.0159014,interiorview.at,Unknown
AT,47.7605281,16.807245,nationalparkkino.at,Facility
AT,47.0708005,15.4360972,linzbichler-schoko.at,Commerce
AT,47.4173422,9.739757,linsasiakueche.com,Facility
AT,48.5786648,15.6196939,steiners-mostschenke.at,Facility
AT,47.2645926,11.3978503,diepizzerei.at,Facility
AT,47.9319577,13.7816325,edthofer-gmunden.at,Commerce
AT,48.2945203,16.3294628,zummarkgraf.at,Facility
AT,47.6628266,12.323148,pensionottenhof.at,Facility
AT,48.108621,14.1753217,golfresort-kremstal.at,Facility
AT,47.0637251,15.4518017,adrianfuchs.at,Facility
AT,47.1967665,9.7721884,pfadfinder-thueringen.at,Unknown
AT,46.9604762,16.1831235,gratl-wein.at,Facility
AT,48.2074613,16.375221,aisawanspa.at,Unknown
AT,48.2118698,16.3180787,gefaesszentrum-ottakring.at,Facility
AT,48.1721009,16.3326748,salonhairstyle.at,Facility
AT,47.1993344,15.8140408,buschenschank-kulmer.at,Facility
AT,47.8236737,13.0404367,corner-salzburg.at,Facility
AT,48.2181925,15.3410851,feuerwehr-melk.at,Facility
AT,47.2799696,11.489891,swacritsystems.com,Commerce
AT,47.3176242,13.2197696,kreistenalm.at,Facility
AT,47.0715015,15.4331011,contrapunto.at,Facility
AT,48.4376498,15.8206768,weingut-wimmer.at,Commerce
AT,47.3908031,12.628693,saalbach-hinterglemm.net,Facility
AT,47.8646564,16.3772285,konditorei-may.at,Commerce
AT,48.160564,16.0607589,nw-partner.at,Commerce
AT,46.6080685,14.5849525,bungalowdorf.at,Facility
AT,47.26289,10.1027425,gaestehaus-klocker.com,Facility
AT,48.2220881,16.3650805,dazwischen-wien.at,Facility
AT,47.8833209,14.3236531,wirtschaftsteyrtal.at,Facility
AT,47.2775611,12.4530538,buchner-metalltechnik.at,Commerce
AT,48.2718363,13.7395071,klm-neumarkt.at,Unknown
AT,48.0578933,16.2124685,zu-den-linden.at,Facility
AT,48.2661753,14.2427799,humer-z-reith.at,Commerce
AT,48.2479893,16.4413508,bestattung-altbart.at,Commerce
AT,46.6678812,13.855001,house-treffen.at,Facility
AT,47.0564816,15.4729916,ordination-holub.com,Facility
AT,47.5890107,12.1166404,thierseetal.com,Facility
AT,46.7934924,15.8025021,erlebnisbauernhof-neuhold.at,Facility
AT,47.7974819,13.0086777,simplify-hospitality.com,Commerce
AT,47.8038183,16.2391261,angelus-apotheke.at,Commerce
AT,48.2904754,16.1235359,winzerhof-bichler.at,Facility
AT,47.2616474,11.3912156,kfo-baldauf.at,Facility
AT,48.5695576,16.0827078,lagerhaus-hollabrunn-horn.at,Commerce
AT,47.7900795,15.9104676,cafeorchidee.at,Facility
AT,48.3027433,14.287764,bene-for-home.com,Commerce
AT,48.2399216,16.3848663,itsmpartner.at,Facility
AT,48.2077493,14.3889537,msstflorian.at,Facility
AT,48.2434658,15.3410339,scu-emmersdorf.at,Facility
AT,48.0149763,15.5952627,anwalt-schneider.at,Commerce
AT,47.7903312,15.2811895,herrenhaus-see.at,Facility
AT,48.4679673,15.6893356,reifen-bauer.at,Commerce
AT,47.2560108,11.3888817,tirolerbier.at,Facility
AT,47.2644359,11.3943996,edlezeitmesser.at,Commerce
AT,48.383244,15.4519916,brauhaus-woesendorf.at,Commerce
AT,47.0792723,15.4211811,hlw-schroedinger.at,Facility
AT,47.2342815,12.0540244,haus-romantik-gerlos.at,Facility
AT,48.4171099,16.4622756,kellertraum.at,Facility
AT,48.535983,14.54003,ordination-oberhammer.at,Facility
AT,48.1676938,14.715372,pizzeriaseli-wallsee.at,Facility
AT,48.1597089,13.1170761,hs-haustechnik.at,Commerce
AT,47.8839224,13.1909697,henndorfer.at,Facility
AT,47.441625,11.8722171,pruegeltorten.at,Commerce
AT,47.3400641,11.8446284,elisabeth-fuegen.at,Facility
AT,47.5025613,12.1011313,panorama-royal.at,Facility
AT,48.2181518,16.3054064,malerwerkstatt.at,Unknown
AT,48.2198373,16.3620868,greenground.at,Commerce
AT,47.0567119,15.3949133,apotheke8052.at,Commerce
AT,47.1947968,11.3734051,almenrausch.at,Facility
AT,48.048624,14.5971228,poellndorf.at,Commerce
AT,47.3642232,9.6859265,spirit-of-hockey.at,Commerce
AT,47.3748898,15.0892899,toyota-stockreiter.com,Commerce
AT,48.3324347,16.0531123,weltladen-tulln.at,Commerce
AT,48.1929525,16.1380665,specht-amps.com,Commerce
AT,47.1891219,13.8067385,chaletgove.com,Facility
AT,47.5355532,9.7580922,lbs-lochau.at,Facility
AT,46.8762559,15.9117674,gleichenbergerhof.at,Facility
AT,46.7591715,15.9242371,buschenschank-weiss.at,Facility
AT,47.2288844,11.2828903,bestattung-sarg.at,Commerce
AT,48.2300518,15.162591,golfclubwachau.at,Facility
AT,47.8585257,14.6654063,praxis-taibon.at,Facility
AT,46.598877,14.0645823,karnten-appartements.at,Facility
AT,48.3100023,16.3249453,fahrschuleo.at,Facility
AT,47.4907003,12.0567285,fliesen-steigenberger.at,Commerce
AT,47.8321813,13.0309087,gummitechnik-klein.at,Commerce
AT,48.1213011,14.3199483,gartner-kirchenwirt.at,Facility
AT,47.3823909,11.7678714,eurokfzservice.at,Commerce
AT,47.0800444,9.9183778,mm-kessler.at,Facility
AT,47.7224975,16.0804693,schoenheitspunkt.at,Facility
AT,48.0697888,13.1844825,leitner-kfz.at,Commerce
AT,47.2408995,11.2096165,rangger-koepfl.at,Facility
AT,47.0111386,10.2904279,alt-paznaun.at,Facility
AT,47.7375818,12.9948132,untersberg.org,Facility
AT,47.2139177,14.8289774,elektro-thum.at,Commerce
AT,47.8208885,13.0377108,asv-salzburg.com,Facility
AT,47.1270985,13.1407844,gastein-schmiede.at,Facility
AT,47.2688274,11.3900132,mondschein.at,Facility
AT,48.3085523,16.3587286,pizza-pasta-ancello.at,Facility
AT,48.1738617,13.6415782,gcmariatheresia.at,Facility
AT,48.0615392,13.5817723,schmidmair.net,Commerce
AT,47.4275353,12.7127273,stoecklalm.eu,Facility
AT,46.7852609,15.2374199,handwerkskaeserei-mago.at,Commerce
AT,46.5263706,14.2998247,physio-nawi.com,Facility
AT,48.2593448,15.2324264,monika-anna-maria.at,Commerce
AT,47.4321841,12.2145754,hausveronika.tirol,Facility
AT,46.7560245,15.3643186,mayer-honig.at,Commerce
AT,47.9898477,16.3410108,diegroesslerei.at,Commerce
AT,48.226577,16.3634463,irishpubalsergrund.at,Facility
AT,46.8898976,14.5108609,kassl-brunnwirt.at,Facility
AT,46.8639749,15.2175626,gamser-winzerstube.at,Facility
AT,47.4132029,13.6796025,ennstalerhof.at,Facility
AT,47.1049176,15.70386,smile-electronic.at,Commerce
AT,48.0178566,13.5436001,kernstockhaus.at,Facility
AT,47.3523498,9.6443794,herwigneyer.at,Unknown
AT,46.6024877,14.5723299,seehauskarin.at,Facility
AT,47.4762335,12.5438621,alte-post-fieberbrunn.at,Facility
AT,48.2272319,16.3398906,orthopaedie-salfinger.at,Facility
AT,47.9469766,14.8951161,schmieden-ybbsitz.at,Facility
AT,48.1684642,16.3663615,tischler-valenta.at,Unknown
AT,46.9397056,15.847637,industriechemie.at,Commerce
AT,47.4380491,12.4014584,haus-johanna-kitzbuehel.at,Facility
AT,48.3213483,16.5826001,quadwelt-chris.at,Commerce
AT,47.5764133,16.4367488,ergotherapie-burgenland.at,Facility
AT,48.0468233,14.4395993,kingfood-steyr.at,Facility
AT,47.5987634,16.6276277,buendnis-liste-burgenland.at,Facility
AT,48.1541893,16.3441013,kgv-zwillingsee.at,Commerce
AT,48.2074014,15.6335634,beautystudiovivienne.com,Facility
AT,48.1855119,16.4181504,gasometernoodlehouse.at,Facility
AT,47.3069787,11.0684581,flamingoimbiss-telfs.at,Facility
AT,46.7536377,12.4412098,blechblasinstrumente.at,Commerce
AT,48.2026996,15.1182946,stoeckl-heuriger.at,Facility
AT,48.2306399,16.512086,liftl-immobilien.at,Commerce
AT,47.9495347,16.2860907,apoteesdorf.at,Commerce
AT,47.1313263,13.1409875,ferienhaushoellbacher.at,Facility
AT,47.0993837,15.7159067,body-n-brain.com,Commerce
AT,47.2057962,10.8899212,der-jaegerhof.at,Facility
AT,47.9482954,14.8935702,ferienwohnungen-ybbsitz.at,Facility
AT,47.5027235,16.5038513,apotheke-oberpullendorf.at,Commerce
AT,47.9468376,14.8953288,expert-allmer.at,Commerce
AT,46.950311,14.4043537,metnitztalerhof.at,Facility
AT,48.1438899,13.406213,gadermeier.at,Unknown
AT,47.1541566,11.3484897,huislerstube.at,Facility
AT,47.5383057,12.4410284,eurotank-sinnesberger.at,Commerce
AT,47.3288484,11.1887612,peintner-seefeld.at,Facility
AT,48.4127117,13.9498311,donau-wikinger.at,Facility
AT,48.1882456,16.3717298,auto-bieber.com,Commerce
AT,48.3058357,14.285411,goettfried.at,Facility
AT,47.0545905,10.6203951,haus-muehlbach.at,Facility
AT,48.2159324,16.3509342,velopeaches.com,Commerce
AT,48.2321941,16.3721336,elektroeigner.at,Unknown
AT,47.0543941,10.6250204,bichlhof-fiss.at,Facility
AT,47.4442931,12.3953279,rosenapotheke-kitzbuehel.com,Commerce
AT,48.4548696,13.4286627,hotel-gugerbauer.at,Facility
AT,46.793532,15.5381312,arthur-foto7.at,Commerce
AT,47.0479781,15.4910059,reitstall-pikl.at,Facility
AT,47.8909265,13.1270703,brueckenstueberl.at,Facility
AT,48.2127585,15.6357859,hanas-st-poelten.at,Facility
AT,47.4777462,12.5426522,dorfcafe-fieberbrunn.at,Facility
AT,47.218243,14.8363312,nmsrosegger.at,Facility
AT,47.8786326,13.7735114,danner-dach.at,Unknown
AT,48.1901815,16.2733359,hautarzt-wien.com,Facility
AT,48.415449,14.0470157,tischlerei-kepplinger.at,Unknown
AT,46.751102,15.225529,kfz-sammernegg.at,Commerce
AT,46.8045019,14.8292813,gp-automotive.at,Commerce
AT,47.4996567,9.7467309,st-antonius.at,Facility
AT,47.9800762,13.612406,fliesengschaeftl.at,Commerce
AT,46.642241,15.5126953,derhermannhof.at,Facility
AT,48.1698391,16.1262359,wirtshausoliver.at,Facility
AT,48.3996527,15.5195839,gaestezimmer-rolea.at,Facility
AT,47.2163144,14.7933711,angelsport-goldschmiede-rabensteiner.at,Commerce
AT,46.621468,13.8630433,bergsport-korak.at,Commerce
AT,46.6226514,14.2141657,hotelrosenheim.net,Facility
AT,47.3495818,11.6969754,fifty-fifty@gmx.at,Facility
AT,46.9955087,16.0872208,haus-helga.info,Facility
AT,48.190605,15.100835,konditorei-brunner.at,Facility
AT,47.1444731,15.5171492,physio-weinitzen.at,Facility
AT,48.2407431,16.3484212,plastische-chirurgie-oezdemir-wien.at,Facility
AT,47.3718659,9.6759581,move4style.com,Facility
AT,46.7691308,15.5675657,ford-ornig.at,Commerce
AT,47.2742782,11.4270515,youth-hostel-innsbruck.at,Facility
AT,48.1936138,16.3468698,ballettschulen.at,Facility
AT,47.2591575,11.4202918,alles-buero.at,Commerce
AT,48.1211191,14.8680246,greenpasta.at,Facility
AT,47.0763403,15.4498215,sakanagraz.at,Facility
AT,48.3017526,14.2937213,whitefashion.at,Commerce
AT,47.2714945,11.4398664,cafe-im-gruenen.at,Facility
AT,48.1932133,16.4554752,donaufaehre-wien.at,Commerce
AT,48.0442207,14.4050971,gasthof-poechhacker.at,Facility
AT,48.0515773,15.1334133,robertkabas.at,Unknown
AT,47.9700246,14.2666464,wirt-zum-hochhaus.at,Facility
AT,47.8914906,13.9420314,wolfsystem.at,Commerce
AT,48.4059303,15.7934951,sonnenweiher.at,Commerce
AT,47.2881818,15.9802354,internist-hartberg.at,Facility
AT,48.1974707,16.3656545,planquadrat.cc,Unknown
AT,48.2997596,16.4217137,pizzeriaamigo2.com,Facility
AT,48.2084495,16.3705492,stadtbraeu.at,Facility
AT,48.3022058,14.2893877,klosterhof.at,Facility
AT,48.1968966,16.2854231,orthoamsee.at,Facility
AT,48.2277236,16.5107915,shiatsu-flow.at,Facility
AT,47.3536487,13.3945151,salz-burger.com,Facility
AT,47.8337093,16.9237826,steppenduft.at,Commerce
AT,47.2091153,11.873316,zillertalkamin.at,Commerce
AT,47.2748019,14.785901,hotel-hofwirt.at,Facility
AT,48.390678,13.5167123,pflasterungen-gruber.at,Unknown
AT,46.9333117,15.6594688,vs-kirchbach.at,Facility
AT,47.8462395,16.9278806,ssv-frauenkirchen.at,Commerce
AT,47.6963541,16.0201148,schnitzelkistl.at,Facility
AT,47.4417713,11.8753786,elektromotoren-madersbacher.at,Commerce
AT,47.9318004,13.4960703,gasselsberger.at,Unknown
AT,48.3210941,16.5838828,mitsubishi-wilding.at,Commerce
AT,47.8031478,13.0465494,pizzeria-ilcentro.at,Facility
AT,47.9538493,16.4042431,dms-kfztechnik.at,Commerce
AT,48.18861,13.6541661,bedandbreak.at,Facility
AT,47.8847324,16.2462276,feuerwehr-felixdorf.at,Unknown
AT,47.8098738,13.0354264,ordinationkoenig.at,Facility
AT,47.3967078,10.916963,hotel-schoenruh.com,Facility
AT,48.206494,16.3916498,taste-of-india.at,Facility
AT,47.2948497,12.411758,klausenstein.at,Facility
AT,47.0687436,15.4426884,notariat-pichler.at,Commerce
AT,47.3464713,11.707536,diekaffeemacher.at,Facility
AT,48.2054655,16.3781489,gartenbaukino.at,Facility
AT,47.2773921,11.5077643,fischer-kamin.tirol,Commerce
AT,48.2165818,16.3894821,corneliagaenger.at,Commerce
AT,47.9587967,16.3014303,weingut-knoetzl.at,Facility
AT,46.7441426,15.8227089,imker-seidl.net,Commerce
AT,48.2719644,14.2473326,neidlinger.at,Unknown
AT,47.2784526,15.8654309,obsthof-retter.com,Commerce
AT,47.2633322,11.39453,gewaltschutzzentrum-tirol.at,Facility
AT,48.2163562,14.4408907,zahnarzt-drmueller.at,Facility
AT,48.407524,13.5215088,radtrading.at,Commerce
AT,47.3792178,13.6039641,alpine-lodge.at,Facility
AT,47.2595869,9.5979669,feuerwehr-gisingen.at,Facility
AT,47.2047211,11.8649751,garberwirt.com,Facility
AT,47.1760943,13.1055152,rz-badhofgastein.at,Commerce
AT,47.5002442,12.1643925,hotel-alpenschloessl.com,Facility
AT,47.5350895,14.2445965,eurominerals.com,Commerce
AT,47.8611805,15.0271527,haus-der-wildnis.at,Facility
AT,48.1614322,16.3033528,blumen-schuster.at,Commerce
AT,47.3676608,11.1424503,haus-tanneck.at,Facility
AT,47.457161,13.2043976,sendlhofer.at,Commerce
AT,46.9619813,11.0024143,erbhof-soelden.com,Facility
AT,47.3177225,13.1502752,hettegger-transporte.at,Commerce
AT,47.8157882,12.9903857,baeckerei-jobst.at,Facility
AT,47.3529763,9.6606926,aerzte-altach.at,Facility
AT,47.0344357,15.4376926,sk-werkstatt.at,Commerce
AT,47.1530946,11.346188,gasthofjenewein.at,Facility
AT,48.2716024,14.2481504,mcself-mietlager.at,Unknown
AT,48.2675463,16.4041583,austriasites.com,Facility
AT,48.5670903,16.571612,connect-medizintechnik.at,Unknown
AT,47.0834626,14.3167368,kfz-gerold.at,Commerce
AT,48.0746425,15.3323607,haustechnik-hahn.at,Unknown
AT,48.180769,16.4165456,rosa-jochmann-schule.at,Facility
AT,47.2869237,12.8130534,whisky-circle.info,Unknown
AT,48.1466269,14.0079914,askoe-tennis-wels.at,Facility
AT,48.0040714,16.2374615,pulmopraxis.at,Facility
AT,46.8293282,15.3855664,autohaus-nebel.at,Commerce
AT,48.2183327,16.3865154,chirurg-sporn.at,Facility
AT,47.0298116,15.4125496,lack-service.at,Commerce
AT,47.7205453,16.0803764,derbutcher.at,Facility
AT,48.3303846,16.0508323,tanzschule-duschek.at,Facility
AT,47.4499372,12.3908347,cumlaudeimmobilia.com,Commerce
AT,48.6076179,14.0281106,auto-madlmayr.at,Commerce
AT,46.68854,15.9890137,mittelschule-badradkersburg.at,Facility
AT,47.0720897,9.8784236,pfadis-montafon.com,Facility
AT,47.1470565,10.2092511,ulmerhuette.at,Facility
AT,48.486316,14.2516212,golf-sterngartl.at,Facility
AT,47.9711015,13.0770672,bioartcampus.at,Commerce
AT,48.2120703,16.3519929,cafemerkur.at,Facility
AT,47.0789308,15.4711698,jurtschitschglas.at,Commerce
AT,48.0620669,14.1430312,stadlhuber.at,Facility
AT,48.1978979,16.3672183,suedlaender.com,Facility
AT,48.4324356,15.6908216,lagerhaus-absdorf.at,Commerce
AT,48.5681697,16.5738848,taverna-gyros.at,Facility
AT,47.5947179,12.1862743,nanofaktur.eu,Commerce
AT,48.1955287,14.1363814,outofthebox.at,Unknown
AT,48.2208293,16.353259,befreiungsmuseumwien.at,Facility
AT,47.3329478,13.306305,ferienhaus-kirchboden.at,Facility
AT,47.9454909,16.1109292,casaitalia.at,Facility
AT,46.7857406,14.4169325,laengseeleitn.at,Facility
AT,48.2457799,16.3716529,universaledition.com,Commerce
AT,48.2498959,16.1665758,kartausencafe.at,Facility
AT,47.9274555,16.1998991,ortsplanung.at,Unknown
AT,47.3887653,12.8030269,herzog-planung.at,Unknown
AT,47.2383558,12.2535081,pension-muehlhof.at,Facility
AT,48.0131984,13.0740661,oitner-hirschladen.at,Commerce
AT,47.2057651,10.1373488,mallaun-lech.com,Facility
AT,47.0762534,10.9651701,bergrettung-laengenfeld.at,Commerce
AT,47.5539478,13.9391695,hoamatgfueh.at,Facility
AT,48.2062276,16.1768955,juhuu-bikebox.at,Facility
AT,46.7998397,13.4881208,sportzentrum-spittal.com,Facility
AT,47.4714154,12.1283154,huettenzauberer.com,Facility
AT,47.9636792,16.5951526,kalkofenbaxa.at,Facility
AT,48.4337023,15.8997804,weinhaus-kirchberg.at,Facility
AT,46.9629528,14.792764,neuwirth-schuhe.at,Commerce
AT,47.3967174,13.2208737,zahnarzt-mayr.at,Facility
AT,46.613598,14.2903439,apotheke-waidmannsdorf.at,Commerce
AT,47.8281804,16.2508473,route66-wienerneustadt.at,Facility
AT,47.287373,9.6660879,chickenhill.at,Facility
AT,47.2133196,10.1447997,andrea-lech.at,Facility
AT,47.63091,12.2213182,kaiserhotel.at,Facility
AT,47.4487385,12.2384525,appartement-irmgard.at,Facility
AT,47.0778031,10.6921158,gasthof-falkeis.at,Facility
AT,48.2055684,16.3315751,wienersozialdienste.at,Commerce
AT,47.4618238,13.2517864,deublerheim.at,Facility
AT,48.1857779,16.369689,everestrestaurant.at,Facility
AT,48.0136219,17.1032454,westwindbrauerei.com,Commerce
AT,47.3773396,9.8953617,holzschuhe.at,Commerce
AT,48.2294501,14.6986599,e4mobility.at,Commerce
AT,47.2669398,11.2280073,chocotelegram.at,Commerce
AT,48.1873904,16.340036,moebelverleih.at,Commerce
AT,48.3319672,16.0592893,ballett-tulln.at,Facility
AT,47.0598714,15.4688576,pfaller-barth.at,Facility
AT,48.2057727,16.3701652,kapuzinergruft.com,Facility
AT,47.1662346,11.862781,sporthotel-manni.com,Facility
AT,46.6904366,15.454482,weingut-reiterer.at,Facility
AT,48.2573636,16.3385469,restaurant-neuland.at,Facility
AT,47.3320773,13.1454495,ferienwohnung-bognerhof.at,Facility
AT,48.2027341,16.5507053,pfarre-grossenzersdorf.at,Facility
AT,47.2981154,11.0815119,ordination-drbreuss.at,Facility
AT,48.2245614,15.6582102,meinseestudio.at,Facility
AT,47.0454171,15.5197189,kanzlei-kinsky.at,Commerce
AT,47.5130339,12.2112548,kaiserkraft-naturprodukte.at,Facility
AT,47.0731125,15.4331309,rangoon-graz.at,Facility
AT,47.2780314,12.4831947,moebel-kogler.at,Commerce
AT,47.2808415,15.9670156,hotel-altergerichtshof.at,Facility
AT,47.9027778,13.5165311,kreuzerhof.at,Facility
AT,47.8129656,15.2956493,gasthof-filzwieser.at,Facility
AT,47.942666,16.858937,montessorikinderhaus.at,Facility
AT,46.4960483,14.2841466,waldseilpark-tscheppaschlucht.at,Facility
AT,48.5222529,14.2965325,ffbadleonfelden.at,Facility
AT,48.1375442,16.1850303,reisen-wandern-tauchen.at,Unknown
AT,48.1747733,16.2778082,leckerwiese.com,Facility
AT,47.9977049,13.5458911,gasthaus-lachinger.at,Facility
AT,48.223755,16.5000938,physio-brauner.at,Facility
AT,47.8331554,16.5295663,kamper-eisenstadt.at,Commerce
AT,47.9709788,13.0770471,bioladen-seeham.at,Commerce
AT,47.5827561,12.6913153,lofer-rechen.com,Commerce
AT,48.2978702,15.8971485,baumschule-frank.com,Commerce
AT,47.3234788,15.590246,almbauernhof.at,Facility
AT,47.2757171,9.6930494,peterhof-furx.at,Facility
AT,48.9305358,15.2383976,ff-kautzen.at,Facility
AT,48.1991741,16.3310054,meinurologe.at,Facility
AT,47.7094428,13.6225424,restaurant-attwenger.at,Facility
AT,48.208336,16.3707984,altmann-kuehne.at,Commerce
AT,48.2597666,14.2048312,artischock.at,Commerce
AT,47.0582336,13.6129876,wildereralm.at,Facility
AT,48.1913652,16.3446892,gesundheitspark.at,Facility
AT,47.5051235,15.4491228,hairdesignweis.at,Facility
AT,48.1938409,16.3980648,tierarztpraxis-landstrasse.com,Commerce
AT,48.0050752,14.5458545,nordischer-garten.at,Commerce
AT,48.0717335,14.736471,wolkenlos-kosmetik.at,Facility
AT,47.4415965,9.8707652,kaltenbrunnen.com,Facility
AT,47.9732528,16.6017553,steinprecher.at,Unknown
AT,47.2201751,14.5834611,radsportknausz.at,Commerce
AT,48.2547792,13.9702757,feuerbestattung-oberoesterreich.at,Commerce
AT,47.5050687,10.5542692,sonja-lorenz.at,Facility
AT,47.3771857,11.17387,leutasch-ferienwohnung.at,Facility
AT,47.2505593,14.8958034,sportgruber.at,Commerce
AT,47.8187202,13.3635215,nussbaumer-mondsee.com,Facility
AT,48.4478806,13.4430464,ff-schaerding.at,Facility
AT,48.2498885,13.2325628,baumkirchner.at,Facility
AT,48.1998407,16.3552792,urologe-schobesberger.at,Facility
AT,48.0515132,14.397657,autoankauf1.at,Commerce
AT,47.4416078,15.3201436,haubenwaller.com,Facility
AT,47.3684326,13.7220041,trialstars.at,Commerce
AT,47.0573096,10.6180812,schoene-aussicht-fiss.at,Facility
AT,48.6959623,15.3288706,ortho-weber.at,Facility
AT,47.3812464,11.9585199,wildbachhof.com,Facility
AT,47.3188447,13.1560149,museum-tauernbahn.at,Facility
AT,47.1618814,11.7420345,rieplerhof.at,Facility
AT,47.2662959,11.4091784,friseurhandwerk.cc,Facility
AT,48.25826,16.3964719,friseur-ellex.at,Facility
AT,48.1555452,16.395641,laaerberg-apotheke.at,Commerce
AT,47.2664809,11.3923979,krischan-panoptikum.at,Commerce
AT,47.1429192,15.4362868,kalkleiten.at,Unknown
AT,47.444156,10.5144419,landsbergerhuette.at,Facility
AT,47.5723482,10.4512179,schrofen-huette.at,Facility
AT,47.2003702,10.1160647,waldhof-lech.at,Facility
AT,48.2275291,16.4214099,grueneoasewien.com,Facility
AT,47.5870172,13.53432,gosau-dachstein.at,Facility
AT,47.1042544,15.4213452,fotostudio44.at,Unknown
AT,46.5500746,13.8610164,einfach-doppel.at,Unknown
AT,47.4442345,16.0648327,brautkleider.at,Commerce
AT,47.2599189,9.6149112,mimi-espresso.at,Facility
AT,48.3320741,14.3098521,genussecke.bio,Commerce
AT,47.1683491,14.6542342,rechtsanwalt-judenburg.at,Commerce
AT,46.6197035,14.0488707,pensionhoogerland.com,Facility
AT,47.7766448,15.8621108,taxi-fohringer.at,Commerce
AT,47.266479,11.4039242,everest-inn.at,Facility
AT,47.2846039,11.5497709,hoednerhof.at,Commerce
AT,47.977227,13.253446,handyshop-kornprobst.at,Unknown
AT,47.4415214,13.9024002,petandpeople.at,Commerce
AT,48.0608875,15.3215784,sportsandmore.at,Commerce
AT,47.2739417,11.2432072,musikschulen.at,Facility
AT,47.2356075,11.9171115,sporer-alm.com,Facility
AT,47.205515,10.1393841,knappaboda.com,Facility
AT,48.3119607,14.3116507,posthofbeisl.at,Facility
AT,48.1957617,16.3621186,ersatzteilprofi.at,Commerce
AT,46.6879297,15.9912961,lebenshilfe-radkersburg.at,Facility
AT,47.2592383,10.3426107,oberlechtalerhof.com,Facility
AT,47.2922867,13.3546834,shuttleberg.com,Facility
AT,48.2105754,16.3760537,crazyhollmann.com,Facility
AT,47.2613757,11.3949796,goldenersternchinarestaurant-innsbruck.at,Facility
AT,47.7903405,13.0653868,salzburg-law.at,Commerce
AT,48.2238029,16.3152972,milletfriseure.at,Facility
AT,47.2052153,10.1350796,lech-schoenblick.at,Facility
AT,47.4493991,12.3188189,parkhotelkirchberg.info,Facility
AT,47.1902648,14.7468361,kfz-reibenbacher.at,Commerce
AT,47.2881388,15.9802299,kinderarzt-paar.at,Facility
AT,48.2047162,15.6251448,zahnspange.info,Facility
AT,47.7902681,13.0476022,restaurant-brunnauer.at,Facility
AT,48.7555699,15.9616005,renault-bauer.at,Commerce
AT,46.6227947,14.3253031,ms-stpeter.at,Facility
AT,48.2611262,16.733621,bauersbier.at,Commerce
AT,48.2251008,16.6918195,gasthoflist.at,Facility
AT,47.8011082,16.607376,artner-wein.at,Commerce
AT,47.0094146,10.2890011,sport-adler.com,Commerce
AT,48.3046979,16.5742803,fally-bueromoebel.at,Commerce
AT,47.0563794,10.6229994,latschthaya.at,Facility
AT,48.211175,16.3883697,putzerei-lamberthofer.at,Facility
AT,47.2591243,11.391972,therapiezentrum-wagner.at,Facility
AT,47.9163073,16.4295079,wimpassing-leitha.at,Facility
AT,47.2811122,11.5061779,ritterkuchl.at,Facility
AT,48.0561435,16.1296917,hochschule-heiligenkreuz.at,Facility
AT,48.5726021,14.9654153,versmakler.at,Commerce
AT,47.7816708,16.542214,landgasthof-sonnenstrahl.com,Facility
AT,47.5515059,13.640157,gasthof-hirlatz.at,Facility
AT,48.2589223,16.3644892,dots-lounge.com,Facility
AT,47.4884584,12.0708443,pluswoergl.at,Commerce
AT,47.5619186,13.6489789,museum-hallstatt.at,Facility
AT,47.6183541,13.7743095,gasthofelisabeth.at,Facility
AT,47.4096829,12.7139182,asitzbraeu.com,Facility
AT,48.2503488,14.6344629,blumen-wurm.at,Commerce
AT,47.8463941,16.5273465,derhochzeitsladen.at,Commerce
AT,46.7221952,15.5633424,kegelkoenig.at,Facility
AT,48.0268965,14.7681629,elektro-ostermann.at,Commerce
AT,47.5135802,10.4607075,alpengasthof-post.at,Facility
AT,48.1842823,16.3738788,orthopaedie-zentrum.at,Facility
AT,46.813422,13.7789876,therme-kathrein.at,Facility
AT,48.1791462,16.2686321,jagdschloss-apotheke.com,Commerce
AT,47.9151417,13.8058804,kajak-kanu.at,Commerce
AT,47.0610327,15.0777843,taxi-schlack.com,Commerce
AT,46.6393486,14.2979832,hin-und-weg.at,Commerce
AT,47.4585403,9.7721846,mesmerhaus.at,Facility
AT,47.5097113,12.1107844,bramboeck-tirol.at,Facility
AT,48.0169759,13.2630981,tischlerei-vietz.at,Commerce
AT,48.2154987,15.1601806,medl-landtechnik.com,Unknown
AT,47.0710856,15.4259001,spielewerk.at,Commerce
AT,48.3222365,14.2685474,sommertheaterlinz.at,Facility
AT,47.3752471,13.1314994,appartements-helsen.com,Facility
AT,48.164901,16.4256055,doktor-auer.at,Facility
AT,46.9622262,15.0639027,gasthofklug.at,Facility
AT,47.1898442,9.8274903,frassenhuette.at,Facility
AT,47.8056389,13.0519212,gt-hotel-salzburg.com,Facility
AT,47.704971,16.0033601,mv-pottschach.com,Commerce
AT,48.1936516,16.3319392,logopaedieaustria.at,Commerce
AT,47.4316867,11.7377936,pension-krischan.at,Facility
AT,46.6071501,14.1470708,waldseilpark-pyramidenkogel.at,Facility
AT,48.0653064,13.1065305,vsauerbach.at,Facility
AT,48.3043205,14.2884249,zimtwirbel.at,Commerce
AT,47.3477046,15.6917871,augenarzt-kreuzer.at,Facility
AT,47.2168597,12.1729196,klockerhaus.com,Facility
AT,47.1639886,14.7391471,gasthaus-liebmann.at,Facility
AT,47.9558585,16.8367205,wasserscheid.at,Commerce
AT,48.0362009,14.6538056,pizzeriapalermo.at,Facility
AT,47.2825574,12.4830935,appartpension-schnoell.at,Facility
AT,48.3858296,15.5345245,brustbauer.at,Commerce
AT,48.2080209,13.8108139,apotheke-zum-heiligen-valentin.at,Commerce
AT,46.626293,14.2932901,seeberfilm.com,Commerce
AT,47.1803392,14.0226416,zirbenholzartikel-hoefl.at,Commerce
AT,48.0389315,16.2665241,weinbau-taufratzhofer.at,Facility
AT,47.2725907,11.1948306,cafewintergarten.at,Facility
AT,47.4578802,15.3317557,flugplatz-kapfenberg.at,Facility
AT,47.0807626,9.914591,amrai-suites.at,Facility
AT,48.1382115,16.2868193,dertransporteur.at,Commerce
AT,47.0707175,15.4027852,augen-blick-optik.at,Commerce
AT,46.8904962,16.0943204,hirtenfelder.at,Facility
AT,47.0711484,15.4413417,glockenspiel.at,Facility
AT,47.1257655,10.2599075,schollberg.at,Facility
AT,47.6035713,12.3823537,hohenkendl.com,Facility
AT,47.0716312,14.2995872,stift-stlambrecht.at,Facility
AT,47.0792517,15.4394849,klaviere-streif.com,Commerce
AT,47.0803893,9.9187677,josefsplatz.at,Facility
AT,48.2502936,15.4258135,hirschenwirt-noelling.at,Facility
AT,48.0974281,13.1560365,ff-mattighofen.at,Facility
AT,46.6873741,13.9755069,sonneundsee.at,Facility
AT,48.2487364,13.8904398,tischlerei-greinecker.at,Commerce
AT,48.1749464,16.2976817,blumen-elmazi.at,Commerce
AT,47.1858742,11.407821,hotel-stubai.at,Facility
AT,47.1591724,14.0560638,landhaus-zitz.at,Facility
AT,47.4310451,11.7398674,pension-rofangarten.at,Facility
AT,47.2684873,11.3991044,canisianum.at,Facility
AT,48.3422786,16.3372551,hno-fritsche.at,Facility
AT,47.1073658,13.1344981,farben-kreuzthaler.at,Commerce
AT,48.1665242,16.3664844,heilfriedapotheke.at,Commerce
AT,48.2674997,16.3909051,sonicseven.net,Unknown
AT,47.210542,11.3197904,goetzneralm.at,Facility
AT,48.4120737,15.7760743,schnitzelboxx.at,Facility
AT,48.1471523,16.295966,dr-kolbitsch.at,Facility
AT,48.0258287,16.3774559,ristorantepizzeria-davinci.at,Facility
AT,47.7671612,16.8044667,buschenschank-gruber.at,Facility
AT,47.9309224,15.4907542,punz-bertl.at,Facility
AT,47.9192465,13.7988042,sport-spirit.at,Commerce
AT,48.2319948,16.4342471,dasbootshaus.at,Facility
AT,47.2242531,12.9635697,hochalmbahnen.at,Facility
AT,48.0810145,16.4369581,mittelschule-himberg.at,Facility
AT,48.2284084,16.1547463,zumkleinenfeinen.at,Facility
AT,48.5215351,15.0801058,gasthof-rotheneder.at,Facility
AT,47.3287709,11.2001714,krumers-alpin.com,Facility
AT,48.1148151,14.893945,jungwirth-bau.at,Commerce
AT,48.4121694,15.6050591,glas-salomon.at,Commerce
AT,48.1994331,13.8811644,multikraft.com,Commerce
AT,47.0439245,15.4875383,plantocaps-pharm.com,Commerce
AT,48.0779357,14.9322559,hoermann-dach.at,Commerce
AT,48.1564438,15.1146367,pflegeoase.at,Facility
AT,48.2540537,16.4076445,floridsdorfer-schmankerl.at,Facility
AT,46.7236578,14.090227,gasthof-seitner.at,Facility
AT,46.555163,14.0378331,globo-lighting.com,Commerce
AT,48.2156538,16.3191496,stubenhocker.at,Facility
AT,46.6107199,13.8437819,kaffeeteria.at,Facility
AT,46.7146926,14.4178047,kaerntner-linien.at,Facility
AT,47.3712622,9.6753828,renatestortendesign.at,Commerce
AT,47.2619613,11.429526,apotheke-im-dez.at,Commerce
AT,46.9688682,15.839755,pension-raabtal.at,Facility
AT,47.3267296,11.1879205,landhaus-neuner.at,Facility
AT,47.2208524,14.8369637,ist-farben.at,Commerce
AT,48.1246904,16.2678692,weinbau-jezek.at,Facility
AT,48.2085021,15.5179739,scharl-verpackung.at,Commerce
AT,48.2357709,16.4644823,biohof-radl.at,Commerce
AT,47.0187889,10.4810969,koelner-haus.at,Facility
AT,47.7893615,15.9091674,holzbaumeister-strebinger.at,Unknown
AT,48.4111342,15.6022023,daskinderzimmer-krems.at,Facility
AT,48.1361845,16.3422991,breitschopf.at,Commerce
AT,46.6231844,14.3066429,robertwolte.com,Commerce
AT,48.3367517,14.3019944,landgasthaus-oberwirt.at,Facility
AT,47.7974646,13.0325585,osteria-cavalli.at,Facility
AT,48.1450921,13.7033214,koch-studio.at,Commerce
AT,48.2137689,16.4082927,library-cafe.at,Facility
AT,47.265497,11.3824772,meowinnsbruck.com,Facility
AT,47.9712706,13.1091375,sterntaler-mattsee.at,Facility
AT,48.170921,13.127609,jp-service.at,Unknown
AT,48.205339,15.6252029,cafe-pusch.at,Facility
AT,47.635114,13.6257493,holzwaerme-goisern.at,Commerce
AT,48.2678275,16.3475266,wieninger-am-nussberg.at,Facility
AT,46.6616444,14.6367383,duk-sonnenschutz.at,Commerce
AT,48.1787348,16.3693743,apomuttergottes.at,Commerce
AT,47.3391076,11.8491719,landhaus-zillertal.at,Facility
AT,47.4997227,13.3778134,ferienhaus-rosi.at,Unknown
AT,47.3136608,9.8745202,damuels-mellau.at,Facility
AT,47.4205463,13.0623808,matrashaus.at,Facility
AT,47.2786241,12.4837176,bestattung-kogler.at,Commerce
AT,47.796489,15.9893572,gaertnerei-pfarrer.at,Commerce
AT,47.9607342,14.775334,watzinger-schuhe.at,Commerce
AT,48.2502961,16.4041668,gasthausbirner.at,Commerce
AT,46.8147527,13.777246,alpenlandhof.at,Facility
AT,47.7219617,14.3283729,naturundmehr.at,Facility
AT,46.8129699,13.7743617,hausamadee.at,Facility
AT,48.3978141,15.5690337,derfoerthof.at,Commerce
AT,48.2592033,16.367185,landschaftshonig.at,Facility
AT,47.3521954,9.6294127,kaese-moosbrugger.at,Facility
AT,47.1628136,11.743959,bernhard-sport-mode.at,Commerce
AT,47.3852032,9.9192259,wisawi-bezau.at,Facility
AT,48.2062774,16.359458,mietklaviere.at,Commerce
AT,47.3068286,11.1978109,raumdesign-stefanie.com,Commerce
AT,48.053499,16.3129445,austropalm.at,Facility
AT,47.2612983,11.3934473,galerie-rhomberg.at,Commerce
AT,48.3176821,16.6376853,feuerwehr-strasshof.at,Facility
AT,47.3289523,11.1871073,tirolerweinstube.at,Facility
AT,48.8154364,15.2869048,stadthotel-wt.at,Facility
AT,48.5771557,15.8257463,amethystheuriger.at,Facility
AT,48.2177232,16.3368316,xn--johans-kche-0hb.at,Facility
AT,47.6348135,15.8301086,baeckerei-am-semmering.com,Facility
AT,48.2894682,16.3409484,lackierzentrum-klosterneuburg.at,Commerce
AT,48.4156718,15.6194363,w86apartments.com,Commerce
AT,48.1998274,16.3548149,electrocamel.co,Facility
AT,48.024507,14.6743334,msc-seitenstetten.at,Facility
AT,47.2069163,16.1608181,mizzis-wirzhaus.at,Facility
AT,46.4791697,14.2320605,familienhof.at,Facility
AT,48.2228463,16.5083068,charlotte-fresenius-uni.at,Facility
AT,47.2432158,11.37558,nattererboden.at,Facility
AT,47.4330808,12.2200909,appartements-bergsonne.com,Facility
AT,47.3072561,11.05916,freiemedien.com,Commerce
AT,48.0700854,15.2115478,svoberndorf.at,Facility
AT,47.1980444,13.7845629,wildbachhuette.com,Facility
AT,47.3787547,13.1129901,haus-schober.at,Facility
AT,46.6321072,14.1706277,dielabsalerie.at,Facility
AT,47.0557047,10.6170138,hotel-tirol.net,Facility
AT,48.2139439,15.6497912,punschkrapferl.at,Facility
AT,46.5739754,14.0515977,mfc-stegyden.at,Commerce
AT,47.7102357,13.133617,holzbau-frank.at,Unknown
AT,47.977154,16.040385,familien-ordination.at,Facility
AT,47.3849289,11.2626636,karwendelcamp.at,Facility
AT,47.2486796,13.5233947,jugendhotel.net,Facility
AT,46.5976084,14.2940771,auto-fritz.at,Commerce
AT,46.5362101,14.2669659,moveboxfitness.com,Facility
AT,47.6560504,15.805359,ghega-museum.at,Facility
AT,46.6221968,14.2142435,appartements-oswald.at,Facility
AT,47.3520275,9.6202863,alamannenkreis.com,Facility
AT,46.5971923,13.8480252,wiegeletrucks.at,Commerce
AT,47.3645711,9.6863919,wallmann-textil.at,Commerce
AT,47.4928385,9.8809688,loewen-doren.at,Facility
AT,48.3032442,14.296832,unpackbar-laden.at,Commerce
AT,47.6426627,13.6165612,hostel-badgoisern.at,Facility
AT,48.3092054,16.3212608,bsarchitekten.at,Unknown
AT,48.2013408,16.3616445,endoskopie-drscharf.at,Facility
AT,48.5110722,13.5164028,schardenberg.at,Facility
AT,48.534672,16.7739892,hscn-zistersdorf.at,Unknown
AT,47.6619145,13.675016,huetteneckalm.at,Facility
AT,48.2029953,15.6247997,teppich-welt.at,Commerce
AT,48.1414927,16.2806039,pizzeriabellavienna.at,Facility
AT,47.5096671,12.0491,gasthof-baumgarten.at,Facility
AT,47.4553286,10.7597398,fischeramsee.at,Facility
AT,46.6154674,13.8340698,vas-villach.at,Facility
AT,48.2265142,15.2602162,duerregger.at,Facility
AT,48.0178676,16.2605918,steiner-weinbau.at,Facility
AT,47.2440486,15.8035195,bildung-stubenberg.at,Facility
AT,48.2120166,14.2877067,sleeep-hotel.at,Facility
AT,47.4903872,12.0625956,teamsport-osl.at,Commerce
AT,48.3070513,14.2586947,gasthofrothmayr.com,Facility
AT,48.2632256,16.4427974,visual-design.at,Commerce
AT,48.4738502,15.6784224,winecycletours.com,Facility
AT,47.9966609,16.3453257,trumau-apotheke.at,Commerce
AT,47.2816578,15.9807596,kleintierpraxis-hartberg.at,Commerce
AT,47.3063074,11.0733942,strigl-immobilien.com,Commerce
AT,47.3980898,11.9441792,orthopaedie-schuhtechnik.at,Commerce
AT,48.1372595,16.3218373,karinsonnleitner.at,Facility
AT,48.2003203,16.3412976,soundforum.at,Commerce
AT,48.2151117,16.347732,textilwerkstatt-xo.com,Commerce
AT,47.7486298,13.4198822,leopoldhof.at,Facility
AT,47.3300516,11.1240279,interalpen.com,Facility
AT,48.3842866,15.6304592,designersinmotion.at,Commerce
AT,46.9455225,14.6984328,deixelberger.at,Facility
AT,47.2776987,11.4079703,pfadfinder-innsbruck-10.at,Facility
AT,48.2300946,16.4114356,danubejumping.at,Facility
AT,46.7005926,12.6383434,goller-holz.at,Commerce
AT,48.0944591,16.4209342,hotelkhail.at,Facility
AT,47.3647934,9.6868025,cooltourszene.com,Commerce
AT,48.4696242,15.6752782,pensionbrandl-langenlois.at,Facility
AT,48.2138928,16.3351981,micheleagostinis.com,Unknown
AT,48.166572,16.4246059,schmidwirt.com,Facility
AT,47.5916829,13.4659539,apartmentsgamsfeld.com,Facility
AT,46.9346087,13.1302338,flattacherhof.at,Facility
AT,47.3625521,9.6533685,expotradegroup.com,Commerce
AT,47.3330471,11.8351855,hubertus-zillertal.com,Facility
AT,47.9354166,13.0842719,stadtbaumeister.at,Commerce
AT,47.0904285,15.3852285,fuerstenstand.at,Facility
AT,47.3454533,13.4152993,sattelbauer.at,Facility
AT,48.2959406,16.4145842,hundepfotenwerkstatt.at,Facility
AT,47.2988614,13.4572442,alpen-appartements.at,Facility
AT,48.1268931,14.9911117,ybbsfeldhalle.at,Facility
AT,48.2025836,16.3638175,singyoursong.at,Facility
AT,47.9605411,13.2393533,kraemerwirt.com,Facility
AT,47.7963063,16.2970787,praxis-muellner.at,Facility
AT,47.8106399,13.060082,latzer-logistics.at,Unknown
AT,47.2691115,11.3896643,gaiacuisine.at,Facility
AT,48.2112619,15.3929213,lindenstube.at,Facility
AT,48.3542752,14.4171814,cafe-capuccino.at,Facility
AT,47.2577141,11.3688739,apotheke-am-mitterweg.at,Commerce
AT,48.096788,14.9792854,tierarzt-paungarttner.at,Commerce
AT,47.511179,13.4314567,sport-russegger.at,Commerce
AT,47.478503,9.7551642,piller-lechner.at,Commerce
AT,47.9249786,16.877619,weinlaubenhof-weiden.at,Facility
AT,47.0467924,15.5213663,mariazellerbahn-modell.at,Facility
AT,48.1918861,16.3672246,thaitherapy.at,Facility
AT,47.5865888,13.5402846,bergzeit-gosau.at,Facility
AT,48.2073155,16.3426362,pfarrealtlerchenfeld.at,Facility
AT,47.2548949,9.5764343,versicherung-walser.at,Commerce
AT,48.1835936,16.3219481,zauberkasten-museum.at,Facility
AT,48.1578541,14.025134,panna-cotta.at,Commerce
AT,46.8331622,13.5159313,landhaus-loescher.at,Facility
AT,48.2236008,16.3531666,tulsirestaurant.at,Facility
AT,47.949388,16.8407447,haarstilkunst.at,Facility
AT,47.4477413,12.3884632,mvo-kosmetik.at,Facility
AT,47.2618191,11.4157098,lindenapotheke.at,Commerce
AT,47.0473261,15.4010046,sailorama-segelreisen.at,Commerce
AT,47.9500874,16.4081243,happy-chinese.net,Facility
AT,47.80141,13.0189751,bindestelle.com,Commerce
AT,47.0354188,16.2262416,zumeisernenadler.com,Facility
AT,47.9695047,13.0787221,alpakaagneswinzig.com,Commerce
AT,48.4727908,15.6068428,weingut-voelkl.at,Facility
AT,47.5062821,12.1845358,landhaus-strasser.at,Facility
AT,48.3912647,15.5766571,pbz-mautern.at,Facility
AT,48.2170056,16.3342203,wiener-metropol.at,Facility
AT,46.7846147,15.4519336,wohlmuth-lueckl.at,Facility
AT,48.4043908,15.587769,poldifitzka.at,Facility
AT,47.5016969,9.7454745,sehwerk-bregenz.at,Commerce
AT,46.634781,13.8831203,mueller-installationstechnik.at,Unknown
AT,47.4849029,10.720147,bader-fringer.at,Commerce
AT,48.2399037,13.9587752,binder-industrieanlagenbau.com,Unknown
AT,47.9741704,12.9213499,biofleisch-hainz.at,Commerce
AT,48.204112,16.3377022,hotpotvienna.at,Facility
AT,47.1452119,11.3419748,pension-margretenhof.at,Facility
AT,47.6089022,15.9911978,gz-kirchberg.at,Facility
AT,48.248762,16.4470801,dasfernsehservice.at,Commerce
AT,48.4486922,14.5395363,schlossbrauerei.at,Facility
AT,46.7970321,15.5383914,blumenversand.at,Commerce
AT,47.3288357,11.1903369,appartements-seefeld.com,Facility
AT,47.3319777,11.1890841,arzt-seefeld.at,Facility
AT,46.8368756,13.482803,gasthof-perauer.at,Facility
AT,47.9439352,16.2597363,tortenzwerg.at,Commerce
AT,47.6430749,13.7788856,kahlseneck.at,Facility
AT,47.6977536,13.6222623,promberger.at,Commerce
AT,47.8666851,13.1300639,reifen-lindner.at,Commerce
AT,48.0173282,16.2594102,heuriger-oesterreicher.at,Facility
AT,47.851081,16.5253538,nmsrosentaleisenstadt.at,Facility
AT,47.1682014,13.0981493,skischulebadhofgastein.com,Facility
AT,47.3271298,11.1944422,schoenruh-seefeld.com,Facility
AT,47.6737888,15.9404452,rennermuseum.at,Facility
AT,47.2516957,13.1179001,hauserbauer.com,Facility
AT,46.9696456,15.7435014,traum-urlaub.at,Facility
AT,48.2748169,16.4074502,hanshunger.at,Unknown
AT,48.1256626,16.2700311,sam-pharma.at,Commerce
AT,47.8571339,16.8321284,pfarre-podersdorf.at,Facility
AT,47.0955038,14.403765,knappenwirt.at,Facility
AT,48.0708754,16.697459,heuriger-wallner.at,Facility
AT,47.0195163,15.4306003,american-motors.at,Commerce
AT,47.1124307,11.3110413,alpenhotel-tirolerhof.com,Facility
AT,48.4202482,14.0402483,malerei-bammer.at,Unknown
AT,47.3564789,11.7016719,time-for-ink.at,Facility
AT,48.2022293,16.3263712,happystreetfood15.at,Facility
AT,47.2282654,10.1590426,bodenalpe-lech.com,Facility
AT,48.3847475,16.5155734,felixstonek.at,Facility
AT,48.1563103,14.0199622,notar-lang.at,Commerce
AT,47.5926641,13.4668707,kirchenwirt-russbach.at,Facility
AT,47.5775517,12.2852001,bergsteigerschule.at,Facility
AT,46.9580532,15.0608105,ourhotelexperience.com,Facility
AT,47.1733061,11.8619407,thegasthofzillertal.com,Facility
AT,48.1252129,14.8704589,hade-amstetten.com,Facility
AT,46.6122276,13.8497099,sportsandclassics.at,Commerce
AT,47.7197439,14.3282811,blumenkreativ.at,Commerce
AT,47.2800508,11.5117394,haller-lend-apotheke.at,Commerce
AT,47.2511136,13.5440717,tauernlift.at,Facility
AT,47.8054948,16.1704365,kfz-spiess.at,Commerce
AT,47.2626741,11.4096632,artinnovation.at,Facility
AT,47.1691146,11.8684204,apparthotel.com,Facility
AT,47.5147664,14.846552,naz-eisenerz.at,Facility
AT,46.7893651,13.5194111,egger-somos.at,Commerce
AT,48.1050762,13.148959,buergerkorps-mattighofen.com,Facility
AT,48.4047062,15.5891744,em-diskont.at,Commerce
AT,47.0549275,10.6184088,am-raschla.com,Facility
AT,48.1786184,16.3658308,pflegegruppe.at,Unknown
AT,47.0738169,15.423911,pernthaler.at,Unknown
AT,48.1992745,16.3939718,krazykitchen.at,Facility
AT,47.8029562,16.2715865,koy-wokngrill.at,Facility
AT,48.2242167,16.2933553,gasthaus-am-predigtstuhl.at,Facility
AT,48.4385786,15.8132456,wimmer-czerny.at,Commerce
AT,47.9108523,16.6889983,ancora-grill-imbiss.at,Facility
AT,46.8055759,13.4834253,fliesen-gatterer.at,Unknown
AT,48.2019252,16.3425708,stoffsalon.at,Commerce
AT,47.0888085,15.4586069,elektrotechnikselman.at,Commerce
AT,46.6124816,13.8547774,sunandbeauty.at,Facility
AT,47.8807336,13.0116276,melanies-friseursalon.at,Facility
AT,48.2848603,16.5354942,spargel-harbich.at,Commerce
AT,48.0137577,16.2645372,muehlfeldhof.at,Facility
AT,48.2103378,15.2184114,gartenfuchs.at,Commerce
AT,46.9702689,15.3362087,smartfiber.at,Commerce
AT,48.0123304,16.2969529,tierklinik-traiskirchen.at,Commerce
AT,47.8094063,13.0479692,exittheroom.com,Facility
AT,47.4524627,12.3900008,massage-kitz.net,Unknown
AT,48.1369968,16.2441121,kalksburga-wohnen.at,Unknown
AT,46.7554538,15.3587562,camper-haring.at,Commerce
AT,46.9177008,14.5801107,landgasthof-neugebauer.at,Facility
AT,47.2812394,12.4834409,florian-huber.at,Commerce
AT,48.279462,14.247469,aerztezentrum-leonding.at,Unknown
AT,48.2372582,16.1410229,draussenkinder-wienerwald.net,Facility
AT,47.2691706,11.4038124,waldorf-innsbruck.at,Facility
AT,46.7952236,13.8043655,badkleinkirchheimer.com,Unknown
AT,47.1688788,14.6521716,vorsorge-pachernegg.at,Facility
AT,46.7178697,15.2671419,pflegehorak.at,Facility
AT,47.5246722,12.4257828,huberkamin.at,Unknown
AT,47.3649371,9.6905605,twenty-minutes.at,Facility
AT,47.5051404,9.7454332,eispavillon-am-see.at,Facility
AT,47.1744485,13.1051272,thermenhotels-gastein.com,Facility
AT,47.0707897,15.4400419,greenhouse-ginko.at,Facility
AT,47.268452,10.9384421,strolz-tischlerei.at,Unknown
AT,47.3245727,12.7991695,romantik-hotel.at,Facility
AT,47.5009592,12.082729,trattoria-levante.at,Facility
AT,46.9571777,11.0137463,bella-vista.at,Facility
AT,47.4158167,9.7445672,rhomberg-reisen.com,Commerce
AT,46.705788,14.4154873,ff-ottmanach.at,Facility
AT,47.148815,10.3431583,arlberg-hotels.at,Facility
AT,47.1653737,12.4244547,fuerther-huette.at,Facility
AT,48.2747311,14.2943077,koettstorfer.at,Commerce
AT,48.0514663,16.2941999,klostergasthaus-thallern.at,Facility
AT,48.1973236,16.3873563,gasthaus-seidl.at,Facility
AT,47.963365,14.3001973,sandnerlinde.com,Facility
AT,48.5625795,16.0779991,kosmetik-sauberer.at,Facility
AT,47.3030306,11.8660331,almhof-lackner.at,Facility
AT,48.2081394,16.3402039,rootsnrazors.com,Facility
AT,47.0832705,15.4161341,roth-liegenschaftsverwaltung.at,Commerce
AT,47.57346,10.4581972,landhaus-wildschuetz.com,Facility
AT,47.1738419,10.1619141,zuerserhof.at,Facility
AT,48.2028179,16.3317444,eisstadthalle.at,Facility
AT,48.2496962,14.6340223,gasthof-lettner.at,Facility
AT,48.301366,14.2914173,urologie-sommerhuber.at,Facility
AT,47.2369082,10.7387208,neuro-spiss.at,Facility
AT,47.2145348,11.0254254,sonneundschnee.at,Facility
AT,47.1367054,11.3401886,best-board.com,Commerce
AT,47.7709534,13.0692306,msbroetzner.at,Commerce
AT,48.2031987,16.3671461,augenarzt-online.org,Facility
AT,47.4099124,12.0358137,traditionsgasthof.com,Facility
AT,47.48206,12.0559278,restaurant-christophorus.at,Facility
AT,46.6840321,15.5598004,weinhofprettner.at,Commerce
AT,48.2069101,16.3770586,haraldgruber.com,Commerce
AT,48.2174187,16.3601284,simply-hifi.com,Commerce
AT,46.8412693,14.8393357,elektro-dohr.at,Commerce
AT,48.1894162,16.3507529,colombohoppers.com,Facility
AT,48.1833411,16.3312104,muehlsiegl.at,Facility
AT,47.8623501,13.8442461,moaralm-gmunden.at,Facility
AT,47.958642,14.7770909,riess-anwalt.at,Commerce
AT,48.0389706,14.4165831,baerentreff.at,Facility
AT,47.8107418,13.0392821,zanetti-salzburg.at,Facility
AT,46.8297711,12.768967,romantikhotels.com,Facility
AT,48.1436981,13.4039944,ff-lohnsburg.at,Facility
AT,47.1537424,11.7252304,haus-tirol-tux.at,Facility
AT,47.1268754,13.8103744,hochleitner.at,Facility
AT,47.9365731,13.077743,pension-obertrum.at,Facility
AT,47.2625359,11.3788993,serviceburger.at,Commerce
AT,48.1919678,16.3561447,dancingnoodles.at,Facility
AT,46.8718897,15.8259894,wagner-sls.at,Commerce
AT,46.875932,15.9352309,bairisch-koelldorf.at,Facility
AT,47.1694217,9.8072577,camping-sonnenberg.com,Facility
AT,48.111389,16.3063274,argechance.at,Commerce
AT,47.8982895,13.1593716,sonnensport.at,Facility
AT,47.0603121,15.431337,nhd-immobilien.at,Commerce
AT,47.5187883,11.8971481,gwercherwirt.com,Facility
AT,48.2038698,16.3766068,dashandwerk.com,Unknown
AT,47.5022896,9.7473353,küchentanz.at,Facility
AT,47.5814949,12.3879006,pension-wilderkaiser.com,Facility
AT,48.2167404,16.489781,hairartist.at,Facility
AT,46.6128325,14.0420785,silver2silver.com,Commerce
AT,48.2241353,14.6056359,tv-service.com,Commerce
AT,47.4417159,9.6631326,alge-timing.com,Commerce
AT,47.0833239,9.919301,hotel-messmer-schruns.at,Facility
AT,48.1937392,16.3342306,tcm-apotheke1150.at,Commerce
AT,48.1664379,16.6143857,ffprobstdorf.at,Facility
AT,46.6111461,13.8435189,aromapizza.at,Facility
AT,48.2142741,16.3441894,kinderherzpraxis.at,Facility
AT,48.3730457,15.61311,feuerwehr-furth.at,Facility
AT,47.8892083,14.4561123,reichraming.at,Facility
AT,48.191,16.3301505,buchcafe-melange.com,Commerce
AT,47.27265,12.3512956,tauernblick.at,Facility
AT,47.3300457,11.1877541,central-seefeld.at,Facility
AT,48.6868367,14.7894346,waldpension-nebelstein.at,Facility
AT,48.4467971,16.5255954,feuerwehr-hochleithen.at,Facility
AT,46.6127461,13.8464823,filmstudiovillach.at,Facility
AT,46.8450402,13.7677098,kirchleitn.com,Facility
AT,48.3134143,14.2866335,uniqa-linz-urfahr.at,Commerce
AT,48.201403,16.3603607,hnopraxis-wien.at,Facility
AT,47.8077739,12.9779282,soccerpark.at,Facility
AT,48.3086425,16.2695207,installationen-fassl.at,Unknown
AT,48.4033259,14.8406623,holzmann-lkw.at,Commerce
AT,47.265653,11.3974589,mayeraugenoptik.at,Commerce
AT,46.718794,15.2626859,kfz-zinser.at,Commerce
AT,48.1953747,16.3422527,viennahostel.at,Facility
AT,48.2400714,16.360249,lohaforlife.at,Facility
AT,47.0367036,15.4790666,farbentoyfl.at,Commerce
AT,48.219179,16.3802285,crownandsword.at,Facility
AT,47.8040099,13.0214738,bbsv-salzburg.at,Facility
AT,48.1221972,14.87846,grillbar-amstetten.at,Facility
AT,47.2174632,10.1365934,hotel-ilga.at,Facility
AT,47.0454065,12.9045724,alterpocher.at,Facility
AT,48.2742457,16.3375744,kahlenberg.eu,Facility
AT,46.8214277,12.8455402,kuenz-schnaps.at,Commerce
AT,47.8927285,13.1211771,seekirchen.at,Facility
AT,47.0730843,15.439788,ki-shiatsu.at,Facility
AT,47.9519428,14.4331352,sonnleithner.at,Commerce
AT,47.7373622,13.0882358,wasch-profi.at,Commerce
AT,47.4668663,13.3814026,apartmany-heidi.cz,Facility
AT,47.3371807,11.841043,hotel-schiestl.com,Facility
AT,48.5548992,16.778059,ff-goesting.at,Facility
AT,47.0721039,10.9684324,alpenzauber.com,Facility
AT,46.9855564,15.4002234,kupferdachl.at,Facility
AT,47.8555417,14.6656,binbanberger.at,Facility
AT,48.2237648,16.3616947,realgoodliving.at,Commerce
AT,48.3197064,15.5936725,bestattung-thennemayer.at,Commerce
AT,47.2537589,11.3303646,lederhosenrunde-voels.at,Unknown
AT,47.8127296,16.244341,hotelzentral.at,Facility
AT,48.1971497,16.2645047,stags-head.at,Facility
AT,48.2243107,16.3127142,thedogcarecompany.at,Commerce
AT,48.3321763,16.061223,ortho-halbmayer.at,Commerce
AT,47.3225857,13.1610853,palermo-pizzeria.at,Facility
AT,47.0371813,13.6798815,neue-bonner-huette.at,Facility
AT,48.185491,16.3630061,homoljegrill.at,Facility
AT,48.1375347,16.2875376,günstigeküchen.at,Commerce
AT,48.3547476,14.4179313,weltladen-gallneukirchen.at,Commerce
AT,47.961018,14.7723646,hno-matern.at,Facility
AT,47.2747521,9.7610208,falbastuba.at,Facility
AT,47.7125301,13.6273246,wirtshauslabor.at,Facility
AT,48.5447951,13.9053085,spitz-pizzeria.at,Facility
AT,47.7770734,13.0431625,physiomanufaktur.at,Facility
AT,47.1254324,10.2580203,hausgertrud.at,Facility
AT,47.9965317,15.8183123,wolfs-biofische.at,Commerce
AT,47.3237328,13.1950376,hotel-alpenschloessl.at,Facility
AT,47.9019583,13.570514,massagefeelwell.com,Commerce
AT,47.588889,13.5361782,physiopower.at,Facility
AT,47.9148724,15.9352243,myrafaelle.at,Facility
AT,47.0025789,15.1983282,wiednermichl.at,Facility
AT,47.6499536,12.3777444,bachangerhof.at,Facility
AT,46.8289525,12.7681134,citycenter-lienz.at,Commerce
AT,48.2896045,14.1244124,aviation-avionic.com,Unknown
AT,48.2361522,14.2781606,linzomatic.at,Facility
AT,47.6203263,12.4995394,straubingerhaus.at,Facility
AT,47.1351647,15.2847323,stift-rein.at,Facility
AT,48.2107534,16.3695849,psychotherapie-heumayer.at,Facility
AT,48.2153412,16.3564082,oesterreichinstitut.com,Commerce
AT,47.0826237,15.4110573,eologix-ping.com,Commerce
AT,47.3709918,13.4193403,camping-passrucker.at,Facility
AT,47.0813251,15.4140735,fitspotgraz.at,Facility
AT,48.1112878,14.57136,notariat-krones.at,Commerce
AT,47.427692,11.8771832,tiroler-weinstuben.at,Facility
AT,46.6236058,14.2493856,rv-albatros.at,Facility
AT,47.281198,11.5007501,konditorei-pfister.at,Commerce
AT,47.5632325,13.3438874,bestattung-bachler.at,Commerce
AT,48.2501042,16.4439382,hautarzt-in-wien.at,Facility
AT,48.2903527,15.9061616,gasthof-koegl.at,Facility
AT,47.2685128,11.3940868,strudel-cafe.at,Facility
AT,47.1165064,11.6838873,r-fankhauser.at,Commerce
AT,47.0895592,15.5096028,arztenbauerhof.at,Commerce
AT,47.2782768,11.4357793,jungoesterreich.at,Commerce
AT,47.1274237,11.6971136,madseiterhof-tux.at,Facility
AT,47.111587,11.3100624,schoenherrhaus.at,Facility
AT,48.7212629,16.3840247,welteinladen.at,Commerce
AT,47.2306904,11.4089363,bon-alpina.at,Facility
AT,48.2807228,14.1912247,passauerhof-hofladen.at,Commerce
AT,48.1967293,16.3121815,psychotherapie-ok.at,Facility
AT,48.0076949,13.6548314,dr-schaeffer.at,Facility
AT,48.1973041,16.3655857,lampenschirmerzeugung.com,Commerce
AT,47.4682374,15.3424585,sanmarco-leoben.at,Facility
AT,48.2032916,16.3912106,pixiesalon.at,Facility
AT,48.2393821,16.3438579,carolineerb.at,Facility
AT,47.6929499,15.8565477,vinoduktfreunde.at,Commerce
AT,48.2101192,16.378238,hotel-post-wien.at,Facility
AT,48.5334028,14.7399793,siegis-reiterhof.at,Facility
AT,47.8097649,13.0421182,goldankauf-pro24-salzburg.at,Commerce
AT,47.616634,12.2153288,ferienwohnung-ebbs.at,Facility
AT,48.4302109,15.7477691,grafenegg-weinlounge.at,Facility
AT,47.1651424,13.114095,hotel-ortnerhof.com,Facility
AT,47.1406987,10.5503855,uniqa-versicherungsbuero-oberland.at,Commerce
AT,47.377125,11.8619538,eberleiten.at,Facility
AT,47.2942,16.0808217,vereinvamos.at,Facility
AT,47.6099749,15.9934054,pfadfinderheim.com,Facility
AT,48.5073719,14.5046405,kinderfreunde.cc,Facility
AT,47.4533275,13.4742699,neubergerhof.at,Facility
AT,47.7604179,13.0145644,blobergerhof.at,Facility
AT,48.0073917,16.2350107,badenerzeitung.at,Unknown
AT,47.207296,10.1355198,plattenhof.com,Facility
AT,48.4132684,15.3000229,lagler-kottes.at,Commerce
AT,48.2130549,16.3192215,artisticdynamicassociation.eu,Commerce
AT,46.828875,13.7098563,hasentrattner.at,Commerce
AT,47.0803367,9.9188664,stand-montafon.at,Facility
AT,47.8038558,13.0186739,fahrschule-hoerl.at,Facility
AT,47.1636091,16.1596661,hak-stegersbach.at,Facility
AT,47.5221858,14.9517514,bergrettung-vordernberg.at,Unknown
AT,48.1236135,15.4688707,gasthaus-frischauf.at,Facility
AT,47.9606478,14.7753455,raeume-objekte.at,Commerce
AT,47.1091301,13.1344234,lindenhof-gastein.at,Facility
AT,48.4099655,13.9165874,haibach-donau.at,Facility
AT,48.2890148,14.3071993,speedy-service.at,Commerce
AT,47.068908,15.4526552,schachner-partner.at,Commerce
AT,47.0664705,15.450942,edelweissdesign.at,Unknown
AT,48.1916855,16.3579104,die-erbsenzählerei.at,Facility
AT,47.1319919,10.095195,wirtschaft-traube.at,Facility
AT,47.4659212,13.2074136,gemeinde-werfenweng.at,Facility
AT,48.1813019,13.9307177,baumgartner-gut.at,Commerce
AT,47.5836892,12.0659114,thierseerhof.at,Facility
AT,47.3735731,11.16602,tirol-seefeld.com,Facility
AT,48.6731113,15.0652012,stangl-recycling.at,Commerce
AT,48.2073719,16.3509715,globalthinkershub.com,Facility
AT,47.264879,11.3963004,dunlin-bar.at,Facility
AT,46.7761047,13.7429881,pensionjulia.com,Facility
AT,48.2177983,16.3362926,mtvhernals.at,Facility
AT,47.1590366,11.8625846,kumbichlhof.com,Facility
AT,47.287013,12.5282463,hotelflatscher.com,Facility
AT,47.5759922,14.4591115,drehleierbau-riedel.de,Commerce
AT,47.2577201,11.37359,karosserie-lindner.at,Commerce
AT,47.843845,16.1868696,schlafzeit.eu,Facility
AT,47.391132,12.9080502,gasthof-unterberg.at,Facility
AT,47.0645589,10.3805277,haus-jehle.at,Facility
AT,46.7721296,15.5624572,bodyperformance.fit,Facility
AT,47.5260762,12.0781897,lacknerhof.tirol,Commerce
AT,48.1989082,15.0318483,ff-weins-ysperdorf.at,Facility
AT,47.4396604,12.71569,forsthofgut.at,Facility
AT,48.2224662,16.3831408,bf-laptops-notebooks.com,Commerce
AT,47.2319928,12.0511257,innertalerhof.at,Facility
AT,48.1639505,14.1216043,provitalfitness.at,Facility
AT,47.8437994,15.262864,oetscherhias.at,Facility
AT,48.2110924,16.3369235,praxis-linsbichler.at,Facility
AT,48.2606588,16.4562267,hrachowina.at,Commerce
AT,47.1570359,13.1072961,autoschober.at,Commerce
