country,lat,lon,website,place_type
ES,40.4160283,-3.7059463,puradelicia.com,Commerce
ES,42.599432,-5.5677451,sierrapambley.org,Facility
ES,36.7485479,-3.170117,pizzeriapapaute.com,Facility
ES,40.486635,-3.667292,esteroides-teide.com,Commerce
ES,39.6827041,-0.473424,cartujadeportacoeli.org,Facility
ES,42.7806705,-8.4289721,mueblesulla.es,Commerce
ES,36.6015244,-4.5478134,spainhomes.com,Commerce
ES,40.4128842,-3.7083007,tabernadelcapitanalatriste.com,Facility
ES,39.4672598,-0.3255048,glasolheladerias.com,Facility
ES,40.407939,-4.5745237,campingvalledeiruelas.com,Facility
ES,39.4762114,-0.3609479,colegioaula3.es,Facility
ES,36.7433434,-3.5167594,activamotril.com,Commerce
ES,40.9467484,-4.1037678,abracadabraenglish.net,Facility
ES,39.7179112,-3.3198433,skydivemadrid.es,Unknown
ES,41.58095,1.6169434,teatreaurora.cat,Facility
ES,39.5579288,-2.6968971,castillodebelmonte.com,Facility
ES,39.5779845,2.6340119,cvsanfernando.com,Commerce
ES,38.8870966,-0.0797196,restaurantefontsalada.com,Facility
ES,42.4541956,-6.0529637,aytoastorga.es,Facility
ES,41.3389948,-4.428487,laposadadecarmen.es,Facility
ES,40.3925367,-3.7021994,clinicario.es,Facility
ES,41.4528534,2.229652,farmaciacondon.com,Commerce
ES,41.2229733,1.7271809,jordimorerabaker.com,Commerce
ES,42.4963111,-1.2151893,rutadeltiempo.es,Facility
ES,41.8457559,-4.9062484,fuenteungrillo.es,Facility
ES,42.8093018,-1.6576466,mcpeluqueros.es,Facility
ES,41.3976319,2.164883,craftpizzadiagonal.cat,Facility
ES,41.7793216,1.9442074,elforndelacalc.cat,Facility
ES,39.712297,3.459447,amigobikes.com,Commerce
ES,42.8671595,-2.6544678,celsaatlantic.com,Commerce
ES,36.7394567,-3.6688309,hostalvelilla.com,Facility
ES,28.3928553,-16.5268312,tascalacanada.com,Facility
ES,36.8573043,-2.4284915,serreriaalmeriense.com,Commerce
ES,43.3523273,-8.4130992,mesonsobrado.es,Facility
ES,39.9745255,0.0174441,lamarinarestaurante.com,Facility
ES,41.6026553,0.641378,grupgevadri.com,Commerce
ES,41.6175419,0.6217121,cambridgelleida.com,Commerce
ES,36.7485229,-3.0137335,group-team.com,Commerce
ES,43.4519797,-3.8338839,probox-santander.com,Facility
ES,40.715046,-4.1904796,asadorlavina.es,Facility
ES,36.86103,-2.4347556,torrecardenas.com,Commerce
ES,40.3116548,-3.8784131,lamalteriahfltaproom.com,Facility
ES,39.2821079,-0.423528,asesoria-cepal.com,Unknown
ES,43.4686509,-5.4672499,loscaserinos.com,Commerce
ES,36.7902968,-5.1410875,elmuelle-arriate.com,Facility
ES,37.8190523,-0.760657,salineraespanola.com,Commerce
ES,42.2644221,3.1749756,hotelcarmen.es,Facility
ES,43.3585455,-5.8488215,clinicasantasusana.com,Facility
ES,40.4289169,-3.6927726,makingthings.es,Commerce
ES,41.4005969,2.1603644,restaurantesalero.com,Facility
ES,40.3605142,-3.6646574,hotelmercader.com,Facility
ES,41.621989,0.6259089,esmatgesperiodoncia.com,Facility
ES,39.7670985,2.7140194,gelatsoller.com,Commerce
ES,40.8070377,0.3375578,refugicaro.com,Facility
ES,40.4187902,-2.9202962,hotelmayno.es,Facility
ES,39.5127827,2.4778423,playasdelrey.com,Facility
ES,38.9954089,-1.8566635,elmundodelvaper.com,Commerce
ES,41.386686,2.1749567,lacentralburger.es,Facility
ES,40.3838967,-3.6400943,grabadonline.com,Commerce
ES,39.478185,-0.3541971,smilelandclub.es,Facility
ES,42.1353291,-6.6917227,lagodesanabria.com,Facility
ES,42.3736473,1.6375823,pontdardaix.com,Facility
ES,43.4845772,-8.2314205,bolsosmais.gal,Unknown
ES,41.4382694,2.2433959,ibericfusion.com,Facility
ES,39.8261606,3.1159874,coworkalcudiabeach.com,Commerce
ES,41.403193,2.2000903,instituteofnext.com,Commerce
ES,37.1505597,-3.5897643,serrallogarden.com,Commerce
ES,40.9924371,-5.6388938,alcaldesanitario.com,Commerce
ES,41.5387025,2.2129177,laspizzasdherber.com,Facility
ES,40.4609328,-3.4411656,psicologiatorrejon.com,Facility
ES,40.4593177,-3.4790952,mesonplazamayortorrejon.com,Facility
ES,37.8924185,-4.7827296,salahangar.es,Facility
ES,42.4079576,0.7401693,elpontdesuert.cat,Facility
ES,41.5377466,-3.1024666,lanavazuela.com,Facility
ES,38.3634421,-0.4935631,mgelectricidad.es,Commerce
ES,43.2935998,-1.8786815,ordozelaisagardotegia.com,Facility
ES,42.1141685,-6.6729434,sanabriacaballo.com,Facility
ES,42.3390932,-3.7211448,afaeaburgos.es,Commerce
ES,28.4129552,-16.5409855,centromedicotucan.es,Facility
ES,37.3816923,-5.9980032,abadestriana.com,Facility
ES,43.4829888,-8.2353132,centropielzapaterias.es,Commerce
ES,43.5596106,-6.2294112,casaviejadelsastre.com,Facility
ES,39.4856984,-0.324234,lamasbonita.es,Facility
ES,39.9176843,-2.7984132,queseriaschaves.es,Unknown
ES,39.9173619,-5.1747778,mesoncarlos.com,Facility
ES,39.310816,-0.3177674,restaurantepasqualet.com,Facility
ES,38.9852246,1.5340334,nanitroomsibiza.com,Facility
ES,39.4428719,-1.7539399,cooperativauci.com,Commerce
ES,39.4647467,-0.3499496,lysaflores.com,Commerce
ES,41.6218625,-0.916598,vivaldiestudiosmusicales.es,Unknown
ES,43.4616663,-3.8232375,migalletasantander.es,Commerce
ES,41.6992322,2.8404616,hotelacapulcolloret.com,Facility
ES,43.4620166,-3.8122299,shimaishop.com,Commerce
ES,43.4725023,-5.1830998,arenaldemoris.com,Facility
ES,38.9856719,1.4359333,companatge.com,Commerce
ES,43.4526785,-3.8240108,ferreteriasantander.net,Commerce
ES,42.3062864,-1.9602886,hostalgala.es,Facility
ES,40.41142,-3.6949017,librerialasombra.com,Commerce
ES,37.8749425,-4.1855105,latorredeporcuna.com,Unknown
ES,42.9968682,-9.2414266,cabanasdelires.com,Facility
ES,37.8799397,-4.781072,tabernaloscalifas.com,Facility
ES,43.3794822,-8.4014767,suventanal.com,Unknown
ES,43.3023257,-2.9841257,techfriendly.es,Commerce
ES,42.3441226,-3.6880325,lagranjaburgos.com,Facility
ES,43.4857191,-8.2302695,inmoluaces.net,Commerce
ES,42.0338957,-8.881662,alberguedaestrela.com,Facility
ES,40.4594911,-3.6911764,agencyworld.org,Unknown
ES,40.236301,-3.7536132,bellamachina.es,Commerce
ES,41.383021,2.1710542,granjaviader.cat,Facility
ES,37.3787279,-5.9895207,grupolaraza.com,Facility
ES,36.1621365,-5.3467992,dentaljardines.es,Facility
ES,37.2186497,-3.6927894,hotelcoronadeatarfe.com,Facility
ES,41.567245,2.0907933,mokkitattoostudio.com,Facility
ES,37.3440488,-6.0658983,clinicamairenacentro.es,Facility
ES,43.3514117,-8.4028658,bicicletasaran.es,Commerce
ES,39.5610972,-2.7024634,hotelspainfantedonjuanmanuel.es,Facility
ES,36.7157318,-4.4502702,elcirculocoworking.com,Commerce
ES,40.1370674,-0.2820337,clinicavidalfp.com,Unknown
ES,28.4103344,-16.5459756,doncandido.com,Facility
ES,36.7216318,-4.4246137,sagradacena.org,Facility
ES,43.3406789,-1.7918399,parquecomercialmendibil.com,Commerce
ES,40.4693028,0.4757178,farmaciatomasferrer.com,Commerce
ES,37.0998366,-3.7717672,clubaeromodelismogranada.com,Facility
ES,43.424309,-5.832242,cafeteriacentroelena.com,Facility
ES,40.4937212,-3.6138852,clinicalemondental.com,Facility
ES,41.3586155,2.0946089,mesdegrandi.com,Facility
ES,41.4010594,-3.9530497,naturaltur.com,Commerce
ES,41.5576939,2.0940233,veterinariossabadell.es,Commerce
ES,38.0094797,-3.3718223,palaciodelarambla.com,Facility
ES,42.0344442,-4.3219662,cervezasyesta.es,Commerce
ES,40.0400904,0.0531337,hotelmontreal.es,Facility
ES,37.9840753,-1.1286181,diocesisdecartagena.org,Facility
ES,40.4078178,-3.6059491,hipertensionpulmonar.es,Commerce
ES,36.61675,-4.5030833,hotelnatursun.com,Facility
ES,37.1845586,-3.6082556,americansecrets.es,Facility
ES,43.2219257,-2.019068,urumeaberri.com,Commerce
ES,40.2582894,-5.9377521,pimentonelangel.com,Commerce
ES,28.0747314,-16.5569559,podologotenerifesur.com,Facility
ES,28.4436383,-16.2839685,iteuvecanarias.com,Facility
ES,37.3809236,-5.7419187,ceipantoniogonzalez.com,Facility
ES,39.4770066,-0.3854781,coworkingbotanico.com,Commerce
ES,42.6242532,0.9206471,refugicolomers.com,Facility
ES,39.8833745,3.0346825,fincamallorca.de,Facility
ES,42.0942729,2.1315263,santagustidellucanes.cat,Facility
ES,40.4273593,-3.6748902,ayalaveterinaria.es,Commerce
ES,38.1710316,-3.7738201,palacioguzmanes.com,Facility
ES,43.3755549,-4.2855801,realclubestrada.es,Facility
ES,36.7218894,-4.4778034,dlorenzogelato.es,Commerce
ES,43.2630536,-2.9165549,daipecocina.com,Commerce
ES,42.9371678,-3.5727584,zurikatoregalos.es,Commerce
ES,43.3521272,-3.7047232,vinotecalacava.es,Facility
ES,37.3942027,-5.978931,polloledaba.com,Facility
ES,37.2858436,-5.9353002,graficasquivir.es,Commerce
ES,40.415143,-3.6992261,mesonellacon.com,Facility
ES,41.5743902,-3.7052982,bodegalamilagrosa.com,Commerce
ES,43.1738461,-1.4851005,zilbetinea.com,Facility
ES,43.3457719,-4.0516615,consultasmedicasccm.com,Facility
ES,43.3267375,-1.8264906,restaurantegabiria.com,Facility
ES,41.6223528,2.2509388,grupo-bosch.es,Commerce
ES,43.2668784,-1.9651238,basquebeer.com,Commerce
ES,43.4741797,-3.7916406,clubdeportivomarisma.com,Unknown
ES,40.3687076,-3.5986802,eurekakids.es,Commerce
ES,41.9283036,2.2481155,mengemosona.cat,Facility
ES,36.8898064,-4.1460741,villasolutions.net,Commerce
ES,41.2296961,-2.4482804,anadelastejasazules.es,Facility
ES,28.1446035,-15.4282245,poema-del-mar.com,Unknown
ES,41.6066366,-4.7286835,maristascompostela.org,Facility
ES,43.5359432,-6.90904,fincaelcabillon.org,Commerce
ES,42.1231834,3.1310179,restaurantmiryam.com,Facility
ES,43.3229609,-1.9656424,donostiajesuitak.org,Facility
ES,40.1401251,-3.4229038,ciudad-chinchon.com,Facility
ES,38.9857468,1.5442057,palaciocongresosibiza.com,Facility
ES,42.2095061,-8.7524781,motelcaribevigo.es,Facility
ES,42.7400387,-8.6606582,alberguecorredoiras.es,Facility
ES,39.472672,-0.3683974,maruendaabogados.com,Commerce
ES,40.5526719,-3.8960482,veterinariolasmatas.com,Commerce
ES,41.3754605,2.1281796,seniorsants.com,Unknown
ES,41.4758455,2.0860732,bodegatomas.com,Facility
ES,36.7587608,-5.3661394,hotelgrazalema.com,Facility
ES,39.7087643,2.6216096,cartoixadevalldemossa.com,Facility
ES,36.6909298,-4.444942,pequeñoavion.es,Facility
ES,42.4301368,-8.6388254,lavanderiasosoblanco.es,Commerce
ES,37.6816506,-0.7343363,aparthotellondres.com,Facility
ES,43.4656396,-3.8039064,cepadesantander.es,Facility
ES,40.4169894,-3.5727465,lamolonakids.com,Facility
ES,41.1562605,1.1065328,teatrefortuny.cat,Facility
ES,41.3817321,2.1765075,artevistas.eu,Commerce
ES,40.4362244,-3.6973751,lachisperiadechamberi.com,Facility
ES,40.4118381,-3.7105359,peztortilla.com,Facility
ES,38.7314482,0.1405247,vet-benitachell.com,Commerce
ES,37.8858849,-4.7839731,bonoturisticocordoba.com,Unknown
ES,42.2833657,-8.7197542,samertolameu.gal,Facility
ES,41.7948272,-2.8512091,caminodelafuentona.com,Facility
ES,43.4650545,-3.8024794,salaniagara.com,Facility
ES,40.3337155,-1.1081516,hotelisabeldesegura.com,Facility
ES,36.7724259,-3.8928643,villamorera.com,Facility
ES,41.5084578,-5.7448716,easdzamora.com,Facility
ES,28.3571298,-16.7121412,cristaleriarona.com,Commerce
ES,40.0716461,-2.209659,ruralarcoiris.com,Facility
ES,43.4356864,-3.5131832,posadalarivera.es,Facility
ES,39.9939397,-0.0537684,cementeriodecastellon.com,Facility
ES,41.4501925,2.2111002,catedrabikes.com,Commerce
ES,38.9728141,-3.348687,aytomembrilla.org,Facility
ES,40.3885697,-3.7010004,suyanasanguches.es,Facility
ES,41.4849439,2.088268,eliagarden.com,Commerce
ES,41.6540519,-4.7273758,gatocerveza.com,Commerce
ES,43.3607939,-3.1862008,restauranteibarbia.com,Facility
ES,40.5046365,-3.5076907,animobienestar.com,Facility
ES,39.4721649,-0.3798867,magnesionatural.com,Commerce
ES,39.1506262,-0.442714,mueblescarpena.es,Commerce
ES,41.8491754,3.1299699,volandoboy.es,Facility
ES,42.3230243,-5.8342028,talleragricolaguerra.com,Commerce
ES,38.0928834,-1.7967429,muebleslopez.es,Commerce
ES,38.2025412,-1.0467609,iesabanilla.es,Facility
ES,40.077948,-2.1348748,hostallariberadeljucar.com,Facility
ES,39.8794537,3.0178113,hotelsonsantjordi.com,Facility
ES,40.4623327,-3.686552,derosemeditation.es,Facility
ES,36.5100213,-4.8851346,churreriaramon.es,Facility
ES,37.3845044,-5.9986112,sevillacityoffice.es,Facility
ES,37.1296502,-1.8315006,hotelmojacarplaya.com,Facility
ES,36.9787724,-3.5390138,lahuertadelcura.com,Facility
ES,38.3633768,-0.4322778,rmscootersymotos.com,Commerce
ES,40.2961101,-3.6903317,granhotellosangeles.es,Facility
ES,40.6585315,0.6749569,restaurantcasadefusta.com,Facility
ES,41.511543,-0.6269396,alongthedustyroad.com,Facility
ES,43.4625745,-3.8076208,ccoo-servicios.es,Commerce
ES,43.1672424,-2.6301983,durangonbizi.net,Facility
ES,40.4747319,-5.4335469,villardecorneja.es,Facility
ES,38.331943,-0.4851977,puertoalicante.com,Facility
ES,42.854925,-3.7138789,molinodelcanto.com,Facility
ES,42.698486,0.871945,thalayrestaurante.com,Facility
ES,40.9636816,-3.5830328,alberguesierranorte.es,Facility
ES,41.3033317,2.0100021,cafetodevilla.com,Facility
ES,36.7650844,-4.7079341,ceipfuensanta.com,Facility
ES,43.3657373,-5.850343,casacerralbo.com,Commerce
ES,41.4358219,2.2162239,instalacionesaguilar.es,Unknown
ES,37.3857836,-6.0035688,jamoneriajoseluisromero.com,Commerce
ES,39.9716797,0.012254,tascadelpuerto.com,Facility
ES,28.479047,-16.4293731,linajedelpago.com,Commerce
ES,37.9835955,-1.1254465,elbosqueanimado.es,Facility
ES,42.8147356,-1.6471432,restaurantebalu.es,Facility
ES,36.6965773,-5.3860094,villaluengadelrosario.es,Facility
ES,36.5360568,-6.2974367,confusione.es,Facility
ES,40.462868,-3.703063,benefitsbodymind.com,Facility
ES,43.4270367,-5.8275309,golflamorgal.com,Facility
ES,43.4630131,-3.8050123,zonacoolto.com,Commerce
ES,40.578149,-3.9566599,thehomeacademy.com,Facility
ES,40.401327,-3.562871,peludosdelcañaveral.es,Commerce
ES,40.4608034,-3.6993079,restauranteriveira.com,Facility
ES,40.3496042,-3.688835,colegioliceorosales.com,Facility
ES,38.115377,-3.0872227,villacarrillo.es,Facility
ES,39.3820914,3.0010696,artestruzmallorca.com,Facility
ES,36.7055264,-4.4560367,ceipsimonbolivar.es,Facility
ES,37.9195486,-6.7248467,rutadeljabugo.travel,Facility
ES,37.9810994,-1.1195221,modoitalianomurcia.com,Facility
ES,41.155421,1.1092229,batabatreus.cat,Commerce
ES,40.3889751,-3.6914143,almaradental.es,Facility
ES,38.3439795,-0.4851791,chicocalla.es,Facility
ES,40.4638524,-3.6928837,restaurantelapiperna.com,Facility
ES,38.7689663,-0.0966685,casalennisa.com,Facility
ES,43.3470675,-4.0443676,clinicaveterinariacaninayfelina.com,Commerce
ES,38.6974771,-0.473368,libreriallorens.com,Commerce
ES,27.8339494,-15.6171441,palmitospark.es,Facility
ES,41.7288559,-1.0747359,golfloslagos.com,Facility
ES,36.6591645,-6.007646,ranchocortesano.net,Commerce
ES,42.5943705,-2.0321355,pacharanzoco.com,Commerce
ES,38.906927,1.4285044,grupopoliclinica.es,Facility
ES,40.6643631,-3.7691816,ccmdecoracion.com,Commerce
ES,42.9477481,-8.3383285,omuinodepena.com,Facility
ES,37.1790161,-3.6034115,farmaciagrancapitangranada.com,Commerce
ES,37.376417,-5.9316272,estilolaboral.com,Commerce
ES,37.7882639,-3.6073109,sercomviajes.com,Commerce
ES,41.3652089,-6.1117432,bermillodesayago.com,Facility
ES,41.1610892,1.1072868,laboratorios-escuredo.com,Facility
ES,40.9614978,-4.0379637,vinilarium.com,Commerce
ES,36.6227477,-6.3589269,eiblancanieves.es,Facility
ES,36.7442847,-3.5173819,incasamotril.com,Commerce
ES,43.0490781,-5.18337,alberguedemarana.com,Facility
ES,36.7127134,-4.2356939,lacalmaplaya.es,Facility
ES,39.4909617,-1.0992408,escuelaviticulturarequena.es,Facility
ES,41.8815366,-5.0424408,arterioseco.es,Facility
ES,42.2466863,-7.0242403,alberguetrevinca.com,Facility
ES,43.2709131,-2.9497596,centrovisualargia.es,Commerce
ES,41.3695543,2.097487,currycurryquetepillo.com,Facility
ES,38.3924002,-0.515019,clinicaneko.com,Commerce
ES,41.6426811,2.7381429,finquesquim.com,Commerce
ES,38.3398049,-0.4797596,theoceanrace.com,Facility
ES,43.3126662,-1.9013468,notariarenteria.com,Commerce
ES,42.6334241,0.217664,hostalpirineosmeliz.com,Facility
ES,38.3515639,-0.4811511,diversitat.es,Facility
ES,38.820067,-0.2265879,casagallinera.com,Facility
ES,39.0778686,-5.8084913,bombonesdehigovillacruz.com,Commerce
ES,40.4269232,-3.6894651,sinsombrero.es,Facility
ES,43.3683646,-1.7934988,kupelarestaurante.com,Facility
ES,40.5765284,-4.0024666,casadirect.es,Commerce
ES,39.5719657,2.6494608,iconroseto.com,Facility
ES,37.2277991,-3.684174,bordadosindustrialesgranada.com,Commerce
ES,41.641536,-4.1567526,hotelenvero.es,Facility
ES,40.3159513,-3.8735444,lamilagrosaformacion.es,Facility
ES,41.3741138,2.1345778,sindominio.net,Unknown
ES,39.5628791,-0.5359759,piscinamunicipallaeliana.com,Facility
ES,41.3932,2.1488,hamburgerseria.com,Facility
ES,37.2249966,-7.3149749,hostalpuertasalinas.top,Facility
ES,41.4369923,2.2190795,implantdentalbadalona.com,Facility
ES,40.1137618,-0.0535727,anticportal.com,Facility
ES,40.3593498,-3.7764296,sambiloutlet.es,Commerce
ES,41.5473298,-3.6541061,cervezascasuar.com,Commerce
ES,38.3964594,-4.9968392,villanuevadelduque.com,Facility
ES,41.6382044,2.7334584,hotelamaraigua.net,Facility
ES,37.9698566,-1.1356441,parquelajungla.com,Facility
ES,43.2899185,-1.9835647,titaniumindustrialsecurity.com,Commerce
ES,40.2252261,-6.5629628,cofradiasyhermandades.es,Facility
ES,43.4458185,-8.1776502,tecnicanorte.com,Commerce
ES,37.6509202,-0.7831241,cnlosnietos.com,Commerce
ES,38.3561328,-0.4825139,gastronomicaegun.com,Facility
ES,38.1070961,-0.7848765,netxolutions.no,Commerce
ES,40.3957105,-3.7087463,motosbarragan.es,Commerce
ES,40.5186222,-3.9257643,angelruizgym.es,Facility
ES,43.5645869,-6.9269319,lacasadelabuelo.com,Facility
ES,40.3209767,-3.8532738,centroanahata.es,Unknown
ES,43.3694036,-8.3990981,puertocoruna.com,Facility
ES,43.3233747,-1.9788631,taqueriakursaal.com,Facility
ES,40.3979099,0.4017149,stopandgolavolta.com,Facility
ES,36.4784862,-4.9769849,alabarderobeach.com,Facility
ES,43.4458689,-3.9281164,residencialosrobles.es,Facility
ES,38.813173,0.0295959,aguilarbodega.es,Commerce
ES,43.4643988,-3.8364117,recambiosarrosam.com,Commerce
ES,38.0765054,-0.8389182,restaurantecharlot.com,Facility
ES,40.0197854,-3.616217,gtautomocion.shop,Commerce
ES,43.276623,-2.1297111,oriokoikastola.eus,Facility
ES,40.952028,-5.6726952,hoteleurowest.com,Facility
ES,43.3368207,-8.3726629,iesneiravilas.es,Facility
ES,37.6036301,-0.9964185,fireandfable.com,Commerce
ES,40.423937,-3.6987219,iglesiasananton.com,Facility
ES,42.5530995,-3.316815,hotelelvalles.com,Facility
ES,41.6655795,2.3915898,laperoladaira.com,Facility
ES,38.5924189,-0.1336309,residencebougainville.nl,Facility
ES,42.8585136,-1.6233627,campingezcaba.com,Facility
ES,42.5649648,-6.7282187,eloroderoma.com,Facility
ES,43.1316898,-1.6673315,hostalsantamaria.es,Facility
ES,40.404179,-3.6752122,carnesmoran.com,Commerce
ES,42.2753156,-7.5023464,montederramo.es,Facility
ES,43.4572433,-5.0609411,laparrilladeribadesella.com,Facility
ES,27.8870035,-15.5330535,lafortaleza.es,Facility
ES,43.4787815,-3.7899049,escuelacineytv.com,Facility
ES,41.6532033,-3.7098077,consabordehuerta.com,Commerce
ES,40.3910831,-3.6922299,grupomacarena.com,Facility
ES,40.9724613,0.5162878,restaurantpepo.com,Facility
ES,41.3919882,2.1299907,celestiaaerospace.com,Commerce
ES,43.4567497,-3.8373381,iestorresquevedo.net,Facility
ES,40.9266718,0.0744696,hotelelconvent.com,Facility
ES,37.3853851,-5.9917263,casadelaprovincia.es,Facility
ES,40.9817742,-5.6632434,hotelbardorecoletos.com,Facility
ES,40.4365693,-3.6976208,reproimagen.com,Commerce
ES,42.2668909,0.3505597,chilloutdoor.es,Facility
ES,36.6786178,-6.4120317,kangurocostaballena.com,Facility
ES,40.4297971,-3.7146758,princesaplaza.com,Facility
ES,28.0991326,-15.438503,omodacanarias.com,Commerce
ES,37.2310709,-3.6698401,hotelreyesziries.com,Facility
ES,43.4834967,-8.2268631,gtartabria.es,Commerce
ES,40.9637158,-5.6655723,restaurantejero.es,Facility
ES,41.4719082,2.0815996,molinabosch.cat,Commerce
ES,43.3160194,-2.677243,omagogozotegia.com,Facility
ES,28.1477729,-15.4299204,aloecanteras.com,Facility
ES,40.4198112,-3.7082321,foxinaboxmadrid.com,Facility
ES,40.4024997,-3.7040545,academiarobledo.com,Facility
ES,40.482214,-3.3647787,corraldealcala.com,Facility
ES,36.8499228,-2.2893101,orionalmeria.org,Unknown
ES,37.1745556,-3.6033417,sherpagranada.com,Commerce
ES,43.468266,-3.8790173,cdlamarina.com,Facility
ES,41.6299118,-4.7377561,eccastillayleon.org,Facility
ES,40.4427471,-3.7138181,madridbelleza.com,Facility
ES,41.5513983,2.0377358,sistelecbcn.es,Commerce
ES,40.0042373,-6.1187212,ciudaddeplasencia.es,Facility
ES,39.8519553,4.2596196,vetsmenorca.com,Commerce
ES,43.2472306,-2.909401,grupobonaparte.com,Commerce
ES,40.4238328,-3.9698495,colegioarcadia.net,Facility
ES,40.4107804,-3.6994987,cafeeldespertar.com,Facility
ES,42.8292974,-2.7483432,restaurantealdaia.com,Facility
ES,42.2246367,2.6783856,albaserveis.com,Facility
ES,42.3732397,2.7532037,campingmassanet.com,Facility
ES,41.8034943,2.4203449,santmarcalmontseny.com,Facility
ES,37.0023304,-3.2676094,panaderiatrevelez.es,Commerce
ES,41.1609673,1.1103653,activiland.com,Facility
ES,41.3830843,2.1758763,fattiretours.com,Facility
ES,42.4313237,-8.0779794,aparthotelarenteiro.com,Facility
ES,41.3808945,2.1803735,pizzapazza-bcn.com,Facility
ES,38.757795,-0.0326044,castelldelasolana.es,Facility
ES,39.4451332,-1.7540091,hgirasoles.com,Facility
ES,37.4605544,-5.3418826,clanferona.com,Facility
ES,43.4934497,-8.2102715,montopinturas.com,Commerce
ES,39.8921672,-0.0895935,farmaburriana.com,Commerce
ES,41.376094,2.1320276,entrepobles.org,Facility
ES,39.4250213,-0.3981756,hotelbenetusser.net,Facility
ES,37.3937267,-5.9840314,isaiaspeluqueros.es,Facility
ES,37.29054,-5.9177792,labicicletapizzeria.com,Facility
ES,39.5322867,-0.3460355,barracatonimontoliu.com,Facility
ES,42.9942193,-7.552008,carballosaude.es,Facility
ES,40.3444804,-1.1067008,elenasoriano.com,Commerce
ES,43.3299057,-1.8259314,hotelurdanibia.com,Facility
ES,42.1816864,2.4776211,oloteducacio.cat,Facility
ES,36.7344303,-4.5552954,grupoviatek.com,Commerce
ES,41.5512825,2.4829028,campingbarcelona.com,Facility
ES,40.2807414,-3.7644103,estampaciones.com,Commerce
ES,36.7201375,-4.4169829,realacademiasantelmo.org,Unknown
ES,39.3216102,2.9923569,bestcentresports.com,Facility
ES,41.1622572,1.1103387,lafiracentrecomercial.com,Commerce
ES,43.2764588,-1.5079141,matxingonea-urdax.com,Facility
ES,41.3851855,2.1993709,pativelabarcelona.com,Facility
ES,39.5439018,2.5949889,libertysport.es,Commerce
ES,36.7449585,-3.5201613,zumaqueroymartinez.com,Commerce
ES,41.8382956,3.0927482,hotelreimar.com,Facility
ES,40.6344315,-4.0101429,hotelgalaico.com,Facility
ES,43.4630084,-3.8151203,selloscharines.com,Commerce
ES,43.2485412,-5.7721559,laconsistorial.com,Facility
ES,40.9000187,-4.0054757,naturcletalagranja.com,Commerce
ES,40.3671579,0.3943078,tallerpeniscola.com,Commerce
ES,43.1196448,-1.5710967,zigakoetxezuria.com,Facility
ES,43.0568039,-4.6383769,laposadadecucayo.com,Facility
ES,43.3641005,-5.84816,hotelcityexpresscovadonga.es,Facility
ES,36.7370342,-5.1648579,ayuntamientoronda.es,Facility
ES,42.2901292,3.2782156,hostaletcadaques.com,Facility
ES,43.2570389,-2.9313657,restaurantemanhu.com,Facility
ES,38.0872008,-0.6563332,ieslesdunes.com,Facility
ES,40.3775014,-3.6317749,bouldervallecas.com,Facility
ES,41.3901637,2.1678915,oassisnaturalcooking.com,Facility
ES,28.1483069,-15.4329305,restaurantelamarineralaspalmas.com,Facility
ES,43.3141565,-8.8595025,restauranteseiruga.com,Facility
ES,36.7659973,-2.1095384,puertogenoves.com,Facility
ES,37.1779236,-3.5947785,hotelcasa1800granada.com,Facility
ES,36.5915221,-4.5264699,restaurantemilan.es,Facility
ES,39.5669701,2.6703437,iesantonimaura.net,Facility
ES,39.4967674,2.4749167,adelfas-restaurant.com,Facility
ES,43.4507343,-3.4601594,conservasjuanjo.net,Commerce
ES,39.4511587,-0.3776791,colegiojardin.es,Facility
ES,42.0753667,-6.2748215,casadelaparrada.es,Facility
ES,39.6604857,-0.2262404,sanpedroapostol.org,Facility
ES,40.6258471,-4.0247986,doorsecurity.es,Unknown
ES,43.520617,-5.662835,radiotaxigijon.com,Commerce
ES,38.7450606,0.150175,clubdegolfjavea.com,Facility
ES,38.1177568,-0.7508453,lafabricadolores.com,Facility
ES,43.3214167,-2.9816321,asuergroup.com,Commerce
ES,43.349227,-4.0364268,circulotorrelavega.com,Facility
ES,41.4047474,2.1570589,bateaulune.com,Commerce
ES,38.825849,0.0522036,centrohipicolledo.com,Facility
ES,41.4042215,2.148818,freeyourpost.com,Commerce
ES,41.3886982,2.1623496,lostortillez.com,Facility
ES,40.6336288,-4.0042957,clinicasdentalia.com,Facility
ES,40.4215871,-3.7003663,hostalamerica.net,Facility
ES,38.3504488,-0.4980324,ceipjoaquinsorollaalacant.es,Facility
ES,40.6627999,0.2650339,fontdesantpere.com,Facility
ES,41.6531801,-0.8807356,barmombasa.es,Facility
ES,28.1387323,-15.4353261,elazuldivecenter.com,Commerce
ES,40.4644647,-3.7987595,centroconmigo.com,Unknown
ES,38.7946465,0.033012,opticabenjamin.com,Commerce
ES,42.2268296,-8.7518929,liceobouzas.com,Unknown
ES,40.4693291,-3.6854133,aparthotelmadridea.com,Facility
ES,43.3432517,-3.0116974,tamarisesbistrot.com,Facility
ES,41.7618823,-2.6280665,villaciervos.es,Facility
ES,41.381948,2.1717912,pinotxobar.com,Facility
ES,40.9694648,-5.6673025,urologosalamanca.com,Facility
ES,38.3732873,-0.4139821,restaurantevale.com,Facility
ES,41.8639341,-5.4115888,quesospabloalonsomartin.com,Commerce
ES,43.3587968,-5.8451208,confiteriajarama.es,Commerce
ES,43.4547973,-3.8201174,cristaleriafernando.net,Commerce
ES,42.349494,-3.8158252,lacasadebeli.com,Facility
ES,41.4908215,-4.613525,autoviadelospinares.com,Commerce
ES,41.5995488,2.3404979,aeroclubrcstagnes.com,Facility
ES,41.8192341,-1.6090509,elmesondelaceite.com,Facility
ES,39.6524125,2.7759656,isabelalonsopodologia.com,Facility
ES,36.9728467,-3.2691843,hotelnuevaalcazaba.com,Facility
ES,36.7206879,-4.4241273,almacendelindiano.com,Facility
ES,42.3591968,-3.6512448,liquidatormuebles.com,Commerce
ES,40.3583907,0.3981156,agorahoteles.com,Facility
ES,39.8686793,2.922939,vinyesmortitx.com,Commerce
ES,37.1507689,-3.6046645,juanxxiiizaidin.com,Facility
ES,40.0737272,-2.1367461,farmaciasoler.com,Commerce
ES,40.0589841,-2.1385157,segurtorralba.com,Commerce
ES,42.5659856,-2.6858709,bodegasbaigorri.com,Commerce
ES,28.9708682,-13.533238,lanzarote3.com,Facility
ES,41.4909783,2.1386507,area-gourmet.com,Commerce
ES,42.3274112,-0.2399844,refuge-san-urbez.com,Facility
ES,37.6261497,-0.9526734,kumukacrossfit.com,Facility
ES,41.7287173,2.0590936,restaurantcalcampas.com,Facility
ES,37.5632473,-1.8084067,confiteriasanz.com,Commerce
ES,37.5566758,-3.0896323,villanuevadelastorres.es,Facility
ES,43.4908274,-8.2058995,casajuanito.es,Facility
ES,40.4224924,-3.6885782,nuevamutuasanitaria.es,Commerce
ES,41.2963159,-2.6544444,farmaciabarahona.es,Commerce
ES,43.1241268,-6.0586078,deporventura.es,Facility
ES,37.5349157,-1.4862694,areacamperlaermita.com,Facility
ES,41.2713885,-3.8840852,cervezaveer.com,Commerce
ES,43.3117295,-1.9043606,urtziartolayoga.com,Facility
ES,41.8625118,-5.414112,rincondesancayetano.com,Facility
ES,40.4911361,-3.4026947,kirschpharma.com,Commerce
ES,28.9227052,-13.6407088,hotellascostas.com,Facility
ES,43.1671874,-2.5939541,pastordelgorbea.com,Facility
ES,43.4559629,-3.8131047,hnaspuente.es,Commerce
ES,42.7749626,-1.6543428,granjanaturaliaesquiroz.org,Facility
ES,42.8485968,-2.6822689,manolentarestaurante.es,Facility
ES,39.4664156,-0.3660253,apothekevlc.com,Facility
ES,43.4527969,-3.823829,paellasgigantesvicente.com,Facility
ES,36.9650448,-2.5215451,travelalmeria.org,Facility
ES,43.6099781,-5.8377627,casaelgaitero.com,Facility
ES,40.3978284,-3.6782885,tucasatemporal.com,Facility
ES,40.4254144,-3.7111224,casafilete.com,Facility
ES,42.5419056,-2.8254468,marquesdeteran.com,Commerce
ES,39.6893561,3.3583868,las-islas-reisen.de,Unknown
ES,41.4105905,2.1369816,luxandburg.es,Facility
ES,40.3417671,-3.86303,prevencionsiglo21.es,Unknown
ES,43.4056078,-2.9300999,gorlizbiker.com,Commerce
ES,41.5082711,-2.9764478,casapatino.com,Facility
ES,37.2207423,-7.1243366,mangooclubhire.com,Facility
ES,40.4206176,-3.7084668,hotelsantodomingo.es,Facility
ES,37.3984825,-5.9942959,thecornerhousesevilla.com,Facility
ES,43.5368927,-5.6818686,aspergerasturias.org,Commerce
ES,40.4425028,-3.6711992,restauranteriasbajas.com,Facility
ES,43.4932486,-8.2102192,arvisistemas.com,Commerce
ES,40.9439934,-4.1194252,rosamexicanotaqueria.com,Facility
ES,36.7429453,-3.5304906,vitalyscenter.es,Facility
ES,43.2788478,-1.9987486,museochillidaleku.com,Facility
ES,39.3983972,-2.9710054,turismoencinar.com,Facility
ES,39.8648545,-4.087014,apasanbernardo.es,Facility
ES,40.9919117,-5.6919964,cibelesresidencia.com,Facility
ES,41.3810738,2.178812,restaurantelapicnicbarcelona.com,Facility
ES,39.3641562,2.8768504,mirador-de-cabrera.com,Facility
ES,43.3156377,-4.8465804,investigandoespana.top,Facility
ES,28.9197981,-13.6453788,tamashalanzarote.com,Facility
ES,43.4971487,-5.6552799,bouldermoss.org,Facility
ES,37.1173632,-3.5764894,ceip-al-zawiya.es,Facility
ES,41.3372673,0.7361281,bellaguarda.cat,Facility
ES,41.6511304,-4.725082,mesetarios.com,Facility
ES,41.2852748,1.2497125,finquessomnis.com,Commerce
ES,43.4713704,-3.7911738,colegiosardinero.es,Facility
ES,41.3291158,2.0464645,restaurantwokgu.com,Facility
ES,40.3813533,-3.6507043,centroveterinariosur.es,Commerce
ES,42.79606,-4.271788,santamarialarealmuseorom.com,Facility
ES,41.4493712,2.2090846,mesquegossos.es,Commerce
ES,40.9705287,-5.6654851,centroopticosocial.es,Commerce
ES,39.5779662,2.6521294,rearentacar.com,Commerce
ES,40.5025694,-3.5139921,centrocomercialmiramadrid.es,Commerce
ES,41.6713105,-3.6849582,mesonelpastor.com,Facility
ES,38.7237298,-0.194417,farmaciacastelldecastells.es,Commerce
ES,41.687878,-3.4792593,alojamientospalacete.com,Facility
ES,42.8475768,-2.6773985,clinicamonikacalleja.es,Facility
ES,40.4388863,-3.6938461,fisioterapiamadrid.net,Facility
ES,39.4586459,-0.3460119,pastelerialamoderna.es,Commerce
ES,41.3864603,2.1621718,aribaufarmacia.com,Commerce
ES,43.3251372,-4.9015633,laterrazadepicos.com,Facility
ES,42.3399941,-3.7033599,pizzastation.es,Facility
ES,41.4620189,-5.7323764,marcosconde.com,Commerce
ES,37.1776816,-3.6069625,alianzafrancesagranada.org,Facility
ES,41.4402748,2.2215408,reinterhogar.com,Commerce
ES,40.426637,-3.6955608,casaorellana.com,Facility
ES,42.303994,-3.5173601,alpiedelarbol.com,Facility
ES,40.6751508,-4.086976,mascotasguadarrama.com,Commerce
ES,41.6984006,2.4750508,lamasiasantceloni.com,Facility
ES,36.5128431,-6.1503871,hoteleswebs.com,Facility
ES,37.1550621,-3.5840819,hotelsaylugranada.es,Facility
ES,42.6992018,-3.507732,jaimeurcelay.me,Facility
ES,39.4708,-0.392564,deportesaitana.com,Commerce
ES,42.5426535,-5.5862708,fablableon.org,Unknown
ES,37.3922054,-5.9895134,ferreteriaelbombin.com,Commerce
ES,40.3401837,-0.5724871,linaresdemora.com,Facility
ES,37.9594615,-1.1345045,colombimurcia.com,Commerce
ES,39.0120703,-1.8838517,indoorland.es,Unknown
ES,39.9974044,-0.0372844,clinicamolinimataix.es,Facility
ES,43.2873302,-5.9354843,penonblanco.com,Facility
ES,42.2874442,-5.9134918,lahacienda303.com,Facility
ES,43.317284,-1.8959886,carmenjatetxea.com,Facility
ES,37.1716716,-3.5950737,albaicin-granada.com,Facility
ES,41.6303439,1.7984539,lacolmenademontserrat.com,Facility
ES,43.2609862,-2.9308011,elkarkidetza.eus,Commerce
ES,38.7239459,-0.0602475,collderates.com,Facility
ES,40.5771235,-3.9285438,sanchezrubio.com,Commerce
ES,40.4207157,-3.6888278,patiodeleones.es,Facility
ES,37.3806938,-6.0846879,sastreriamarisaortega.com,Commerce
ES,41.9685397,2.6258134,animalsbrunyola.com,Commerce
ES,41.2039291,1.5440109,barthomeus.com,Unknown
ES,41.4000542,2.1581824,bcncomputers.es,Commerce
ES,43.3529026,-4.0534891,rotudiseno.com,Unknown
ES,36.702266,-4.4505374,orfeonmalaga.org,Facility
ES,42.3414499,-3.7035587,elevenrooms.es,Facility
ES,43.3624806,-7.1094348,larectoral.com,Facility
ES,40.9644768,-5.664875,restaurantehispania20.es,Facility
ES,41.6534955,1.1383889,farmaciasanteloitarrega.com,Commerce
ES,40.3834087,0.3815964,luzdeazahar.com,Facility
ES,43.3672871,-5.8741485,lydiacastrosin.es,Facility
ES,40.3532569,-3.8993665,santosvillaviciosa.com,Commerce
ES,43.2334053,-4.7466729,quesosdecabrales.es,Commerce
ES,42.4536216,-1.7970855,bodegainurrieta.com,Commerce
ES,41.4126203,2.1699494,manspelcos.com,Facility
ES,42.4194246,0.981106,latorrevallfosca.com,Facility
ES,43.5360955,-7.0430457,deliciasroasters.com,Facility
ES,43.438526,-3.8914146,hnosmesones.com,Commerce
ES,41.3838436,2.1826844,alexisfasoli.com,Commerce
ES,42.334144,-7.8617829,semillas-de-marihuana.com,Commerce
ES,41.4116813,2.2259468,parcdelforum.barcelona,Facility
ES,36.4958218,-4.7794308,ferreteriarosaplata.com,Commerce
ES,42.6785487,0.7047303,artigadelin.com,Facility
ES,42.6912372,-1.648124,bodegasmanzanos.com,Commerce
ES,42.3387826,-3.7018214,bienvenidoskebabburgos.com,Facility
ES,28.1712288,-17.1861245,casallanocampo.com,Facility
ES,43.3972474,-3.8386608,sumidecant.es,Commerce
ES,40.4672455,-3.8706872,autoescuelarigel.com,Facility
ES,39.9057578,-4.0165388,pasteleriaplazamayor.es,Commerce
ES,41.8417789,-2.779948,campingurbion.com,Facility
ES,38.9909968,1.3201338,pikesibiza.com,Facility
ES,41.6012311,2.0275199,matadepera.cat,Facility
ES,37.1200299,-1.8347056,hotelelpuntazo.com,Facility
ES,37.0811994,-5.6333573,hotel-don-juan.com,Facility
ES,40.3629199,-3.6992448,da2-clubjuegosdemesa.com,Unknown
ES,40.4055859,-3.6834974,basilicadeatocha.es,Facility
ES,41.6752474,2.7949133,salolagastronomic.com,Facility
ES,40.3099584,-3.725422,estancoshishero.es,Commerce
ES,37.1627784,-3.5065368,ceipbertawilhelmi.es,Facility
ES,37.7851241,-3.7874754,pedropoveda.es,Facility
ES,37.4036747,-5.9929636,camaraoscuraworld.com,Facility
ES,41.6270563,-4.7255031,sanfranciscodeasis.org,Facility
ES,42.2232559,-8.7289085,cerrajerianovoa.es,Commerce
ES,40.407448,-3.6998065,traficodelibros.es,Commerce
ES,41.6609993,2.778827,campingroca.es,Facility
ES,42.2091653,-8.7571804,farmacianavia28.com,Commerce
ES,38.2851393,-0.52084,restaurantelatartana.com,Facility
ES,37.1539889,-3.612375,estaciondiseno.es,Facility
ES,37.395382,-5.9950983,hotelveneciasevilla.es,Facility
ES,40.3862699,-5.7707308,colegionscbejar.es,Facility
ES,37.4553663,-5.7215509,tirovuelosevilla.com,Facility
ES,40.0361172,-6.0913989,hostalreal.com,Facility
ES,38.1372522,-1.3239264,villanuevadelsegura.es,Facility
ES,40.460077,-3.4835561,profesionalplus.com,Commerce
ES,42.4648719,-6.1285183,mesonlamagdalena.com,Facility
ES,40.430026,-3.818139,latabernadelospoetas.com,Facility
ES,40.3924353,-3.6908882,losmetales.es,Facility
ES,43.2175554,-4.3029947,residenciateran.com,Facility
ES,41.5130873,-5.7524013,farmaciapascua.com,Commerce
ES,38.8420052,-6.9730932,badajoztransfer.com,Commerce
ES,40.964615,-5.6642904,lastapasdegonzalo.es,Facility
ES,40.3217143,-3.8662083,certificadoenergeticomostoles.com,Unknown
ES,40.0134502,-6.1065216,repuestosplasencia.com,Commerce
ES,40.461332,-3.6959841,growbarato.net,Commerce
ES,41.5886565,-4.1342953,campingriberduero.com,Facility
ES,41.5606634,2.0163947,petitestellanova.cat,Facility
ES,41.5852605,2.5466324,bikeforever.es,Commerce
ES,41.6537685,-4.7282152,elconsejerodelrey.com,Facility
ES,41.6057307,0.6407173,fanaticlleida.com,Facility
ES,28.1033738,-16.756273,oasis-lacaleta.com,Facility
ES,39.0847978,-0.6984258,campingplayamonte.com,Facility
ES,42.3543708,-5.7544347,santamariadelparamo.es,Facility
ES,41.4022185,2.1613464,savourshop.es,Commerce
ES,39.474399,-0.3509326,bicistudio.com,Commerce
ES,40.4118776,-3.7099514,carmencitabrunch.es,Facility
ES,41.6511938,-4.7273834,portalservicios.es,Commerce
ES,37.3035396,-3.1390167,eoiaccitania.es,Facility
ES,40.9930846,-4.0249638,laportadademediodia.com,Facility
ES,41.5355731,2.3893467,cabrerademarpatrimoni.cat,Facility
ES,28.0971542,-16.6182441,tenerife-selfcatering.com,Facility
ES,37.8805451,-5.6294849,la-escribana.com,Facility
ES,37.1801166,-1.822457,farmaciamoldenhauer.es,Commerce
ES,38.9369892,-2.848479,losbatanes.com,Facility
ES,37.4182657,-5.9693871,talleresjjm.com,Commerce
ES,43.4633819,-3.7885456,apartamentosreinavictoria.com,Facility
ES,43.4931374,-8.2166455,asesoriaosoriovega.com,Unknown
ES,36.765738,-5.9517822,haciendalasmesas.com,Facility
ES,41.9048292,1.6669036,vilarsrurals.com,Facility
ES,41.3467912,2.0849877,olimpogourmet.com,Commerce
ES,40.9408449,-5.6556993,edificio21.com,Commerce
ES,38.975538,1.5293374,thevillageibiza.com,Facility
ES,42.8163788,-1.641823,cafebargaucho.com,Facility
ES,40.4077031,-3.5523646,deterrazas.com,Facility
ES,39.6669318,2.5789894,safitabackpackers.com,Facility
ES,40.3590659,-1.1382697,restauranteelmilagro.com,Facility
ES,41.4042542,2.1559884,asiaambgracia.com,Facility
ES,36.7323117,-3.673478,elarbolblanco.es,Facility
ES,37.878867,-4.7778038,casadelcardenal.com,Facility
ES,41.5367246,2.0858786,santquirzevalles.cat,Facility
ES,42.4159473,-6.9870329,hotelmalecon.es,Facility
ES,40.4244551,-3.7021688,viraviragyros.com,Facility
ES,38.6342044,0.0287256,villapedro.es,Facility
ES,43.0933294,-3.2597043,romanicodigital.com,Facility
ES,41.7040947,-2.301197,candilichera.es,Facility
ES,41.3743416,2.1545526,riasdegalicia.com,Facility
ES,28.0441096,-16.5373059,cofradiaelmedano.com,Facility
ES,39.4541704,-0.369775,condonesypreservativos.com,Commerce
ES,28.4990545,-16.2002075,intechtenerife.es,Commerce
ES,36.1335058,-5.8429493,pozodelduque.com,Facility
ES,39.4675497,-0.3763731,libreriasoriano.com,Commerce
ES,43.3021356,-5.7010241,ceramicadelnalon.com,Commerce
ES,37.1952592,-7.3293767,ingesamultimedia.com,Facility
ES,37.1824218,-3.5904817,carmen-de-ramilla.com,Facility
ES,40.5090454,-6.0132334,latiendajusta.com,Commerce
ES,40.7113174,0.7171611,racodelriu.com,Facility
ES,41.605482,0.6410525,pinturesjuanito.com,Commerce
ES,40.7177658,-3.91268,centroecuestretovarich.com,Facility
ES,39.4708046,-0.378011,teatro-olympia.com,Facility
ES,41.3778814,2.1572415,sauna-galilea.com,Unknown
ES,42.2474184,3.114707,nautica-rio.com,Commerce
ES,41.5346647,2.1797966,interflora.es,Commerce
ES,36.6912325,-5.2699924,cuevadelapileta.es,Facility
ES,41.3944646,2.1272893,izakayatanso.com,Facility
ES,37.8696944,-4.1843479,museodeporcuna.com,Facility
ES,43.2779324,-8.2086146,sinuessaacoruna.es,Facility
ES,40.3792316,0.3885074,campinglospinos.com,Facility
ES,36.6709279,-4.5128737,iescarlosalvarez.com,Facility
ES,43.2887499,-2.9978581,maskeluzes.com,Commerce
ES,28.1353562,-15.4355818,mirafondos.com,Commerce
ES,39.4740047,-0.3750782,grupolareina.com,Facility
ES,41.3519153,2.1204327,eurohotelgranviafira.com,Facility
ES,43.5308244,-5.6590385,bakerstreetgijon.com,Facility
ES,40.4506351,-3.6837419,kenyaembassyspain.es,Facility
ES,41.6748059,2.7903206,laferreteria.shop,Commerce
ES,36.7291121,-4.4152841,mundodefantasia.es,Commerce
ES,43.5107292,-5.6704375,itacagastrobargijon.com,Facility
ES,40.5306732,-3.6324174,el-compromiso.org,Commerce
ES,41.3891366,2.1796504,quillo-bar.com,Facility
ES,42.228478,2.129436,estiulaventura.cat,Facility
ES,28.7431018,-13.8650323,punta-amanay.com,Unknown
ES,40.9014538,-4.0065969,libreria-icaro.com,Commerce
ES,40.4878691,-6.108778,casaruralenlaalberca.com,Facility
ES,37.4854157,-2.294002,confiterialapolaca.com,Commerce
ES,38.1048991,-1.8668566,ieschirinos.com,Facility
ES,40.4828329,-3.352938,asociacionaguademayo.org,Commerce
ES,40.4245394,-3.7023806,thunderveganfood.com,Facility
ES,43.5362645,-7.0409697,hotelcasaloriente.com,Facility
ES,42.2399565,-8.7210217,hoteldelmarvigo.es,Facility
ES,42.3072723,-4.1727827,casarurallanuez.com,Facility
ES,36.4889901,-4.9599286,brodernas-marbella.com,Facility
ES,37.1698538,-3.5995337,kolosseumpeluquerias.es,Facility
ES,42.8147468,-1.643951,lapiemontesa.com,Facility
ES,36.7457763,-3.8775028,hotelmenaplaza.es,Facility
ES,36.6974155,-4.4966253,salvesenlogistica.com,Unknown
ES,37.9795868,-0.6774146,clinicabodybalance.com,Facility
ES,41.6508667,-4.729126,realvalladolid.es,Commerce
ES,39.5065127,2.7525624,hotelirismallorca.com,Facility
ES,41.2358556,1.8066991,losvikingos.com,Facility
ES,40.1346904,-5.9018121,campamentosnatura2000.com,Unknown
ES,37.4391415,-4.2018967,hotellasrosas.net,Facility
ES,37.1876065,-3.6118404,esquinazari.es,Commerce
ES,43.2798354,-6.0244747,cieloastur.com,Facility
ES,40.2247047,-3.7536041,flyzbikestore.com,Commerce
ES,41.4442777,2.1677783,deiadisseny.cat,Facility
ES,41.7287309,0.7428808,fusteriaripoll.com,Commerce
ES,40.4206503,-3.7113833,restaurantesenador.es,Facility
ES,37.9362577,-1.1574303,custommadecycles.com,Commerce
ES,39.4699235,-6.3872241,thebusinessstore.com,Commerce
ES,43.2366679,-3.0049834,amarededomicanes.com,Facility
ES,39.4579597,-0.3700386,cantaguahostel.com,Facility
ES,38.4906458,-5.1239588,residenciademayoresdelabella.com,Facility
ES,37.1780772,-3.5936546,restauranteossobuco.com,Facility
ES,40.4431158,-3.6756914,casajovenonline.com,Commerce
ES,43.4574553,-3.8482997,dreamspeluquerossantander.com,Facility
ES,40.4271453,-3.6850632,latrainera.es,Facility
ES,43.4720283,-3.7979457,plainconcepts.com,Commerce
ES,41.6002723,-4.5114501,bodegasvizar.es,Commerce
ES,41.6518932,-4.7275506,lavinadepatxi.com,Facility
ES,39.4696892,-0.3572395,cinesalbatrosbabel.com,Facility
ES,41.6771277,2.7832217,forumfitness.es,Facility
ES,39.3736737,-3.3529003,electrosalvaluz.com,Commerce
ES,43.3507258,-4.050604,academiacrespo.com,Facility
ES,39.9878438,-0.0358501,lagaletadaurada.es,Facility
ES,43.4887779,-6.113675,nuevobalbona.es,Facility
ES,43.3177525,-6.4754093,pensioncasavicente.com,Facility
ES,43.3387218,-5.98229,funerariasanpablo.com,Commerce
ES,39.4674851,-0.3806865,consuladordvalencia.com,Facility
ES,28.3636549,-16.4982816,restaurantepasodelteide.es,Facility
ES,40.4269241,-3.6183793,asociacionpauta.org,Facility
ES,41.5194769,1.7082922,vallbonadanoia.cat,Facility
ES,40.4171678,-3.7113353,cafelosaustrias.com,Facility
ES,42.4392777,-2.951059,demandaciclos.com,Commerce
ES,41.396873,2.177192,holahostal.com,Facility
ES,40.4125625,-3.7038527,patagoniaartesanal.es,Facility
ES,43.3902034,-3.7019282,labicicletahoznayo.com,Facility
ES,38.5743836,-0.130521,nuevoalcazar.com,Facility
ES,40.402729,-3.7026399,cuartapared.es,Facility
ES,40.4749505,-5.9985571,elburroblanco.net,Facility
ES,38.9063479,1.4249027,hotelmarignaibiza.com,Facility
ES,39.4679941,-0.3286486,opticameseguer.es,Commerce
ES,43.3056604,-4.8228962,hoteltorrecerredo.com,Facility
ES,37.9426403,-0.7593648,villamartinplaza.com,Facility
ES,36.7140631,-4.2748796,globerbiker.com,Commerce
ES,41.4152054,-4.9604001,elforoderueda.es,Facility
ES,36.3465034,-5.8121142,benalupcasasviejas.es,Facility
ES,43.4118791,-5.2275986,puebloastur.com,Facility
ES,38.4624307,-0.7834966,sagradafamiliaelda.com,Facility
ES,40.4764503,-5.6779745,jamonesguijuelo.com,Commerce
ES,39.9062908,-3.6212753,donoamiiglesia.es,Facility
ES,37.2501293,-3.6560141,hotelvillablanca.es,Facility
ES,40.6566367,-4.6930974,irishpubavila.com,Facility
ES,38.083607,-0.6523805,hoteledenmar.com,Facility
ES,41.3497068,2.0369672,hospitalbenitomenni.org,Facility
ES,41.5840817,1.6240118,academiaigualada.com,Facility
ES,41.3676707,2.1340034,elcinturon.es,Commerce
ES,41.9548487,3.2063256,sacalmahotel.com,Facility
ES,37.9101068,-0.7440111,farmaciacampoamor.com,Commerce
ES,39.7559549,3.1658076,exagonpark.com,Facility
ES,40.4043246,-3.6778406,pizzavitto.com,Facility
ES,43.0874597,-8.5524479,sanxuliantanatorios.es,Commerce
ES,40.5963505,-3.7041701,tabernaenvero.com,Facility
ES,39.8038754,3.1175452,rentacarsalesca.com,Commerce
ES,42.6993239,0.8019246,casaluisvielha.com,Facility
ES,40.3619911,-3.7651876,parroquiamaravillas.es,Facility
ES,40.5367141,-3.9413083,colegioberriz.com,Facility
ES,40.3691743,-3.7564839,colegioamoros.org,Facility
ES,43.3041853,-2.2035851,iribargetaria.com,Facility
ES,41.6510343,-0.8720004,musicoterapiazaragoza.com,Unknown
ES,42.7007622,0.8447736,esarraitzes.com,Facility
ES,41.2205648,1.7246497,corredoriafarre.com,Commerce
ES,42.4263502,-2.0906626,fordautoclave.com,Commerce
ES,43.1465381,-4.9307089,casaruralflorencia.com,Facility
ES,42.341578,-3.7004678,innova-abogados.com,Commerce
ES,41.6527507,-0.8801159,restaurantecasalac.es,Facility
ES,43.318711,-1.8649251,bidekoaterpe.eus,Commerce
ES,41.3771392,2.1513283,morrowcoffee.com,Facility
ES,42.3361807,-3.7210361,monasteriodelashuelgas.org,Facility
ES,38.5377359,-0.1495116,tmgrupoinmobiliario.com,Commerce
ES,41.3839149,2.1817695,restaurantpetra.com,Facility
ES,42.2671485,-4.4070286,hotelsanmartin.es,Facility
ES,39.3219871,-3.2342952,bodegasvinasoro.com,Facility
ES,43.4907898,-6.114301,colegioreinaadosinda.com,Facility
ES,42.0442141,3.19402,estartitbrasil.com,Facility
ES,41.3452979,2.1046476,bellvitgehospital.cat,Facility
ES,43.461662,-3.7971903,rcmsantander.com,Facility
ES,43.255163,-2.925234,cicloslaferro.com,Commerce
ES,38.2828191,-0.520942,elcaprichoderaquel.es,Facility
ES,41.4934234,2.295407,restaurantcanduran.com,Facility
ES,42.2835445,-8.6060468,noveventanas.com,Unknown
ES,40.6667355,-3.7799537,escuelaspececitos.com,Facility
ES,41.4041275,2.1658137,tallervidiella.cat,Commerce
ES,40.4487959,-4.0004319,lycee-moliere-madrid.org,Facility
ES,41.528337,1.9827113,lapanxadelbou.cat,Facility
ES,42.3493369,-3.6818094,clinicasberlin.com,Facility
ES,43.3105263,-2.0082398,ladiablataqueria.com,Facility
ES,37.4773733,-3.3199407,gobernador.es,Facility
ES,42.43036,-8.6437207,juncalalimentacion.com,Commerce
ES,43.3676884,-8.4108894,gloriabenditarestaurante.com,Facility
ES,43.3467942,-4.0479407,osteocantabria.es,Unknown
ES,28.6643525,-17.9004453,casitasrosheli.com,Facility
ES,38.3964772,-0.4365651,marcoandbo.es,Facility
ES,40.4352013,-3.6844928,asadordearanda.net,Facility
ES,43.4616808,-3.8068788,javiersimorra.com,Commerce
ES,41.4083243,2.1800028,alainpizza.es,Facility
ES,39.4161071,-0.5003644,julioverneschool.es,Facility
ES,40.4126607,-3.7112974,centrosantabarbara.es,Facility
ES,41.0084421,-5.3944714,villoruela.net,Facility
ES,43.1257866,-3.6116734,casaruralsalcedillo.com,Facility
ES,41.4928116,2.295068,restaurante1789.com,Facility
ES,37.1755525,-3.5981913,picnic-gourmet.com,Facility
ES,41.3494456,2.0816905,auditoricornella.com,Facility
ES,40.9688771,-5.6599329,pabloochoashoes.com,Commerce
ES,43.5014512,-8.2001438,marianvila.es,Facility
ES,42.2663307,3.1614259,hotelmontana.es,Facility
ES,41.3986688,2.1839845,lacasadecarlotaandfriends.com,Facility
ES,41.4021394,1.6059856,calpaucruset.com,Facility
ES,36.6052841,-4.5082419,fast-monkey.com,Facility
ES,42.3659779,-2.8144928,davidmoreno.es,Commerce
ES,42.2683211,3.1572762,autocaravaningparkroses.com,Facility
ES,36.6497881,-4.4884151,servicioporsche-malaga.com,Commerce
ES,36.7187728,-4.4242086,elmarisqueromalaga.com,Facility
ES,36.7028879,-4.4335516,toctocnoodles.com,Facility
ES,40.4934944,-3.3723588,clubrugbyalcala.com,Facility
ES,42.9139275,-8.7343958,instalacionescepa.es,Unknown
ES,42.8982557,-0.7994945,refugiodelinza.com,Facility
ES,42.124828,3.1320268,hoteltorrent.com,Facility
ES,41.3959991,1.9553207,frutasandres.com,Commerce
ES,37.1580447,-3.5969722,asociacionelencinar.org,Commerce
ES,41.5876207,1.6139159,adriagarriga.com,Facility
ES,41.3903302,2.1190753,dermaregen.es,Commerce
ES,40.4320427,-3.4803165,residenciacaninaelespolon.net,Facility
ES,43.4563214,-3.8157798,vazquezybarrado.com,Facility
ES,40.9735506,-5.6798414,residenciaplazamayor.com,Facility
ES,42.3366207,-8.655654,osareeiros.com,Facility
ES,38.4175678,-6.4070475,hierroszafra.com,Commerce
ES,39.5706144,2.6382273,mallorcascooter.com,Commerce
ES,43.3696819,-8.4007769,sargadelos.com,Commerce
ES,43.3146688,-1.9011818,ventanassanmiguel.com,Unknown
ES,43.3289257,-4.4149813,granjacudana.com,Commerce
ES,43.5498198,-7.2449753,cabanasdabarcela.com,Facility
ES,39.4701421,-0.3671852,lapetitebrioche.es,Commerce
ES,42.2897269,-8.8107589,apartamentosriadealdan.com,Facility
ES,36.932771,-3.3329971,balcondepitres.com,Facility
ES,43.3425887,-3.7427884,pasteleriabergua.es,Commerce
ES,43.0739771,-3.349442,losjardinesdecadagua.com,Facility
ES,43.5319476,-5.6451459,produccionesviesqueswood.com,Facility
ES,41.7855595,-4.942457,hostalmariavictoria.es,Facility
ES,43.464439,-3.8086303,parroquiaanunciacion.com,Facility
ES,43.3028343,-2.2050413,pensiongetariano.es,Facility
ES,38.4572742,-0.3585085,colmarspain.com,Facility
ES,40.3573194,-3.9072953,autoescuelavillaviciosa.com,Facility
ES,42.6186378,-6.46659,marmolesdaniel.es,Commerce
ES,42.5445581,-5.588294,parkingautocaravanasleon.com,Facility
ES,41.014064,-3.4508253,molinodearriba.com,Unknown
ES,40.7039305,0.5790415,fruitesbarbera.com,Commerce
ES,40.5071866,-5.9055275,casaruraltirinuelo.com,Facility
ES,43.4903678,-8.217815,elglobomodainfantil.es,Commerce
ES,40.2926959,-3.7914246,ceartfuenlabrada.es,Facility
ES,41.939394,2.2405728,corretja-sl.com,Commerce
ES,41.8499128,-3.1611686,erasdelacabizuela.com,Facility
ES,43.367653,-8.4002709,cantonescines.com,Facility
ES,36.9609059,-3.3578617,cprbarrancodepoqueira.es,Facility
ES,41.3413925,2.0391918,pedagogium-cos.cat,Facility
ES,28.128258,-15.4486493,cclasarenas.com,Commerce
ES,43.0879397,-2.8441595,casaruraletxegorri.com,Facility
ES,40.4724187,-3.5940477,arquicomate.com,Unknown
ES,36.9403116,-3.3609233,abuelailichocolates.com,Facility
ES,43.5100338,-5.4170343,naturalezadeasturias.es,Facility
ES,43.539327,-5.6670513,hongkonggijon.com,Facility
ES,41.7876058,1.8258513,miradormontserrat.com,Facility
ES,42.2817727,-8.6115085,fisioterapiaredondela.com,Facility
ES,40.3924888,-3.6912955,autoescuelasvirgen.com,Facility
ES,41.6670317,-3.7239224,cerrajeriaartisticagutierrez.es,Commerce
ES,42.3236368,2.3906506,campingelssolans.com,Facility
ES,41.508859,-4.4587817,restaurantelamartina.com,Facility
ES,42.2113126,1.3279424,embotitsobach.com,Commerce
ES,36.7053028,-4.5136808,seafoodaliss.com,Commerce
ES,42.8719054,-8.5370725,colegiatadesar.com,Facility
ES,41.6697764,-2.8790196,torreblacos.es,Facility
ES,40.1262396,-5.6589743,autoescuelasgarcia.es,Facility
ES,36.7230551,-4.3969077,gprabogados.com,Commerce
ES,41.5169733,-5.1558921,fertifluid.com,Commerce
ES,41.3895177,2.1522834,hospitalclinic.org,Facility
ES,27.7625099,-15.5782235,elsaloongc.com,Facility
ES,28.0832714,-16.73353,hovimacostaadeje.com,Facility
ES,41.6515513,-4.7268903,olidjuridico.es,Commerce
ES,42.5484755,-6.5982197,raferbierzo.es,Facility
ES,42.0533717,3.1965302,hotelmedes.com,Facility
ES,43.4847045,-8.2263068,mundocasainmobiliaria.com,Commerce
ES,41.1924221,-5.1455644,zoologicolaeradelasaves.com,Facility
ES,41.3768166,2.1255343,llibrescapra.com,Commerce
ES,28.1137389,-15.4250802,smashburgergrancanaria.com,Facility
ES,28.9931114,-13.5055317,vitalclasslanzarote.com,Facility
ES,43.3415066,-4.1411169,kartinglaroca.com,Facility
ES,41.4809326,2.3181597,aluminiosqualum.com,Unknown
ES,36.0137137,-5.6027422,laestrelladetarifa.com,Facility
ES,43.169059,-2.6373932,restaurantekukutze.com,Facility
ES,39.0122835,-0.1790991,lagastrocasa.com,Facility
ES,41.9933146,-1.6870554,termoludicocascante.com,Facility
ES,43.4479253,-3.5297804,carbonemergente.com,Commerce
ES,43.245867,-8.3571174,suministros-ria.com,Commerce
ES,28.7105088,-13.8421548,bananabeach.club,Facility
ES,42.3415388,-3.6988138,coboestratos.com,Facility
ES,37.9940851,-1.1388995,losbocatasdeantonio.com,Facility
ES,41.4730081,-1.8758822,multiserviciorural.com,Commerce
ES,41.2249931,1.7237619,grupgestiofiscal.com,Commerce
ES,39.9713774,-4.2987644,cervezasmonkey.es,Commerce
ES,40.4492068,-3.6757037,casacucumber.com,Facility
ES,43.2945422,-8.3425763,cateringjosmaga.es,Facility
ES,39.7072512,2.6230819,valldemossahotel.com,Facility
ES,43.4752693,-3.5647869,vibeluxurycabins.com,Facility
ES,39.4746839,-0.3813589,radiocityvalencia.es,Facility
ES,40.436877,-3.7125932,colegiodecroly.org,Facility
ES,41.4279383,2.1648573,farmaciapitagores.com,Commerce
ES,39.7112557,2.9026235,hipercentro.com,Commerce
ES,42.860189,-1.8695607,casaruralarteta.com,Facility
ES,38.9722131,1.3069652,bambukuibiza.com,Facility
ES,42.1028092,1.8453781,castellersdeberga.cat,Facility
ES,36.7302403,-3.9631119,pahunanepaleserestaurant.com,Facility
ES,37.392486,-5.9936943,casadelamemoria.es,Facility
ES,43.5573904,-7.1041292,restauranteamirandilla.com,Facility
ES,40.5045663,-3.6716598,flotexperience.es,Facility
ES,41.2988295,-3.7446357,gordoncatering.es,Facility
ES,41.227239,1.7236324,elbitalegre.com,Commerce
ES,42.5946458,-5.5703845,detectiveprivado.es,Commerce
ES,41.3399966,2.1241369,cellnextelecom.com,Unknown
ES,36.5870739,-4.5996586,elhigueron.com,Facility
ES,39.4210439,-0.4975228,colegio-pleyade.es,Facility
ES,43.0242416,-2.5123206,hotelsukha.com,Facility
ES,28.5866363,-17.909741,atlantic-cycling.de,Facility
ES,41.6569376,-4.7290929,bicicletascarrilbici.es,Commerce
ES,40.0285847,-6.0890788,dip-caceres.es,Facility
ES,37.2151394,-3.7023311,ferroplast.es,Commerce
ES,41.3948273,2.1437133,afterlifebar.com,Facility
ES,39.3222279,-3.2378016,policlinicaaureliovela.es,Unknown
ES,42.6858768,-2.9384138,afami-miranda.com,Commerce
ES,41.4373525,2.2424613,hotelmarinabadalona.com,Facility
ES,40.13596,-0.2937329,conejospenyagolosa.es,Commerce
ES,40.4293999,-3.7012056,bookcenter.es,Commerce
ES,40.9645137,-5.6648471,oslogastroteca.com,Facility
ES,37.8735174,-6.0798892,almadendelaplata.es,Facility
ES,40.4733734,-3.8788313,clinicadentalzoritanavarro.com,Facility
ES,42.0204684,3.187829,rosadelsvents.es,Unknown
ES,41.5530967,-0.9578398,castillocadrete.es,Facility
ES,36.72322,-4.4224782,entrevaralesmalaga.com,Facility
ES,41.4028862,2.1588995,casadelscontes.com,Facility
ES,28.4455245,-16.2850478,horizontatlantic.com,Commerce
ES,41.9278608,2.2444641,canfontvic.com,Commerce
ES,41.6533987,-4.7287088,originario.es,Facility
ES,41.2222704,-4.8415583,valcarcehoteles.com,Facility
ES,28.1058388,-16.7303123,coworkingcostaadeje.com,Facility
ES,40.5494828,-3.6562556,kiddylaneschool.com,Facility
ES,43.2690352,-8.5211165,herculesgolf.com,Facility
ES,40.4838129,-3.7113604,newslandidiomas.es,Facility
ES,41.6672073,-3.7162762,laparrilladondeaurelio.es,Facility
ES,42.081974,2.8051823,museusdebanyoles.cat,Facility
ES,42.3464689,-7.8582613,cifpportovello.gal,Facility
ES,37.2105087,-3.6160312,eoidegranada.org,Facility
ES,43.2595488,-2.9125486,allironhostel.com,Facility
ES,40.2883875,-4.0151064,eltiojuanon.com,Facility
ES,42.8235981,-1.6457279,sidrerialaruna.com,Facility
ES,42.4291733,-2.5559138,bodegasnavajas.es,Commerce
ES,41.1167365,1.2389449,bobboutique.es,Commerce
ES,39.8377685,3.131984,offshoremallorca.com,Commerce
ES,36.500259,-4.6844356,elolivodelacala.com,Facility
ES,38.1224064,-0.8793657,callosadesegura.es,Facility
ES,36.2753545,-6.0095328,hotelsindhura.com,Facility
ES,28.055923,-16.7348888,thebanksteakhousetenerife.com,Facility
ES,42.8539167,-2.6675955,cityliftascensores.com,Commerce
ES,41.3986453,2.1640587,weloveitalybarcelona.com,Facility
ES,40.1236312,-5.6404523,fincalacoronilla.com,Facility
ES,42.3469796,-0.7270057,refugioderiglos.es,Facility
ES,41.3855527,2.1595446,centralbikebarcelona.com,Commerce
ES,43.4133959,-3.7154491,golframonsota.es,Facility
ES,41.8451975,2.504318,campinglasureda.com,Facility
ES,43.2575659,-2.9368815,100fragancias.com,Facility
ES,41.8384012,-3.0042256,abuelaeugenia.com,Facility
ES,41.3706436,2.15714,teatrelliure.com,Facility
ES,42.4850616,-8.8898266,museodasalga.es,Facility
ES,43.54335,-5.6634883,bluehoteles.es,Facility
ES,42.0919108,-6.7203202,entreacebos.com,Facility
ES,27.7367841,-15.6022062,ristorantegranditalia.com,Facility
ES,39.467295,-0.3778596,restaurantechangfuvalencia.com,Facility
ES,36.8188782,-3.5260658,museodelaceiteandaluz.com,Facility
ES,43.3167095,-8.3656154,lapicoteria.es,Facility
ES,38.8396333,-0.1197839,elmossdepego.com,Facility
ES,41.4868307,-2.5264863,marinamultimarca.com,Commerce
ES,40.971791,-5.6623637,pedrohermosa.com,Unknown
ES,37.484392,-4.4568552,hotelfuentelaspiedras.com,Facility
ES,40.9430496,-5.6579172,restauranteelmontalvo.com,Facility
ES,41.6191319,0.6173634,annecouturelleida.com,Commerce
ES,40.9694272,-5.6674121,floristeriasbedunia.com,Commerce
ES,42.3422582,-3.7017716,sakuraburgos.com,Commerce
ES,39.9051438,-4.0153378,nuevoalmacentarambana.com,Facility
ES,37.3430372,-6.0898652,lambelcatering.com,Facility
ES,36.7302242,-3.9638222,apartamentosintercentro.com,Commerce
ES,37.1732456,-3.588503,manueldefalla.org,Facility
ES,42.4285057,-8.0806131,ltesautoescuela.es,Facility
ES,39.3657261,2.9789934,cantodemarina.com,Facility
ES,28.110236,-16.7497734,royalriver.es,Facility
ES,28.0714002,-16.7004536,regencycountryclub.com,Facility
ES,41.382802,2.1625295,aurumwellbeing.com,Facility
ES,39.2562978,-0.2686154,kartvalencia.com,Facility
ES,40.2238854,-0.9298758,hotelhorno.es,Facility
ES,42.4392569,1.9334981,campus-cerdanya.com,Facility
ES,39.4615882,-0.312484,rentyachtworld.es,Commerce
ES,40.4830587,-3.9374579,alplatomaria.es,Facility
ES,39.4110108,-0.3348612,alqueriadelamar.com,Facility
ES,40.4622744,-3.4692602,cocinasdcoper.com,Commerce
ES,36.5942165,-4.5721811,elcapricho.eu,Commerce
ES,38.6290976,-0.7576318,ceramicamaestre.es,Commerce
ES,37.1650065,-3.5886664,galaplacidahotel.com,Facility
ES,39.3647597,-0.4642888,restauranteindiopicassent.com,Facility
ES,38.5791136,-0.0653796,camping-capblanch.com,Facility
ES,40.4196377,-3.7974756,zocopozuelo.com,Commerce
ES,28.060649,-16.7336317,theburgercafe.es,Facility
ES,28.0567027,-16.7269709,sushiamore.com,Facility
ES,40.396,-3.7979962,segurosnogal.es,Commerce
ES,40.9981154,-4.5374613,segoviaturismo.es,Facility
ES,43.3592776,-2.974906,hosteleriaolagorta.com,Facility
ES,38.0465844,-2.8530206,campingchopera.es,Facility
ES,39.7161114,2.6928704,jardinesdealfabia.com,Facility
ES,42.4878314,-1.6625251,bodegasmarcoreal.com,Commerce
ES,38.1998807,-2.1046156,casapernias.com,Facility
ES,42.3968155,-8.8061431,rcnsanxenxo.com,Facility
ES,41.6024927,0.6458746,espaidigitallleida.com,Commerce
ES,28.238765,-16.8343136,restaurantecasaedu.es,Facility
ES,43.2429338,-4.923085,refugiovegadeario.es,Facility
ES,41.3019939,1.2581176,marbresvalls.com,Unknown
ES,41.3750919,2.1354631,hostalsans.com,Facility
ES,37.2318105,-5.0972114,turismodeosuna.es,Facility
ES,43.2612223,-2.9250949,tournebilbao.com,Facility
ES,43.2597667,-2.9360435,belazagallery.com,Commerce
ES,43.3339083,-4.1006883,ingemotions.com,Commerce
ES,40.4216192,-3.7028002,brunchclubcafe.com,Facility
ES,42.8899589,-8.5325603,sanroqueclinicaveterinaria.com,Commerce
ES,36.4959442,-4.7760686,clinicanormed.com,Facility
ES,41.6066179,0.6437883,perruqueriamarivi.com,Facility
ES,42.939405,-3.5717821,aureliogonzalezalonso.com,Commerce
ES,42.8065386,-1.6632827,sidreriapilpil.com,Facility
ES,36.5962709,-4.5158099,almarinabeach.com,Facility
ES,36.5005719,-4.7971517,eicmarbella.org,Facility
ES,36.6159202,-4.5112985,legrandcafe.es,Facility
ES,27.7592691,-15.576957,thefactorygc.com,Facility
ES,37.3837261,-5.7269024,clinicapododent.com,Facility
ES,41.3824767,2.1735025,ganiveteriaroca.com,Commerce
ES,36.5090223,-4.8844275,buenosairesmarbella.com,Facility
ES,41.6536635,-4.7166629,huelgasreales.es,Facility
ES,41.4565822,2.2619044,skateagora.com,Facility
ES,42.1377044,1.5913787,calapagesa.cat,Facility
ES,42.6746295,-1.7466764,bodegacastillodeeneriz.com,Commerce
ES,37.4814616,-3.6166125,campotejar.es,Facility
ES,37.9964679,-1.1312291,clinicasaraena.com,Facility
ES,36.8398091,-2.4707781,laguajiradealmeria.com,Facility
ES,38.0988886,-3.6316205,buensaborlinares.com,Facility
ES,39.4354249,-0.4341358,ferreteriasmoreno.com,Commerce
ES,36.6775561,-4.4915941,airportmalagatransfers.com,Commerce
ES,40.663654,-4.6797241,hotelh2avila.com,Facility
ES,42.3130625,-7.8111743,aeromodelismoourense.com,Facility
ES,41.6127379,-4.7513134,esteticacovaresask.com,Facility
ES,39.492677,-0.3572466,horchateriaelssariers.es,Commerce
ES,42.2824135,-8.6086375,elrincondepatrionline.es,Commerce
ES,40.507484,-3.3648166,santotomasdevillanueva.com,Facility
ES,39.5744845,-0.3012679,jardineslahacienda.com,Facility
ES,43.262948,-4.0679011,valledebuelnafm.com,Facility
ES,40.4273068,-3.652918,lavioletaespaciodeportivofeminista.com,Unknown
ES,41.0653396,-2.6408679,elalbergue.es,Facility
ES,37.7622248,-3.794904,aceiterajaenera.es,Commerce
ES,37.8803195,-4.7783141,lospatiosdelpanuelo.com,Facility
ES,38.8410119,0.1110544,gonzalez-arroyo-notaria-denia.com,Commerce
ES,43.3771364,-8.4012584,dtergenteacor.com,Commerce
ES,41.7108287,0.9045081,autoescolaurgell.com,Facility
ES,42.3408358,-3.701407,libreriamardehojas.com,Commerce
ES,37.3818107,-6.5526204,tabernachocaito.com,Facility
ES,42.3479543,-3.6919837,fundacionaida.es,Facility
ES,39.4780581,-0.3730681,escuelaprofesionalxavier.com,Facility
ES,40.0011215,3.8395957,elclaustredeciutadella.com,Facility
ES,41.3949771,2.1424063,mltasesores.com,Commerce
ES,43.321058,-2.0097188,monteigueldo.es,Facility
ES,41.6495602,-4.7266723,hotelamadeus.net,Facility
ES,41.3911818,2.1839556,officebrainz.org,Commerce
ES,37.3898725,-5.9949911,heladoslaabuela.com,Commerce
ES,43.3613026,-4.0217456,cantabradeturba.es,Commerce
ES,37.1936605,-4.0248087,durmametal.com,Commerce
ES,40.4479221,-3.6552764,ilunionatrium.com,Facility
ES,41.5806669,2.035038,hitachi-powertools.es,Commerce
ES,40.4179713,-3.6736296,fisioterapiamadridcentro.es,Facility
ES,41.2236041,1.7252716,osteopatiavilanova.com,Facility
ES,42.3442633,-3.6881001,delfinburgos.es,Commerce
ES,28.4011989,-16.3216254,apneacanarias.com,Commerce
ES,36.4226964,-5.1483313,takekosushibar.com,Facility
ES,36.8395891,-5.3932455,cartaenweb.es,Facility
ES,39.8505483,4.2397091,menorcacricketclub.com,Facility
ES,43.0590421,-3.4758225,puertassecades.es,Commerce
ES,42.5964569,-5.6065658,244bikestore.com,Commerce
ES,40.4366095,0.3995398,mueblesazor.com,Commerce
ES,41.2554721,-5.7104169,cubodelvino.es,Facility
ES,41.7766505,1.8699996,farmaban-sa.com,Commerce
ES,41.447019,1.9760132,dissenyindeco.com,Unknown
ES,40.5754685,-3.5098234,azulejoshorcajo.es,Commerce
ES,43.4631723,-3.8148592,manuelalcalde.com,Commerce
ES,41.4057351,2.1763142,ccsagradafamilia.net,Facility
ES,42.2796043,-8.6108141,chelsearedondela.com,Facility
ES,39.4896977,-0.5717157,loriguilla.com,Facility
ES,41.3872263,2.1826372,blueprojectfoundation.org,Facility
ES,41.8345025,2.9269877,lacuraretreats.com,Facility
ES,40.7147088,-4.0718347,hornodeasarpaco.es,Facility
ES,41.9902013,-8.7734151,altosdetorona.com,Unknown
ES,37.7787826,-3.7994408,mercadopenamefecit.es,Commerce
ES,38.9093942,1.4239734,lookdental.es,Facility
ES,42.5031613,-6.7611794,turismoreinodeleon.com,Facility
ES,40.3901436,-3.6658899,jacksontherocks.es,Commerce
ES,41.2848652,2.0987765,elmaravillas.com,Facility
ES,40.4334376,-3.6490181,psicoalcalaquintana.com,Facility
ES,42.0412267,2.4138461,residenciacantonigros.com,Facility
ES,41.650773,-0.8886867,parroquiadelcarmen.es,Facility
ES,38.888113,-3.7095747,casagrandealmagro.com,Facility
ES,38.5865523,-0.1266767,villaaltea.com,Commerce
ES,28.9242358,-13.6734483,kentiagourmetclub.com,Facility
ES,43.3531349,-5.1342801,hotelgranda.com,Facility
ES,43.4920267,-8.2125586,sanchezsouto.com,Commerce
ES,28.2013972,-16.831113,biopanacea.com,Commerce
ES,37.2614524,-6.9586045,colegiomolierehuelva.es,Facility
ES,38.9779937,-3.9303325,ergoterapia.es,Facility
ES,42.3635738,-3.6600238,adetelcomunicaciones.com,Commerce
ES,38.9320619,-0.0947182,nauticoliva.es,Facility
ES,42.5533009,-6.6117028,clinicaponferrada.es,Facility
ES,37.3860185,-6.1390535,spartagarden.com,Commerce
ES,36.2909238,-5.2731312,panecioccolato.com,Facility
ES,42.2830983,-1.0469707,eltorreonmagico.com,Facility
ES,39.4771679,-0.373099,teologiavalencia.es,Facility
ES,41.4025213,2.1568442,dellaostia.es,Commerce
ES,41.1579013,1.1099839,psicomotricitat.com,Facility
ES,40.4718904,-3.8722403,laarbysbarberia.es,Facility
ES,39.5376837,2.4525449,autospepepaguera.com,Commerce
ES,37.1629226,-3.585885,iesmigueldecervantes.es,Facility
ES,36.7357343,-3.672042,propertyvillas.es,Commerce
ES,42.6293847,-2.1041989,villamayordemonjardin.es,Facility
ES,40.9790871,-5.6658541,olvidovelazquez.com,Facility
ES,42.0521722,-5.6828755,desguacesvicente.com,Commerce
ES,41.2221642,1.7301422,opticauniversitaria.com,Commerce
ES,42.3717229,-3.7213103,autodeluxegarage.es,Commerce
ES,28.0869555,-16.7333364,tunidotenerife.com,Commerce
ES,37.9721655,-3.9866109,eltrujaldelahiguera.com,Commerce
ES,43.2871968,-2.2119775,abetazaharra.eu,Facility
ES,42.6148027,-6.4162913,aytobembibre.es,Facility
ES,40.4731637,-3.8711254,fisioterapiamajadahonda.es,Unknown
ES,37.3896153,-5.9996732,hotelreyescatolicos.info,Facility
ES,36.714406,-4.2806111,hotelrinconsol.es,Facility
ES,41.9635657,-3.419164,casarurallascondesas.com,Facility
ES,41.5819922,1.6168726,farmaciamiserachs.cat,Commerce
ES,40.4732628,-3.8771323,mannastore.es,Commerce
ES,37.3875498,-5.9954154,hoteleuropasevilla.com,Facility
ES,39.8717843,-3.9354621,construccionessabas.com,Commerce
ES,28.4125887,-16.3153778,thyssenkrupp-plastic-iberica.com,Commerce
ES,36.7236932,-4.436116,clinicadentalcarlosrodriguez.com,Facility
ES,38.9850682,-5.2585074,agustinluengocapilla.com,Facility
ES,42.5515003,-5.6617437,oncinaebygescaho.com,Facility
ES,41.9888516,-1.5832689,pagodecirsus.com,Facility
ES,41.2340313,-0.0444067,inboxbajoaragon.com,Commerce
ES,40.4270471,-3.6718133,elfogondetrifon.com,Facility
ES,38.7909803,0.1724526,lacasadellapastajavea.com,Facility
ES,42.6884837,-2.9470671,saludmentalmiranda.com,Commerce
ES,41.3987702,2.1595928,les1001dents.com,Facility
ES,37.3769468,-6.0126869,fisioterapia-delacruz.es,Facility
ES,41.3994111,2.1574742,livingspacestore.com,Commerce
ES,42.0809916,1.6474255,fundesplai.org,Facility
ES,40.503456,-3.8935049,galeriasmadrid.es,Commerce
ES,37.8786215,-4.7803546,palaciodecongresosdecordoba.es,Facility
ES,41.3774109,2.1645065,paraisohostel.com,Facility
ES,40.421758,-3.6770426,madridhealth.com,Facility
ES,42.3736675,-3.7360962,cervezasvirtus.es,Commerce
ES,43.4961351,-8.2352038,colegiovalleinclan1.es,Facility
ES,38.4354853,-0.3883829,campingcostablanca.com,Facility
ES,36.758635,-2.6067189,pizzeriabocateriaoscar.es,Facility
ES,39.4118707,-3.7152183,lacasadelmedicohrural.com,Facility
ES,39.5195853,2.7502075,dsmallorca.de,Facility
ES,37.5607705,-1.2559826,cafeteriaelfaro.com,Facility
ES,42.3550107,1.458909,centreveterinarimoa.com,Commerce
ES,38.4702013,-1.3138731,prolaboral.es,Commerce
ES,37.119946,-3.5846093,farmacialazubia.com,Commerce
ES,36.713336,-4.4301618,carnavaldemalaga.es,Facility
ES,40.2911443,-3.5144444,complejolaciguena.com,Facility
ES,38.9432694,1.4146113,frutossecosibiza.com,Commerce
ES,37.3866311,-5.9971206,adrianohotel.com,Facility
ES,40.4174701,-3.7112149,farmaciavergara12.com,Commerce
ES,36.4627562,-5.0424824,farmaciabelair.com,Commerce
ES,37.1730826,-3.593096,apartamentosinside.com,Facility
ES,38.971292,1.3067397,bonitoibiza.com,Commerce
ES,41.3891254,2.1217026,monikarusch.com,Commerce
ES,39.5335746,2.7230957,bergantibikes.com,Facility
ES,40.8310285,-3.5447831,funerarialosremedios.com,Unknown
ES,38.2519858,-2.8925671,lascasasdenani.es,Facility
ES,43.4732943,-3.8066172,escenariosantander.es,Facility
ES,42.0480048,3.1915108,camping-lasirena.com,Facility
ES,43.1144255,-2.4141191,bergarakomusikaeskola.com,Facility
ES,40.4483623,-3.7019031,reformaydecora.net,Commerce
ES,37.1965807,-4.0249485,gamperexport.com,Commerce
ES,40.0905789,-2.0831482,hotelcuevadelfraile.com,Facility
ES,42.6610021,-5.5947229,trasteroslacopona.es,Commerce
ES,37.2229795,-3.6851766,eterfragancias.com,Commerce
ES,41.6308765,0.8978749,bakeallschool.com,Facility
ES,40.3918689,0.4049685,colegiosisp.com,Facility
ES,43.2630432,-2.9446734,viejozortzi.es,Facility
ES,38.4404922,-0.4745988,aerodromodemutxamel.es,Facility
ES,41.6176932,-4.7935252,depanymoja.com,Facility
ES,42.1771781,3.1089871,360grad-xdream.com,Facility
ES,43.2904391,-5.638891,sfamiliaelentrego.com,Facility
ES,43.3189262,-8.4923855,museo-mahi.com,Facility
ES,40.436354,-3.6645786,veracepizza.es,Facility
ES,42.8469234,-2.6816742,irigoienasesores.es,Commerce
ES,43.3288449,-4.1916834,posadacabrojo.com,Facility
ES,40.3804153,0.385716,campingsoldor.com,Facility
ES,37.2994189,-4.8771498,chocomundo.com,Facility
ES,37.3524558,-6.0621777,cursosdrones.com,Facility
ES,36.487952,-4.9567602,coincapital.es,Facility
ES,41.4236516,2.1916653,ecotribubcn.com,Commerce
ES,42.371081,3.1600674,restaurantmiramar.com,Facility
ES,36.7913877,-3.8948953,mieldelatorre.com,Commerce
ES,37.2172331,-3.6061286,pizzerialeoni.com,Facility
ES,37.979929,-1.1267745,suabogadoespecialista.es,Commerce
ES,41.3913941,2.1730643,elmercatrestaurant.com,Facility
ES,42.835963,-2.684623,mendizabala.eus,Facility
ES,43.489238,-8.2194078,florerianemona.es,Commerce
ES,38.9185864,-0.1929227,molicanyar.com,Facility
ES,42.270173,-8.3545734,campingmaceira.com,Facility
ES,43.0767125,-3.5486905,torreberrueza.es,Facility
ES,41.4096105,2.2160071,spartanrestaurante.es,Facility
ES,37.1740651,-3.597406,artevidasuites.com,Facility
ES,36.7590794,-5.5055046,ayto-elbosque.es,Facility
ES,40.6258364,-3.2335942,aytocabanillas.org,Facility
ES,40.4090539,-3.7068521,rastromadrid.org,Facility
ES,40.4408984,-3.6790311,rafaelcaballerodecoracion.com,Commerce
ES,40.4249426,-3.6898769,papuacolon.com,Facility
ES,36.5078118,-4.889316,ichibanmarbella.com,Facility
ES,36.939689,-3.3606629,casa-julio.com,Facility
ES,40.418353,-3.6993456,petitpalacealcala.com,Facility
ES,40.4701894,-3.8713957,clinicashernadent.es,Facility
ES,42.0501845,3.1911331,restaurantmardor.com,Facility
ES,43.4184173,-2.9368022,campinggorliz.com,Facility
ES,41.7713515,-1.1215619,farmaciasanchoalagon.es,Commerce
ES,41.1315575,-3.8100108,hospederiadesantodomingo.com,Facility
ES,41.616906,0.6324686,gefapreven.com,Commerce
ES,42.4321164,-8.6491397,escolaconservacion.gal,Facility
ES,41.459063,1.9720501,universalplataformas.com,Commerce
ES,43.4480108,-7.8527282,acepacafebar.com,Facility
ES,36.7201701,-4.4075333,granhotelmiramarmalaga.com,Facility
ES,37.0332981,-4.5278158,hotellosdolmenes.com,Facility
ES,39.2836757,-0.4266985,radicaloffice.net,Commerce
ES,38.0901278,-0.6538841,guardamardelsegura.es,Facility
ES,42.8414187,-2.5102731,lavitoriana.com,Commerce
ES,41.117072,1.2555413,elfaroapartaments.com,Commerce
ES,36.9986982,-6.5560015,chiringuitotucan.com,Facility
ES,37.8870738,-4.7893077,cebubylabodeguilla.com,Facility
ES,37.4015692,-1.5802547,zocodelmar.com,Facility
ES,41.906084,0.3318485,sanestebanturismo.com,Facility
ES,42.4086158,-8.0701001,caldasdepartoviabalneario.com,Facility
ES,42.3500448,-3.6886292,fisioterapiaduque.com,Facility
ES,41.6986596,2.8386547,guitarthotels.com,Facility
ES,40.4153805,-3.7055726,hostalcruzsol.com,Facility
ES,38.1301475,-0.6491088,marinasenses.com,Commerce
ES,40.4115581,-3.7073599,huertadealmeria.com,Commerce
ES,39.8638846,-3.9556671,farmaciaonlinetoledo.es,Commerce
ES,40.4557214,-3.6784457,libertiapsicologia.com,Facility
ES,39.1941651,-0.4290522,santaanaalgemesi.com,Facility
ES,40.4032499,-3.7026207,martesteatro.com,Facility
ES,38.5320037,-0.1764629,autonautica.com,Commerce
ES,42.1155783,-4.4949121,laconcordiademonzon.com,Facility
ES,41.8589794,2.67167,aiguescolomenques.cat,Unknown
ES,43.3531956,-3.9604257,sidrasomarroza.es,Commerce
ES,41.6362035,-4.7257858,iesarcareal.es,Facility
ES,40.4150858,-3.7018637,inclanbrutal.com,Facility
ES,41.5866021,2.3654891,canmontcau.com,Facility
ES,36.8713088,-2.0065615,campinglacaleta.com,Facility
ES,38.8685001,1.3115214,esxarcurestaurante.com,Facility
ES,41.4147547,-4.7916372,embutidosrebaque.com,Commerce
ES,43.2597454,-2.9371313,azkunazentroa.eus,Facility
ES,37.9295575,-5.7606774,cazalladelasierra.es,Facility
ES,41.8737147,-0.7558854,sangabriel.es,Facility
ES,41.5309751,-5.5840952,sangregorio.es,Commerce
ES,40.5356313,-3.8982073,autoescuelatorrelodones.es,Facility
ES,42.0233359,-3.2864151,salasdelosinfantes.net,Facility
ES,41.98885,3.1102235,restaurantsatorre.com,Facility
ES,43.2361485,-5.5649706,hotelcanzana.com,Facility
ES,41.4066659,2.1549408,lautenticateatro.com,Facility
ES,40.7440208,-3.5104903,imaginartejuegos.com,Commerce
ES,42.0470679,2.9134827,masdelaroda.com,Facility
ES,36.7084119,-4.4670421,eslovaquia-andalucia.es,Facility
ES,42.2312117,1.5664831,trementinaires.org,Facility
ES,40.3314467,-1.0865024,policlinicagalileo.es,Facility
ES,41.7151491,-3.1833594,fuentearmegil.es,Facility
ES,40.3636273,-3.7600147,clinicaveterinariaaltamira.com,Commerce
ES,41.9760432,2.8127617,cancocollona.com,Facility
ES,39.4854728,-6.4157768,adextremadura.com,Commerce
ES,42.4892382,-8.8578503,hotelvianorte.com,Facility
ES,39.8431181,3.1359464,iesportdalcudia.org,Facility
ES,41.4021564,2.1508036,lapimpinela.com,Commerce
ES,42.5878224,-5.5742667,casinodeleonpenalba.com,Unknown
ES,37.8554195,-0.7649777,feelgoodapartment.nl,Facility
ES,39.984931,-0.0399952,lavermuteria1858.com,Facility
ES,41.6240383,0.6213416,nachoanadonveterinaris.es,Commerce
ES,41.9674877,2.7803591,seoinhouse.es,Commerce
ES,42.8846101,-8.5404106,loopinnhostels.com,Facility
ES,38.4784089,-0.7816479,colegiosantodomingosaviopetrer.com,Facility
ES,37.3917278,-5.9910319,itacasevilla.com,Facility
ES,40.3767936,-3.5396707,bar-dejavu-kebab.es,Facility
ES,41.6505553,-4.7243294,cmmariademolina.org,Facility
ES,40.6901789,-3.4537517,mariamontessori.net,Facility
ES,40.0922766,0.1346028,museodelnaipe.com,Facility
ES,38.8998339,-6.9922406,lanaveairsoftbadajoz.es,Facility
ES,42.2832299,-8.8322968,campinghio.es,Facility
ES,36.7210213,-4.4064849,airegastrobar.es,Facility
ES,40.756692,0.5999994,hilfeagrotechnical.com,Commerce
ES,36.7431956,-3.5202633,clinicadentaleledent.com,Facility
ES,43.3115106,-3.0701827,meatzaldea.eus,Facility
ES,37.9082133,-4.7783829,servi-loli.com,Facility
ES,43.3651349,-8.4055423,viajesembajador.com,Commerce
ES,40.5447312,-3.6524352,centroclinicolachopera.es,Facility
ES,38.9354058,-3.2343813,ies-modesto-navarro.es,Facility
ES,39.471981,-0.3372447,cpmarenostrum.es,Facility
ES,40.460169,-3.4396066,lademoburger.com,Facility
ES,39.6715562,-0.2488426,lepicentre.es,Commerce
ES,41.5536717,0.8110451,ferrospedros.com,Facility
ES,40.3791298,-3.728264,colegiocervantescarabanchel.es,Facility
ES,43.4109684,-3.831691,talleres-sordes.com,Unknown
ES,41.6886868,2.1644696,loftsantfeliu.com,Commerce
ES,42.807281,-1.674421,jasoikastola.com,Facility
ES,42.1705094,-5.7717094,aytopozuelodelparamo.es,Facility
ES,41.6491702,-4.7268408,marialuisasicilia.com,Facility
ES,41.2205522,1.5428725,clickelectrodomesticos.com,Commerce
ES,41.6718399,-0.978781,zaragozahipica.com,Facility
ES,40.3511268,-3.8226409,tipsacademy.es,Facility
ES,37.2297219,-3.6487699,asociacionjuncaril.es,Commerce
ES,42.2891408,-4.1341435,acienleguas.es,Facility
ES,43.3276221,-8.3880097,apartamentosportazgo.com,Facility
ES,36.3471712,-5.8124274,centroprehistoricobenalup.com,Facility
ES,43.2699005,-2.9469238,elbuhorojo.com,Facility
ES,40.1808393,-3.683643,eimamaestoybien.es,Facility
ES,42.8795087,-2.6365884,centrocaninozurbano.com,Facility
ES,36.6965829,-6.1344971,mesondelasador.com,Facility
ES,40.3667899,-3.5379899,dentalzocorivas.es,Facility
ES,41.4024412,2.1635243,caliudegracia.es,Facility
ES,41.5055383,-5.7461718,danielfraile.es,Commerce
ES,43.3405367,-4.0512282,pmetorrelavega.es,Facility
ES,37.038456,-2.6275773,cervezasfarwest.com,Commerce
ES,41.3680382,2.0198472,vitalargent.com,Commerce
ES,42.7324314,-1.6338785,cstnavarra.com,Commerce
ES,41.3840934,2.181923,casagispert.com,Commerce
ES,37.4380963,-4.0864252,ecomuseoriocaicena.es,Facility
ES,37.8819231,-4.7762145,hostallafuente.com,Facility
ES,36.7232578,-4.398462,edicionesplatea.com,Commerce
ES,42.9971113,-4.133224,laboratorios-pino.com,Commerce
ES,36.6273695,-4.4941607,pizzerialafavorita.es,Facility
ES,27.7689272,-15.5425465,petithotelnatura.com,Facility
ES,41.9325138,2.2480968,sakura2restaurantejaponsvic.com,Facility
ES,40.9641457,-5.6680374,edificio-congreso.com,Facility
ES,43.3796515,-8.398788,autoescuelamarte.com,Facility
ES,43.3000919,-2.201423,villaembilgetaria.com,Facility
ES,28.8044468,-17.774298,sanandresysauces.es,Facility
ES,43.2610976,-2.9387185,marinaestudio.com,Commerce
ES,36.7224528,-4.4213083,romeroluna.com,Facility
ES,39.4744011,-0.3777316,newsandcoffee.eu,Facility
ES,42.2855298,-1.9259348,tierrarapaz.com,Facility
ES,36.701631,-4.4720129,amisur-amianto.com,Commerce
ES,41.2113666,-4.9231016,bodegaspita.com,Commerce
ES,43.4129341,-3.565738,sopenamobilhome.com,Commerce
ES,41.440159,2.1999898,renaultretailgroup.es,Commerce
ES,41.6518706,-5.2651619,lisarditos.com,Commerce
ES,42.9424166,-8.8504409,casavellavilaserioblog.com,Facility
ES,40.6258662,-4.0247372,tapiceriasvillalba.com,Unknown
ES,40.4202508,-3.6754873,laretiradamadrid.com,Facility
ES,38.8664756,-3.1635551,alberguevallehermoso.com,Facility
ES,40.9279341,0.0746217,restaurantematarranya.com,Facility
ES,43.3859417,-8.4065241,torredeherculesacoruna.com,Facility
ES,38.8880884,1.4063935,losescondidosibiza.com,Facility
ES,41.7852439,0.5730844,circuitalmenar.com,Facility
ES,40.4039155,-3.6795134,centrosmedicoslesante.es,Facility
ES,37.7557798,-3.7955759,mayoresdejaen.com,Facility
ES,40.488979,-3.6924072,urbanlabmadrid.com,Commerce
ES,41.984976,2.8194569,restaurantmassana.com,Facility
ES,37.8804691,-4.7791008,balcondecordoba.com,Facility
ES,41.5491632,-3.7099184,lechazoasado.net,Facility
ES,37.2365209,-3.627791,ceipmanueldefalla.com,Facility
ES,39.9987323,0.0226291,paintballcastellon.com,Facility
ES,40.6526731,-3.333026,elcoledelospekes.com,Facility
ES,39.9732997,0.0152624,simetriagrupo.com,Commerce
ES,41.9516182,-2.924674,residenciacunadelduero.com,Facility
ES,36.7282703,-4.4103538,hotelmontevictoria.es,Facility
ES,39.5967124,2.6912625,clinicamoran.es,Facility
ES,28.1488275,-15.4283809,hotelblancapaloma.top,Facility
ES,38.7247584,-0.1930375,castelldecastells.es,Facility
ES,41.8689558,2.4173566,espinelves.cat,Facility
ES,40.343689,-3.5359315,dimovement.es,Unknown
ES,40.5272614,-3.2771536,desguacesantos.com,Commerce
ES,37.8862897,-4.7803402,icewaveshow.com,Commerce
ES,39.5359916,2.7174458,hotelbalear.com,Facility
ES,39.8564349,-4.0222782,restaurantemadretierra.com,Facility
ES,36.7320948,-3.9703625,dinotofernandez.es,Commerce
ES,40.4729181,-2.6065627,jimenez-alcocer.com,Unknown
ES,28.141481,-15.5145836,grancanariaholidays4all.com,Facility
ES,40.4085471,-3.552368,diversabox.com,Facility
ES,37.5743263,-1.2714688,viveroshoraciofernandez.com,Commerce
ES,36.1756188,-5.4359838,restaurantelaragua.com,Facility
ES,36.2794383,-6.0976885,laolaconil.com,Facility
ES,43.2553915,-2.9172191,restaurantekarlos.com,Facility
ES,40.9761866,-5.6563724,escuelakickboxingelite.org,Facility
ES,37.3898054,-6.104789,riopudiohipica.es,Facility
ES,39.6515572,2.773504,opticasantamaria.com,Commerce
ES,43.0349882,-8.4272686,manelspercusion.com,Unknown
ES,40.3932221,-3.7132335,electrofuture.com,Commerce
ES,41.4153808,2.1954247,centrosuenos.com,Commerce
ES,41.4456679,1.8586649,canpasqual.com,Commerce
ES,28.4638464,-16.2534791,hoteltanausu.es,Facility
ES,40.4724618,-3.6867719,hijodelmaiz.com,Facility
ES,39.704517,3.4329915,capdeperacastell.com,Facility
ES,37.393198,-5.9931762,colegioitalica.es,Facility
ES,40.4098265,-3.6537691,chiquimoratalaz.es,Facility
ES,40.4338765,-3.6940077,lastortillasdegabino.com,Facility
ES,39.4544695,-0.3797431,centroyogaiturbi.com,Facility
ES,40.4205668,-3.6869229,moulinchocolat.com,Commerce
ES,40.4197098,-3.707584,cafevarela.com,Facility
ES,43.4913167,-8.2142612,phisistemas.es,Commerce
ES,37.1729322,-3.6077917,musicalguima.com,Commerce
ES,43.539485,-5.6623879,hotelhernancortes.es,Facility
ES,37.3897759,-5.9680126,armeria-merino.com,Commerce
ES,40.4178989,-3.696253,casasuecia.es,Facility
ES,43.3557112,-5.8447386,caminosantiagoastur.com,Facility
ES,43.1572915,-5.4134643,tierradelagua.es,Facility
ES,41.6101715,-4.7601559,elpilarvalladolid.com,Facility
ES,41.726618,1.8252773,vinstomasa.com,Commerce
ES,41.3998467,2.1597345,moodbodyhouse.com,Facility
ES,41.156111,-4.4885633,navadelaasuncion.org,Facility
ES,42.0785978,-1.5656059,airebardenas.com,Facility
ES,36.7456497,-3.6517586,playacabria.com,Commerce
ES,38.3632258,-0.4952664,thecodescape.es,Facility
ES,37.1810597,-3.6009151,hotelgranadacentro.com,Facility
ES,36.0147006,-5.6047889,cafeazul-tarifa.com,Facility
ES,43.3589247,-8.4081759,dominiozero.es,Commerce
ES,42.4660536,-2.4488039,restaurantematasellos.com,Facility
ES,40.0405962,0.0522943,hotelbersoca.com,Facility
ES,37.4005078,-5.9854512,viverossujardin.com,Facility
ES,41.7369262,-1.0667276,eslajoyosa.com,Facility
ES,41.4253234,2.1764596,lamontcadenya.com,Commerce
ES,41.7200653,2.9309974,hotelwindsortossa.es,Facility
ES,42.4261269,3.1604471,hotelcomodoroportbou.es,Facility
ES,37.2312236,-3.5537991,ayuntamientodeviznar.com,Facility
ES,41.6288404,0.89803,moblesurgell.com,Commerce
ES,41.6076528,2.2860115,tolinorestaurant.com,Facility
ES,39.8637355,-4.0221989,mueblestante.com,Commerce
ES,41.0463838,-5.5969828,clubaeromodelismosalmantino.com,Commerce
ES,38.8884733,-6.9864897,caritasmeba.es,Facility
ES,40.4328293,-3.6806908,restaurantepolvora.com,Facility
ES,43.307409,-8.2953444,poligonoespiritusanto.com,Commerce
ES,40.4222367,-3.7094576,hostalbuenosaires-madrid.com,Facility
ES,42.6631177,-8.1111823,tiresiaspeluqueria.com,Facility
ES,38.9754593,1.3082995,hotelarenal-ibiza.com,Facility
ES,42.9903584,-4.1406665,gamesaelectric.com,Commerce
ES,41.6469633,-4.7262287,hotelgareus.com,Facility
ES,38.0886945,-0.6523368,lacañadaguardamar.com,Facility
ES,40.2519745,0.2454253,viverosalcossebre.es,Commerce
ES,28.4753124,-16.4185537,teychocolate.com,Facility
ES,38.1400378,-6.8739169,rincondelabade.com,Facility
ES,42.1851461,2.4856668,espaicrater.com,Facility
ES,36.725796,-4.4138406,cofradiadelrescate.es,Facility
ES,40.4096848,-3.881005,littlelions.es,Facility
ES,41.5399316,2.2121251,orquidiaflors.com,Commerce
ES,36.3703928,-6.1804561,fogondemariana.com,Facility
ES,36.7175072,-4.4242856,agustinehijospeluqueros.com,Facility
ES,40.279738,-3.8079146,colegiokhalilgibran.es,Facility
ES,38.9583701,-0.5846718,santantoniabatcanals.com,Facility
ES,40.4212048,-3.7013896,hostallosalpes.com,Facility
ES,36.7500424,-3.5198499,fernandamartinesteticaavanzada.es,Facility
ES,41.145739,1.1092986,dontresillo.es,Commerce
ES,28.0610578,-16.7334183,kontraolasurftenerife.com,Commerce
ES,39.4942785,-0.4006577,marisquerialacaleta.es,Facility
ES,43.3097249,-3.8529976,santamariadecayon.es,Facility
ES,43.4936232,-8.2129892,tallereslumarferrol.com,Commerce
ES,39.4363923,3.0053716,germansballester.com,Commerce
ES,43.2595218,-2.9349623,nailsboutique.es,Facility
ES,40.4213522,-3.7149983,hotelprincipepio.com,Facility
ES,43.509068,-5.694521,hotelboronagijon.com,Facility
ES,43.4631955,-5.0563954,apartamentoslaatalaya.com,Facility
ES,39.572892,2.6394403,naanstreetfood.com,Facility
ES,41.2588505,-3.9237045,hostalstopcantalejo.com,Facility
ES,43.0534891,-2.1825674,naparraharategia.eus,Commerce
ES,41.3391823,-4.5843277,hcaminoreal.com,Facility
ES,42.208624,-8.7752084,bowlingsamilvigo.com,Facility
ES,42.6376473,1.0394935,refugidelgerdar.com,Facility
ES,41.6424539,-0.8835398,xhadaestilistas.com,Facility
ES,39.8876904,4.2750397,sesforquilles.com,Facility
ES,41.4970342,-5.7352397,menesianoszamora.com,Facility
ES,39.4854538,-0.3547867,sembrallibres.com,Commerce
ES,42.6556935,-5.6174263,fincalarealeza.es,Facility
ES,41.3647648,2.1556695,estadiolimpic.barcelona,Facility
ES,42.9495737,-7.807533,alberguecruzferreira.com,Facility
ES,40.8978315,-4.1722941,nogaldemadrona.es,Facility
ES,37.3835416,-6.0852509,restaurantealmansa.com,Facility
ES,41.4939261,-2.5367076,hotelvilladealmazan.es,Facility
ES,40.4287956,-3.6927809,lavaqueriamontanesa.es,Facility
ES,36.5257438,-4.6487069,haciendaelsueno.com,Facility
ES,28.3738702,-16.869977,restauranteelburgado.com,Facility
ES,39.796756,2.697846,15minutetest.com,Facility
ES,41.4004019,2.1506858,escolalurdes.cat,Facility
ES,27.8049412,-17.9135464,transhierro.com,Facility
ES,41.6407497,2.7376811,hotelrosanautica.com,Facility
ES,41.2845445,1.2503123,cafeslider.com,Facility
ES,40.9909154,0.9210046,farmaciaaragones.com,Commerce
ES,43.5164038,-8.1627366,osratiñoshabilidosos.com,Commerce
ES,36.7480833,-3.5186772,limonsport.es,Commerce
ES,42.8812746,-8.5328726,micromedia.es,Commerce
ES,43.2190372,-2.7327585,segurosamorebieta.es,Commerce
ES,43.5206809,-8.1880529,kesiamobiliario.es,Commerce
ES,40.2303396,-3.7506559,clinacdental.es,Facility
ES,41.5501777,0.8900609,calmiquelo1778.com,Facility
ES,40.4767724,-3.4317149,recyberica.com,Commerce
ES,39.5173395,2.7443031,euronetatms.es,Facility
ES,39.7732172,2.9653189,bacanpizzasdeautor.com,Facility
ES,42.8064083,-1.6628575,gacentrodenegocios.com,Unknown
ES,41.1704999,-2.4334406,hotelmedinasalim.com,Facility
ES,43.2639746,-2.9218019,pizzeriatrozo.com,Facility
ES,36.6195949,-4.4990182,pizzallapala.com,Facility
ES,43.4807666,-3.7891287,euturismoaltamira.com,Facility
ES,43.4643565,-3.8366993,tallerensantander.com,Commerce
ES,40.9499487,-3.7915557,restaurantelozoya.es,Facility
ES,40.4566231,-3.674927,selfadecoracion.com,Commerce
ES,41.3131449,0.9802224,campingprades.com,Facility
ES,36.7194361,-4.4296043,telaselkilometro.com,Commerce
ES,40.4041533,-3.6925371,deporteslaser.es,Commerce
ES,37.7710606,-3.9005128,farmaciayortopediarosa.com,Commerce
ES,40.6332679,-3.1664402,saboresexpress.es,Facility
ES,43.4501416,-3.8308939,soyelectrico.com,Commerce
ES,39.6744319,-0.2043156,hotelplayacanet.com,Facility
ES,40.3964086,-3.7174512,gallinejasenriqueta.es,Facility
ES,41.968226,-6.8957185,acasadocura.com,Facility
ES,42.0840874,2.9827626,restaurantelxalet.cat,Facility
ES,40.4170809,-3.7073497,lacasagallega.com,Facility
ES,41.6768251,2.7881769,hotelcostabravablanes.com,Facility
ES,41.3807527,2.1584091,discos-redondos.es,Commerce
ES,40.0811551,-2.1277232,fundacionantonioperez.com,Facility
ES,37.7807302,-3.8893675,aceropanel.es,Unknown
ES,43.139238,-1.5340531,aspacenavarra.org,Unknown
ES,38.1660243,-0.4814465,hotelislatabarca.com,Facility
ES,41.502274,-5.7472607,teatroramoscarrionzamora.com,Facility
ES,42.8736695,-3.1742714,molinosolapena.com,Facility
ES,38.9856728,1.5425292,aguasdeibiza.com,Facility
ES,37.3678914,-5.9603943,teatrotavoradesevilla.com,Facility
ES,40.4502218,-3.6797252,colegiosanramonysanantonio.es,Facility
ES,37.3971278,-5.9920512,hoteloneshotpalaciocondetorrejon09.com,Facility
ES,40.3177989,-3.8585429,carmenmostoles.es,Facility
ES,41.6888806,-3.6718996,hermanoscabarga.com,Commerce
ES,37.7353333,-0.8488941,cnmarmenor.com,Facility
ES,42.3390535,-3.7212682,hemofiliaburgos.es,Commerce
ES,36.7592686,-3.8421732,hotelplayamaro.com,Facility
ES,40.4648187,-3.589333,kindermygarden.com,Facility
ES,42.1484434,-2.8908432,albergueurbion.es,Facility
ES,42.2902706,2.8825593,masoliveres.com,Facility
ES,41.4439215,2.2485007,escoladelvent.com,Facility
ES,40.4395448,-3.6386038,hotelpetitpalacearturosoria.com,Facility
ES,38.1868421,-0.5626134,nautica-antonio.com,Commerce
ES,36.7160391,-4.4339443,joaquinivars.com,Commerce
ES,41.6021972,2.6272787,lermitarestaurant.com,Facility
ES,37.4571715,-4.0799968,casalanuez.com,Facility
ES,42.2892572,3.2776178,laresidencia.net,Facility
ES,41.6688666,1.2719427,museudecervera.cat,Facility
ES,27.9350903,-15.5106414,casasruralesdeguayadeque.com,Facility
ES,41.5136829,-5.7406944,elmesondelzorro.es,Facility
ES,40.5150107,-3.6520202,lamaquinalamoraleja.es,Facility
ES,40.2007203,-0.1272807,maselsvilars.com,Facility
ES,36.758587,-5.3737856,campingtajorodillo.es,Facility
ES,40.7305918,-3.8605143,manzanareselreal.es,Facility
ES,43.2569054,-2.9233628,atbaristasbilbao.com,Facility
ES,28.4135508,-16.53845,farmaciabotanico.com,Commerce
ES,39.4357905,-0.4713212,compromispertorrent.com,Commerce
ES,40.535012,-3.647252,farodeluarca.es,Facility
ES,40.4557174,-3.6806804,restaurantedelariva.com,Facility
ES,41.1806692,1.3078665,granjaescolacorraldeneri.com,Commerce
ES,42.3358926,-3.7101229,farmaciacellophane.es,Commerce
ES,39.0219628,-1.884594,jjcuchilleria.com,Unknown
ES,40.0329811,-3.3655901,hotelhaciendacastellar.es,Facility
ES,36.2943128,-5.3004624,ipsistemas.es,Commerce
ES,43.2606809,-2.9384601,negredogroup.com,Facility
ES,41.8822249,-5.045896,ateaasesores.com,Unknown
ES,41.4066121,2.1530093,mariabarcelona.com,Commerce
ES,43.2347858,-2.7502141,bizkaiaenergia.com,Commerce
ES,41.6409851,-4.2559542,elcantodelaalondra.com,Commerce
ES,37.7661791,-3.7797328,clubdecampojaen.es,Facility
ES,41.115073,1.2481636,cntait-tgn.org,Unknown
ES,42.7350779,-4.2741628,hostallallave.es,Facility
ES,42.807294,-1.6650247,hotelapamplona.es,Facility
ES,40.2068366,-3.6892121,colegiovalledelmiro.es,Facility
ES,43.2543777,-2.9207373,hotelsirimiri.es,Facility
ES,43.3130758,-2.007149,restaurantemartin.es,Facility
ES,40.9861672,-4.0588898,estanciasrurales.com,Commerce
ES,38.8646677,-6.9612459,parafarmacialasgrullas.com,Commerce
ES,40.4759127,-3.7310004,colegiosanrafaelsantaluisa.es,Facility
ES,28.617828,-13.9343316,lamoradademadera.com,Facility
ES,37.2296964,-1.821733,homestarthalassa.com,Commerce
ES,36.7699531,-2.6032415,mysticboarding.com,Facility
ES,43.314706,-1.9825386,baanthaistreetfood.com,Facility
ES,43.1584877,-3.7828182,casadedonguzman.com,Facility
ES,41.5453855,2.2089453,latramolla.cat,Facility
ES,43.3167993,-2.4116745,campingsaturraran.com,Facility
ES,41.6604606,-4.7130353,paralcampo.com,Commerce
ES,36.8162246,-2.562399,grupolapita.es,Facility
ES,43.462571,-3.8144212,hospedajemagallanes.com,Facility
ES,36.2268819,-6.0663297,restauranteelalferez.com,Facility
ES,40.4186693,-3.6994716,hojaldreria.com,Facility
ES,40.2089314,-3.6865266,cervezasyria.com,Commerce
ES,37.7131233,-3.7645608,restauranteelbalcon.com,Facility
ES,41.3862845,2.1253416,dstreetpoke.com,Facility
ES,41.3094389,-4.9184822,museoferias.net,Facility
ES,36.725981,-4.4212797,museovidrioycristalmalaga.com,Facility
ES,39.5137355,-0.4352411,imaginemontessori.es,Facility
ES,38.5013424,-2.4162853,hotelriopar.com,Facility
ES,41.2239641,1.725164,fornsenrich.com,Commerce
ES,37.1461212,-3.6133225,wannastyle.com,Commerce
ES,36.4973907,-4.9403564,besayabeach.com,Facility
ES,43.4347349,-4.8593962,agardeasturias.com,Commerce
ES,41.4173559,2.1976123,wellingtonhousebcn.com,Facility
ES,40.5282918,-3.6426013,txokolamoraleja.es,Facility
ES,39.511489,-0.413869,madreselvaflors.com,Commerce
ES,41.2141731,1.7234695,mareahotel.es,Facility
ES,40.4239937,-3.6852792,iconwipton.com,Facility
ES,41.375555,2.1557759,lamartitabcn.com,Facility
ES,42.1150696,-1.7889118,bodegascorellanas.com,Commerce
ES,43.3695661,-8.4018898,solvendiabogados.com,Commerce
ES,41.0722368,-5.5653547,legumbresmontes.com,Commerce
ES,42.5460505,-6.5909383,aroihoteles.com,Facility
ES,38.3265286,-6.7625164,jerezcaballeros.es,Facility
ES,42.2597588,-8.8115144,campingcangas.es,Facility
ES,43.2604784,-3.3857167,cuevadepozalagua.eus,Facility
ES,39.4670885,-0.3784063,parisvalencia.com,Commerce
ES,38.8284218,0.0143541,hotelramis.com,Facility
ES,40.1052841,-5.7231795,entrefuentes.com,Facility
ES,40.6267867,-4.0208754,azarasaneamientos.es,Commerce
ES,41.3733921,2.1682438,hotelcoronado.es,Facility
ES,40.4472162,-3.5420261,crowneplazamadridairport.com,Facility
ES,36.6914673,-4.4441457,restauranteodissei.es,Facility
ES,40.4298705,-3.6715768,farmaciagasset85.es,Commerce
ES,36.2531903,-5.9567055,hostalbatato.com,Facility
ES,37.9800239,-0.6722375,adl-torrevieja.com,Facility
ES,39.606428,2.6701791,perfilasesor.com,Commerce
ES,43.3164689,-1.9836867,aroominthecity.eu,Facility
ES,41.828673,2.8970124,lapalestra.cat,Facility
ES,39.1516952,-0.4391592,edadesvalenciasur.com,Commerce
ES,43.3133808,-1.9014666,ferreteriaotano.com,Commerce
ES,40.5612972,-3.9015783,asadorelpaso.es,Facility
ES,39.4612291,-0.3874642,lacasadeltapeo.com,Facility
ES,28.4074564,-16.3325032,castillomoro.es,Facility
ES,38.9704585,1.2826621,apartamentossanantoniobeach.com,Facility
ES,39.6054437,2.6698567,refineriaweb.com,Unknown
ES,43.3206866,-1.9802149,asesorialoyola.com,Commerce
ES,41.3808801,2.1754294,restaurantemyway.com,Facility
ES,39.68828,2.5160042,hotelmarivent.com,Facility
ES,40.4968565,-3.6610213,divertilandpark.com,Facility
ES,41.7267759,1.8230502,cocteleriaglac.cat,Facility
ES,43.4578266,-3.8262946,ventanasarsan.com,Unknown
ES,43.4654089,-3.8186446,morantrofeos.com,Commerce
ES,41.2246801,1.7294481,medseguros.es,Commerce
ES,40.4509345,-3.7082957,ebanisteriajoseprieto.com,Unknown
ES,42.1330791,-6.7249155,hotelelbalcondellago.com,Facility
ES,43.4670041,-6.2281391,alsondelindiano.com,Facility
ES,40.4221049,-3.7084869,perseiconsulting.com,Commerce
ES,40.7035446,0.5821037,shantibenestar.com,Facility
ES,43.5660656,-5.9285775,cifpdeldeporte.es,Facility
ES,37.0956291,-3.3868082,alberguesierranevada.com,Facility
ES,43.0978519,-4.6794805,casadelasdoñas.es,Facility
ES,42.9050994,-9.1013809,restaurantelandua.com,Facility
ES,41.3823471,2.1682763,mirchbarcelona.com,Facility
ES,42.8869925,-8.5299658,seteculleres.com,Facility
ES,43.2648828,-2.9444516,salarockstar.com,Facility
ES,38.2469739,-6.3059573,elzaguandelaplata.es,Facility
ES,37.6235049,-0.9549926,ciclosmartos.com,Commerce
ES,40.4256766,-3.6886081,goldgourmet.es,Facility
ES,42.3502113,-3.6977682,disfracesmerlin.es,Commerce
ES,41.6170843,0.6332049,sitsecurity.com,Unknown
ES,42.2797395,-0.0763338,vallederodellar.com,Facility
ES,36.5397448,-4.6240359,laboratorioportales.com,Facility
ES,42.2188766,2.8959366,garciadepou.com,Commerce
ES,39.3634343,2.9434564,soratgemar.com,Facility
ES,36.7161187,-4.4229283,iconmalabar.com,Facility
ES,37.0959222,-3.545167,23degrees-sports.com,Facility
ES,42.4295402,-2.7157997,itvcitaprevia.es,Facility
ES,42.2912855,-2.5674216,casasenderuela.com,Facility
ES,40.4525634,-3.6330619,montessoricondeorgaz.es,Facility
ES,39.8613262,-4.0249165,hotelrealdetoledo.es,Facility
ES,42.8542679,-9.071758,nidosdecarnota.com,Facility
ES,43.2746037,-8.4075172,condefernandez.com,Commerce
ES,41.3928642,2.1565684,cercledamics.com,Facility
ES,42.8186506,-1.6472582,losdebronce.com,Facility
ES,37.9275715,-0.8102212,lascolinasgolf.es,Facility
ES,41.8175456,-2.7905488,campingelconcurso.com,Facility
ES,38.5942243,-0.0531656,farmaciajuangalianafmas.com,Commerce
ES,38.702544,0.135365,paichigarden.es,Commerce
ES,41.6120335,0.6318122,identiclleida.com,Facility
ES,40.4653408,-3.6959043,escaladamadrid.com,Facility
ES,40.346361,-3.852031,buffalo-grill.es,Facility
ES,40.3503413,-3.5421305,gardenrivas.com,Commerce
ES,43.4621908,-5.0598498,montanasdelnorte.com,Commerce
ES,40.4011963,-3.6879215,albor-restaurante.es,Facility
ES,39.4617386,-0.3721321,therapy-project.com,Facility
ES,43.3212644,-3.1110398,nortejeduexport.com,Commerce
ES,37.1878515,-3.6072464,subarashisushi.es,Facility
ES,36.7449185,-3.5866162,hostaljayma.com,Facility
ES,28.3892347,-16.5528767,yeowardschool.org,Facility
ES,43.3652462,-8.4140133,corsaudecentromedico.com,Facility
ES,40.049294,4.1093232,lafranolamenorca.com,Facility
ES,41.3966188,2.1542752,sistemasdecimentacion.es,Commerce
ES,43.39648,-3.7989508,envasesdelcantabrico.com,Commerce
ES,40.4311455,-3.6775753,casacarola.com,Facility
ES,42.0505369,2.0347263,fondalaprimitiva.com,Facility
ES,37.8059375,-3.6143977,mueblestorga.com,Commerce
ES,41.6512662,-4.7313565,museosanjoaquinysantaana.es,Facility
ES,40.4313774,-3.7184566,arroceriabalearpozuelo.com,Facility
ES,40.4809456,-3.3961612,mercedes-benz-santogal.es,Commerce
ES,36.7198967,-4.4247746,cofradiasfusionadas.org,Facility
ES,40.5222686,-3.8946754,pizzeriaromolo.com,Facility
ES,43.2048961,-3.586274,lacabanadelacascada.com,Facility
ES,43.4644213,-3.7997533,galeriasiboney.com,Facility
ES,37.1932017,-4.0263061,joseanventanas.com,Commerce
ES,39.4720693,-0.379874,farmaciabalkis.com,Commerce
ES,40.6069722,-3.2776604,ayuntamientodequer.es,Unknown
ES,43.2226947,-2.7356107,funerarialarraz.com,Commerce
ES,38.9594353,1.4506389,gokartssantaeulalia.com,Facility
ES,36.7154736,-4.4236305,hotelbahiamalaga.com,Facility
ES,43.3129396,-1.8987289,jantziarenzentroa.eus,Facility
ES,39.4772165,-6.372417,alberguelasveletas.es,Facility
ES,43.2188341,-9.005123,vidahoteles.com,Facility
ES,43.4332536,-3.8333647,grupotecan.es,Commerce
ES,43.2865013,-2.1747924,restaurantekandela.com,Facility
ES,39.4600944,-5.884596,palaciochaveshotel.com,Facility
ES,40.7035565,-3.4283607,taxielcasar.es,Commerce
ES,41.6301517,0.8944745,opticaimagine.cat,Commerce
ES,40.349858,-3.8162453,churreriascibeles.es,Facility
ES,43.3310035,-3.5161067,villadepalacios.com,Facility
ES,42.3593166,-3.6707216,areaquattro.es,Facility
ES,42.6454175,-8.8824703,electrootero.es,Commerce
ES,37.2644648,-5.9573677,montelirio.com,Facility
ES,42.3444361,-3.6960208,villatrajano.com,Facility
ES,28.4905605,-16.3182826,dickymorgan.com,Commerce
ES,41.2365785,-0.0392395,opticamasats.com,Commerce
ES,37.9753938,-1.2149999,clinicadentalsalzillo.com,Facility
ES,41.4823813,2.0214703,oguncrossfit.com,Facility
ES,41.3804049,2.1805946,barlaplata.com,Facility
ES,36.5022387,-4.7131088,costahealth.es,Unknown
ES,36.9525963,-4.5448635,torcaldeantequera.com,Facility
ES,40.4692936,-3.6857703,naturacurantur.com,Facility
ES,42.0314373,2.8488417,atemporestaurant.com,Facility
ES,37.3922229,-6.0097299,cctorresevilla.com,Commerce
ES,40.9689772,-5.6702648,gran-hotelcoronasol.es,Facility
ES,42.880944,-8.5435536,asturnatura.com,Unknown
ES,37.3760348,-5.9994091,parroquiadelosremedios.es,Facility
ES,41.4678633,2.0911878,specialisternespain.com,Facility
ES,42.2902708,-8.7362409,centrodeportivomoana.es,Facility
ES,43.4141023,-3.8431435,standardcableteam.com,Commerce
ES,41.3930495,2.1477573,royalenfieldbarcelona.com,Commerce
ES,41.4744357,2.0870964,tvsantcugat.cat,Commerce
ES,42.6722246,-1.7615034,santamariadeeunate.es,Facility
ES,42.8358205,-2.698259,clinicaeduardoanitua.com,Facility
ES,42.4190543,-0.8028893,laposadadevillalangua.com,Facility
ES,41.3924183,2.1741019,donmoustache.com,Facility
ES,39.4558219,-0.343379,parroquiamartiresvalencianos.org,Facility
ES,42.1839729,1.8534613,hotelsanta-barbara.com,Facility
ES,36.5452454,-5.2356389,elpatiovegano.es,Facility
ES,41.51012,-5.7473591,multicolchon.com,Commerce
ES,41.3971226,2.1795702,riosdevida.com,Facility
ES,36.6199632,-6.3606488,libreriatartessos.com,Commerce
ES,41.3933503,2.1577063,mariapadilla.es,Facility
ES,38.0567845,-2.8355735,campinglapascuala.com,Facility
ES,41.8489785,3.125192,hotelcasavincke.com,Facility
ES,41.2860805,1.2541929,gerardmallorqui.cat,Facility
ES,36.8275985,-2.4423129,centroinfantilarrecife.com,Facility
ES,43.3046771,-2.2033317,kaia-kaipe.com,Facility
ES,43.4668831,-3.7934788,villamiguela.com,Facility
ES,41.3770045,2.1212934,centremedicrierablanca.com,Facility
ES,43.2692344,-4.1049907,esfacilsisabescomo.com,Facility
ES,37.9514974,-0.7385385,alsoldirecto.com,Commerce
ES,40.4723665,-3.8774866,stepsmajadahonda.com,Facility
ES,39.468217,-0.3744904,alenarbodega.com,Facility
ES,41.3829047,2.1790571,artematelier.com,Commerce
ES,28.0834169,-17.3343844,cibermatika.com,Commerce
ES,42.1442794,-4.0947561,lacasonadevillodrigo.com,Facility
ES,28.0495758,-14.3500998,xqelpalacete.com,Facility
ES,36.724304,-4.4311399,cautivotrinidad.com,Facility
ES,42.6992025,0.9332364,hoteltucblancbaqueira.com,Facility
ES,28.7934941,-17.9540338,restaurante-azul-lapalma.com,Facility
ES,43.2619281,-2.9358877,trattoriadonangelo.es,Facility
ES,43.2581798,-2.9439545,optimirooms.com,Facility
ES,42.3372787,-3.723876,ciakicirke.com,Commerce
ES,42.5995922,-6.7256978,hostalsigloxix.com,Facility
ES,42.3914859,-8.7017456,elalmacendelpeluquero.es,Commerce
ES,40.9721234,-5.6350301,laflechadesalamanca.es,Commerce
ES,40.4024192,-3.7236947,colegiosam.com,Facility
ES,43.4902312,-8.2191667,cocinasfeal.es,Commerce
ES,37.7690283,-3.7869332,alejandroteviste.com,Commerce
ES,42.4424335,-3.6790665,embutidosgonzalez.info,Commerce
ES,43.4634616,-3.7992096,kellscollege.com,Facility
ES,37.1840864,-3.7181421,colegiocapitulaciones.com,Facility
ES,41.4105484,2.2178366,usafitness.es,Commerce
ES,40.5048376,-3.8906283,pasionesargentinas.es,Facility
ES,43.3041039,-2.0221165,dasacademia.com,Facility
ES,43.4848802,-8.2313315,santamarinaabogados.es,Commerce
ES,42.8462969,-2.6763387,gestoriabengoa.com,Unknown
ES,43.3250748,-8.4373034,musicamaestro.es,Facility
ES,41.3926529,2.1567065,restauranteigueldo.com,Facility
ES,42.069342,-6.7020624,picodelfraile.com,Facility
ES,41.3051582,-5.0127755,circuitofk1.es,Facility
ES,40.9657061,-5.6620455,hotelamefa.com,Facility
ES,41.3796008,2.1442787,puntfitnessbcn.com,Commerce
ES,42.249978,1.7866137,gisclareny.cat,Facility
ES,39.4635989,-0.3691694,escuelasdeartesanos.es,Facility
ES,42.1236496,3.1364608,rallyehotel.es,Facility
ES,40.3989096,0.4153893,tamarindos.net,Facility
ES,41.3717386,1.9900566,centrehipictorrelles.com,Facility
ES,37.1740506,-3.5992853,granadaonline.es,Facility
ES,39.5621356,-2.4245532,queseracamporus.com,Commerce
ES,41.4061025,2.1515184,pizzerialasvolta.com,Facility
ES,37.3864063,-5.994245,lacanastasevilla.es,Commerce
ES,42.4278026,-2.4627754,aytolardero.org,Facility
ES,41.3653786,2.1094412,escapecontrareloj.com,Facility
ES,42.2448473,-1.7726869,residenciaelpinar.com,Facility
ES,43.2905864,-1.883999,txikierdialde.com,Facility
ES,41.1539624,1.1088921,teatrebartrina.cat,Facility
ES,39.9640483,-4.9170997,lahaciendadelcasar.com,Facility
ES,40.4485581,-3.6677507,clinicasascires.com,Facility
ES,36.4146846,-5.4434987,rancholoslobos.com,Facility
ES,37.3942526,-6.0077919,pabellondelanavegacion.com,Facility
ES,41.547114,0.8251119,teatrefoment.cat,Facility
ES,41.0467572,-0.5837229,balneariodearino.com,Unknown
ES,36.82693,-2.4465621,lajaqueria.org,Unknown
ES,39.480029,-0.3798138,latastaolletes.es,Facility
ES,40.9585268,-5.6621216,versalamanca.com,Facility
