country,lat,lon,website,place_type
SE,59.2193728,15.4720449,equmeniakyrkantorsborg.se,Facility
SE,58.3951873,15.087359,skeningeav.se,Commerce
SE,55.6736781,13.0711267,lommakrogen.se,Facility
SE,57.6861707,12.2097741,olssonsgatukok.se,Facility
SE,56.6300779,15.5424142,emmabodafolketshus.se,Facility
SE,59.8616835,17.6362655,uppsalamissionskyrka.se,Facility
SE,59.3644838,18.0035461,batteridoktorn.se,Commerce
SE,59.3174272,18.0634361,folketshusochparker.se,Facility
SE,59.5445555,18.0672677,vallentuna4h.se,Facility
SE,59.3172879,18.0489056,sodermalmterapicenter.com,Facility
SE,57.6765222,14.091066,leffesbilservice.se,Commerce
SE,59.874003,17.6382165,uppsalamoske.se,Facility
SE,57.1867582,14.0384386,linnbeauty.com,Facility
SE,59.6243258,16.5512221,sahlbergscykel.se,Commerce
SE,58.3940365,15.5594913,mjardeviharcenter.se,Facility
SE,63.0557634,18.3270392,skulebergetsfrestelse.se,Facility
SE,59.47897,18.2916885,chinakejsaren.se,Facility
SE,56.2083691,15.529717,sangjatten.se,Commerce
SE,55.6114721,12.9852537,yallatrappan.se,Facility
SE,56.8558682,14.8297584,maestrovaxjo.se,Facility
SE,58.4102602,15.6205951,bagerinormandie.se,Commerce
SE,59.2568624,18.0813945,minioutlet.se,Commerce
SE,59.3158857,18.0342615,babelbazar.se,Facility
SE,63.6872655,20.300843,gamlasalteriet.se,Facility
SE,60.1608373,18.7447492,singoaffaren.se,Commerce
SE,60.907287,15.002972,vikarbygarden.se,Facility
SE,59.280972,18.014018,flyttfirman4ess.se,Commerce
SE,59.3222683,11.8886708,scandtrack.com,Facility
SE,58.4365916,11.2675881,ramsviksgarden.nu,Facility
SE,56.8347136,13.942319,smalanningen.se,Unknown
SE,55.9752149,14.4087316,landonscamping.se,Facility
SE,59.3231925,18.0034519,pappasdeli.se,Facility
SE,59.8663349,17.6214015,arisathaikok.se,Facility
SE,56.0717664,14.477178,cykelreparatorer.se,Unknown
SE,57.0714664,16.8560271,sandviks-hamnkrog.se,Facility
SE,57.1822008,14.0552144,pizzeriachaplin.se,Facility
SE,62.60024,17.817033,mittsverigebanan.se,Facility
SE,63.9048716,20.5605475,vastkuststugan.se,Commerce
SE,57.7793475,18.7805992,happyhippiestore.se,Commerce
SE,60.2826429,17.451835,gryttjomsmekaniska.com,Commerce
SE,59.3418738,18.0517995,inthemoodfortea.se,Commerce
SE,58.5494052,15.0569737,gongiversum.com,Facility
SE,55.6998962,13.191631,sabaithaimassage.nu,Facility
SE,59.3173419,18.0840997,durochmoll.se,Facility
SE,58.348878,11.942701,einarskonditori.se,Commerce
SE,59.3324802,18.0433153,chainofwheels.com,Commerce
SE,59.3233206,13.4837379,karinsfotvard.se,Facility
SE,58.3963789,15.6517465,jehanafoods.com,Commerce
SE,63.8246122,20.2602586,kvinnohistoriskt.se,Facility
SE,59.8751929,17.624135,retrolyckan.se,Commerce
SE,58.6706063,16.3268042,oscarshall.se,Facility
SE,59.5600226,18.2195753,movewellness.se,Facility
SE,55.6138735,14.2886478,villaosterlen.se,Unknown
SE,60.6132708,16.9708758,hunderbart.se,Facility
SE,56.9987819,16.517488,kaffetorpetscamping.com,Facility
SE,58.7512393,17.0058525,bemyguestnyk.se,Facility
SE,59.3370111,18.0771126,abarcalledgemma.se,Facility
SE,57.6046996,11.9492915,snackskalet.se,Facility
SE,59.3416681,18.0467739,indianguru.se,Facility
SE,57.2641983,13.5993996,srwanderstorp.se,Facility
SE,63.8366145,20.2626323,umevatoriet.se,Facility
SE,61.1947263,14.531572,smidgarden.se,Facility
SE,59.3297383,18.0384271,joenimble-stores.se,Commerce
SE,55.5843775,13.0059038,tasteofthailand.nu,Facility
SE,59.3303895,18.065649,rajalaproshop.se,Commerce
SE,57.6461245,16.5900674,vastrumkonstrum.se,Facility
SE,62.3913948,17.3106579,sundsvallcityhotel.se,Facility
SE,59.0914787,17.5602758,draknyckeln.se,Commerce
SE,57.9951386,13.8457537,kyrkekvarn.com,Facility
SE,59.064034,16.7154792,sovaimejeriet.se,Facility
SE,58.4076442,15.5928977,vallacykelservice.com,Commerce
SE,65.0966643,17.1174414,storumanslarcentrum.se,Facility
SE,65.5757319,22.2047082,luleaskatepark.com,Facility
SE,57.8022459,13.4415033,fixturteknik.se,Commerce
SE,57.6812068,11.9063935,solpanelmontage.se,Commerce
SE,57.6397935,18.3269137,toyotavisby.se,Commerce
SE,60.2797977,15.9867361,cafewahlman.se,Facility
SE,57.7770039,14.0607657,axamostrand.se,Facility
SE,57.6604711,14.962904,formaframtid.se,Facility
SE,59.3361802,18.0523292,tamarind-indisk.se,Facility
SE,60.4865879,15.432048,dalavardochvaccin.se,Facility
SE,59.3337118,18.076408,teatergrillen.se,Facility
SE,60.60689,15.630543,gottochreco.se,Facility
SE,59.3135178,18.079284,popstockholm.se,Commerce
SE,59.2897045,18.288071,kringelgarden.se,Commerce
SE,59.3125105,18.0580116,pizzeriailmolino.se,Facility
SE,59.3237836,18.0688243,thehairypig.com,Facility
SE,59.8491947,17.6480888,selmashytt.se,Facility
SE,56.0736228,14.4678077,centrumadvokaterna.se,Commerce
SE,59.3134296,18.0739399,exitloungebar.se,Facility
SE,59.3327325,18.0449179,cityhostel.se,Facility
SE,55.7090513,13.208549,soul-sisters.se,Facility
SE,57.7023016,11.9860502,danilorestaurang.se,Facility
SE,59.3328401,18.0729255,volkswagen.se,Commerce
SE,59.3386001,18.0610135,crazyhorse.se,Facility
SE,59.8571921,17.6356479,dogbakerystockholm.com,Commerce
SE,59.7382467,18.6995567,roslagskrafterna.se,Commerce
SE,56.6387737,16.2228107,hossmogard.se,Facility
SE,58.4791338,15.2294865,loppisifornasa.se,Commerce
SE,59.3351714,18.082403,wellington.se,Facility
SE,61.9460388,17.0682459,visitsagaliden.se,Facility
SE,59.3384084,18.0814137,galleristenlander.shop,Facility
SE,58.061968,14.4991744,uppgrennanaturhus.se,Facility
SE,63.1683975,14.6901892,jamtlandskok.se,Commerce
SE,62.3933721,17.259972,powersport.se,Commerce
SE,60.7276053,17.1261063,snorremaskin.se,Commerce
SE,59.297584,18.0659662,skagershuset.se,Commerce
SE,56.8752994,12.5275066,hallandskustvandrarhem.se,Facility
SE,56.2114094,15.2759174,grillhornan.se,Facility
SE,59.414226,18.0392905,changdobels.se,Unknown
SE,61.1339943,13.3011609,gudmundssons.se,Commerce
SE,57.9040128,13.8726694,hotellmullsjo.se,Facility
SE,57.9282981,12.5311032,vazzhairdesign.com,Facility
SE,59.2389154,18.0825664,farstagard.se,Facility
SE,58.4113441,15.5602016,linslusenlkpg.se,Commerce
SE,63.7173467,20.377947,holmsundskoter.com,Unknown
SE,55.930656,13.5457537,biovisionfilm.se,Facility
SE,64.5992244,18.6670771,lyckselemuaythai.com,Facility
SE,59.5619414,17.9639257,gokartstadion.se,Unknown
SE,57.703985,11.9682213,avalonhotel.se,Facility
SE,55.5920811,13.0146468,barnensscen.se,Facility
SE,57.0397288,12.3251005,rodlixvandrarhem.se,Facility
SE,56.2256311,12.8617162,efs-kyrkan.info,Facility
SE,59.3334527,18.0750965,nathalieschuterman.com,Commerce
SE,57.7390795,12.0792129,borstanders.se,Commerce
SE,57.1785972,17.0384704,sonjascamping.se,Facility
SE,59.3229255,13.4656301,skoghallspizzeria.se,Facility
SE,60.3527248,18.447579,grasobadenscamping.se,Facility
SE,59.3742584,18.5569139,horisontkajak.se,Unknown
SE,56.615143,15.417791,mundekulla.se,Commerce
SE,60.6882933,13.6813608,varghedenbedandbreakfast.com,Facility
SE,57.1827018,14.0533749,hotellapladalen.com,Facility
SE,65.0959164,17.1115473,hotelluspen.se,Facility
SE,59.338587,18.0528239,meditationistockholm.se,Facility
SE,59.3439458,18.038899,nostalgipalatset.com,Commerce
SE,59.3267745,14.5232245,royaljaipur.se,Facility
SE,55.9873476,12.7584072,sundsgardenkonferens.se,Facility
SE,58.4117137,15.6208333,bossesglass.se,Commerce
SE,59.3630657,18.0225311,curryflames.se,Facility
SE,58.7508397,16.3730809,sjodetektiven.se,Facility
SE,67.4291209,22.4825525,truckwash395.se,Commerce
SE,56.1447391,12.5755088,ceciliasfromagerie.se,Commerce
SE,59.3172984,18.0603485,smallislandchocolates.com,Commerce
SE,59.5606629,17.5407101,mozzarellabalsta.se,Facility
SE,59.3086128,18.0973318,brygganskok.se,Facility
SE,59.3326165,18.0457153,skidbytarboden.se,Commerce
SE,59.3393863,18.0560745,helakroppen.se,Facility
SE,58.3969751,15.6137315,livgrenadjarmassen.se,Facility
SE,61.7632058,17.2034719,aventyrsgolf.com,Facility
SE,56.1982818,15.2890735,mandeltartan.se,Facility
SE,55.870456,12.8340452,stylebyrodde.se,Facility
SE,59.4203695,17.9692527,edsvikensgelateria.se,Facility
SE,59.3255204,18.0960836,liljevalchs.se,Facility
SE,59.8688155,17.6423703,kommunistiskapartietuppsala.se,Commerce
SE,57.4135055,15.0641799,lgconverting.se,Commerce
SE,57.8086496,12.3601262,jernbruket.se,Facility
SE,60.3895538,15.6740435,tjustsport.se,Commerce
SE,55.5732506,12.9982189,peralbinhuset.se,Facility
SE,56.042203,12.7001072,it-gymnasiet.se,Facility
SE,60.6087421,15.6265716,restaurangchinathai.com,Facility
SE,59.8608922,17.629579,loppispoppis.se,Commerce
SE,59.1379848,16.7224187,hotellmalmkoping.se,Facility
SE,59.3178418,18.0429706,sjolinsgymnasium.se,Facility
SE,57.9293029,12.5319497,skincarealingsas.se,Facility
SE,58.6095345,16.2568003,hamnkrogenlindo.com,Facility
SE,57.5131796,12.1169816,kungsbackaridklubb.se,Facility
SE,59.4082236,18.3211063,bbk-vaxholm.se,Facility
SE,55.9346017,12.868467,slapkompaniet.se,Commerce
SE,59.3056373,18.0357251,pbliljeholmen.se,Facility
SE,59.329865,17.9839383,exertisztorm.com,Commerce
SE,62.4802056,16.2962423,midadventure.se,Facility
SE,59.3303537,18.0647221,diwinestockholm.se,Facility
SE,61.7224483,17.1235364,strandpiren.se,Facility
SE,62.2687129,17.3680204,njurundafriskola.se,Facility
SE,56.8167646,13.9074673,portreality.com,Facility
SE,56.9347035,18.2881299,holmhallar.se,Facility
SE,59.2276882,15.0494794,orebrosegelflyg.se,Unknown
SE,59.3333107,17.9244454,brommathai.se,Facility
SE,59.3170101,18.0720468,massingmaster.se,Unknown
SE,55.6319216,13.702691,teleservice.net,Commerce
SE,60.2687214,14.9806195,grangardemusteri.se,Commerce
SE,59.3404288,18.0381839,teatergiljotin.se,Facility
SE,59.2682487,18.0083051,alvsjojujutsu.se,Facility
SE,63.8480519,20.3115238,marknadsplatsumea.se,Commerce
SE,63.5855949,15.3597873,hammerdalsif.se,Facility
SE,59.283528,17.6630698,kaggeholmsslott.se,Commerce
SE,57.1875326,14.0379947,akropolisvärnamo.se,Facility
SE,59.3294953,18.0493779,olspecialisten.com,Commerce
SE,60.9980958,14.5260227,morkarlbyhojdensskola.se,Facility
SE,63.2413741,18.3685666,vastanaskola.se,Facility
SE,60.6078179,15.634337,centrumkyrkanfalun.se,Facility
SE,59.3310812,18.0470583,duplotryck.se,Commerce
SE,57.6416256,18.29421,coffeeandart.se,Facility
SE,55.5643559,13.0339201,batteriexperten.com,Commerce
SE,59.2636805,18.0131966,hagsatravet.se,Commerce
SE,59.3797103,17.7981134,riddersviksherrgard.se,Facility
SE,55.7701496,12.9274094,badhotelletbarsebackstrand.se,Facility
SE,59.8617713,17.6377004,housingoffice.se,Facility
SE,56.3038635,15.4151015,pmaskinservice.se,Commerce
SE,59.3441775,18.0442712,restauranglinguini.se,Facility
SE,59.342444,18.0409103,norrmalmsmobler.se,Commerce
SE,59.365715,18.2261961,skogshem-wijk.com,Facility
SE,59.317915,18.0328299,darmedpasta.se,Facility
SE,57.9191137,19.1388999,bergmancenter.se,Facility
SE,57.1651137,17.0042075,centrumbiolottorp.se,Facility
SE,56.2600267,12.6142221,fl-lundgren.se,Facility
SE,59.3232417,18.0706233,gamlastanspolkagriskokeri.se,Commerce
SE,63.0222802,18.657736,ulvohotell.se,Facility
SE,55.5840279,12.9373644,helsingburger.se,Facility
SE,59.6084273,16.5404175,restaurangindigo.com,Facility
SE,56.0489208,12.6900408,restaurangedelweiss.se,Facility
SE,59.361831,17.8729034,backmansoptik.se,Commerce
SE,55.6316706,13.0509331,malmoskyttegille.se,Facility
SE,56.676675,12.864853,lapizzahalmstad.se,Facility
SE,63.8195706,20.3150033,skogisstudentkar.se,Facility
SE,59.404901,17.9498022,provencekista.se,Facility
SE,59.4340957,17.7785977,bruketsommar.se,Facility
SE,59.3811741,18.0051741,dentontandvard.se,Facility
SE,59.2360294,17.9827346,restaurangmelins.se,Facility
SE,55.6858772,13.2486224,friluftsgarden.se,Commerce
SE,55.8729665,12.8403341,landskronapingst.se,Facility
SE,59.317697,17.9450284,alstensmacken.com,Commerce
SE,56.2484064,12.87321,robertosangelholm.se,Facility
SE,59.3709106,18.002902,ilbicchiere.se,Facility
SE,59.3553162,18.1003174,hjortenbambina.se,Facility
SE,57.1071274,12.2403128,fastningensvandrarhem.se,Facility
SE,56.0310548,14.1550623,stadshotelletkristianstad.se,Facility
SE,59.5356277,18.07892,vallentopastapizza.se,Facility
SE,59.3794796,13.4995529,carlstadcity.se,Facility
SE,55.6062872,12.9960183,vastergatan.se,Facility
SE,57.7137003,12.0043292,paddingtons.com,Facility
SE,57.7943107,12.3200521,hilleforsgrynkvarn.se,Facility
SE,56.7949024,16.6216177,kackelstugan.com,Facility
SE,59.3018326,18.015297,dedeskebab.se,Facility
SE,56.0536008,12.7298485,rosengardskyrkan.se,Facility
SE,63.8261852,20.2640149,harlequinumea.com,Facility
SE,59.3675638,18.0108775,grevenobetjanten.com,Facility
SE,59.3785762,13.5039434,otorggatansthaimassage.se,Facility
SE,56.1771203,15.0799341,jarnavikscamping.se,Facility
SE,59.3891198,13.4702508,karlstadairdome.com,Facility
SE,56.8265906,13.9323747,ljungby-buss-taxi.se,Commerce
SE,59.3298682,18.0049736,kaferussin.se,Facility
SE,60.4668525,15.4663239,haraldsbatar.se,Commerce
SE,59.334361,18.0633502,didriksons.com,Commerce
SE,59.3414735,18.0393721,teaterlederman.com,Facility
SE,57.6995145,11.9066222,crystalmemories.se,Commerce
SE,55.610621,12.9988748,travelshop.se,Facility
SE,56.0084323,12.7674537,isolerservice.se,Commerce
SE,59.2784057,18.0060963,parabellum-studio.se,Facility
SE,58.0334048,12.1363918,thorskogsslott.se,Facility
SE,66.6022776,19.8306329,hoteljokkmokk.se,Facility
SE,59.5207503,17.9051372,white-horse.se,Facility
SE,59.8567157,17.646566,resecentrumvaccinationer.se,Unknown
SE,63.8284005,20.2909979,savargarden.se,Facility
SE,58.0534442,14.3436678,visingsoais.se,Facility
SE,59.3533906,18.4071054,antistilla.se,Facility
SE,56.8253119,14.047295,lindenvillan.com,Commerce
SE,57.7403672,13.4190229,marbacktricot.se,Unknown
SE,63.3249191,12.0672411,lillahelvetet.se,Facility
SE,61.8918396,12.8314508,vildmarksnastet.se,Facility
SE,55.5985185,12.9822407,restaurangnils.se,Facility
SE,59.3459598,18.0360844,bliquebynobis.se,Facility
SE,56.4692691,16.5755435,havtornsgarden.se,Commerce
SE,59.7885522,13.4326486,prastmyren.se,Facility
SE,56.1955061,15.8495677,jonsonsbikes.com,Commerce
SE,59.4036128,18.3103802,vaxholmkanot.se,Facility
SE,56.8813989,16.7232318,klintabykrog.nu,Facility
SE,57.7050172,11.9662489,restaurangcollage.se,Facility
SE,55.6055189,12.9980854,quanbyquan.se,Facility
SE,59.5202165,17.9096452,bagerikardemumma.se,Commerce
SE,62.0318599,14.3647577,svegscamping.se,Facility
SE,59.3294686,18.0432188,restaurangalmaza.se,Facility
SE,65.8096711,21.7592215,norrasvartbyn.se,Unknown
SE,60.6050256,15.6423948,younesmaleri.se,Unknown
SE,59.3317457,18.0648849,trestacojoint.se,Facility
SE,55.7948229,13.1132569,salongstra.se,Facility
SE,59.3584639,18.0023522,solnaoptik.se,Commerce
SE,56.4053191,12.7838602,bjaregolfklubb.se,Facility
SE,65.5638345,21.9123374,dackgiganten.nu,Commerce
SE,59.3166409,18.0623869,hellstensglashus.se,Facility
SE,57.3108223,16.9938957,byxelkroksgk.se,Facility
SE,63.284577,12.3317614,enaforsholm.se,Facility
SE,60.7953944,14.9566991,hjortnasbatklubb.se,Facility
SE,59.31784,18.0645749,ramblasmariatorget.se,Facility
SE,60.4008406,15.7310231,nybogarden.se,Commerce
SE,59.3345807,18.0209432,abcortopedi.se,Facility
SE,63.439655,18.2588911,barnensdagovik.se,Facility
SE,59.8603996,17.6345507,pubenuppsala.se,Facility
SE,57.6802747,11.9698909,guldhedstornet.se,Facility
SE,58.0143587,14.6674727,krydderikrokus.com,Facility
SE,57.1054851,12.2391783,fastningsterrassen.se,Facility
SE,57.7179295,12.1421212,partillevandrarhem.com,Facility
SE,60.486792,15.4329263,onskehuset.se,Commerce
SE,59.8689768,17.5897601,husbyborgskolonin.se,Unknown
SE,58.4505458,14.8948417,hotelldahlstromskagarden.se,Facility
SE,55.59631,12.9931425,systrarbroder.se,Facility
SE,58.4102644,15.6190449,backenlinkoping.com,Facility
SE,57.6169598,15.5754721,sofiasrestaurang.se,Facility
SE,55.7094278,13.2070283,sydskanska.se,Facility
SE,58.3514111,11.9347459,1803bycarlia.se,Facility
SE,60.0037397,18.8309854,vaddobygden.se,Unknown
SE,59.6106101,16.5459596,restaurangvarda.se,Facility
SE,57.3073201,18.1520553,djupvikhotel.com,Facility
SE,59.4181152,18.0848644,blomsterfonden.se,Facility
SE,56.5444139,14.8063651,urshult-camping.se,Facility
SE,59.2902598,18.1175452,bjorkhagenshlm.se,Facility
SE,59.3129498,18.4301147,varmdofloristen.se,Commerce
SE,59.8564206,17.6405822,grandhotellhornan.com,Facility
SE,59.343174,18.0783428,spiceofindia.se,Facility
SE,57.746421,12.3042915,bavsjorydsag.se,Facility
SE,60.1405287,13.0311583,torsbygolfklubb.se,Facility
SE,55.5465777,13.0805512,primeliving.se,Facility
SE,59.3192086,18.0642072,theteacentre.se,Commerce
SE,56.8411723,13.9497266,campinoljungby.se,Facility
SE,60.8989357,16.7217241,villaantik.se,Commerce
SE,60.544805,15.5470922,bjorsbogard.se,Commerce
SE,58.3969439,15.651353,korkortsintensiven.com,Facility
SE,59.3327739,17.9762828,fasadkultur.se,Commerce
SE,56.2468711,12.8684696,citytrafik.nu,Facility
SE,55.7030411,13.1901763,italia-ilristorante.com,Facility
SE,59.8564212,17.6640139,uppsalatrafikskola.se,Facility
SE,63.8234564,20.2723668,druidgardenumea.se,Unknown
SE,62.0475967,14.4219554,herjedalen.se,Facility
SE,57.6389384,18.2916642,italienaren.se,Facility
SE,56.1076854,15.5565351,lotstornet.se,Facility
SE,59.328619,18.0466661,volcacoffee.se,Facility
SE,58.8931933,11.0482315,kostersrokeri.se,Facility
SE,57.6690398,14.968671,eksjovandrarhem.se,Facility
SE,59.2547591,15.1732712,orebropadelcenter.se,Facility
SE,56.2063262,12.5554729,hoganasbryggeri.se,Commerce
SE,59.8591502,17.7018336,hifiexperience.se,Commerce
SE,62.040244,17.0885963,gransforsbruk.com,Commerce
SE,59.3834365,13.509807,karlstadccc.se,Facility
SE,59.4465371,17.9545063,edsbergstrafikskola.se,Facility
SE,59.617961,17.698615,sigtunabudo.se,Facility
SE,65.5815313,22.1597846,tandborsten.se,Facility
SE,59.3127285,18.0773011,coloursofafrica.se,Commerce
SE,57.6853353,11.9259695,godhemspizzabutik.se,Facility
SE,59.9210892,17.2291453,nordanlundsjsk.se,Facility
SE,59.65081,17.3666064,ekolsundsslott.se,Facility
SE,60.606452,15.631918,munktellska.se,Facility
SE,62.3898435,17.3131098,pipelinesundsvall.se,Facility
SE,55.7052065,13.1922445,thealleycat.se,Facility
SE,55.8695223,12.832314,charliescloset.se,Commerce
SE,59.3012544,18.0832754,sjostadenskybar.se,Facility
SE,59.8597729,17.6466184,ponguppsala.se,Facility
SE,59.5038175,17.890087,mivamontage.se,Commerce
SE,55.5947893,13.007289,openstudio.se,Unknown
SE,59.3141263,18.0669758,specialist.se,Facility
SE,59.3331509,18.0573522,masterssalladsbar.se,Facility
SE,63.5689496,19.4984951,vasterbottningen.se,Unknown
SE,59.2015297,18.02165,sundby-gard.se,Facility
SE,57.7342515,12.9393936,cafeviskan.se,Facility
SE,60.40257,15.8152118,hanson-industries.se,Commerce
SE,59.3686067,18.0447927,bergianska.se,Facility
SE,60.1830901,16.1297404,gronvallen.com,Commerce
SE,59.4767104,18.2900085,hundkappstockholm.se,Facility
SE,60.3339899,14.9256234,grangardefiske.com,Facility
SE,59.3280326,14.0857398,pingstkristinehamn.se,Commerce
SE,55.5163494,13.24305,halsofabrikensvedala.se,Facility
SE,59.2667358,18.4857419,markochvag.se,Commerce
SE,59.8368175,13.1436929,anhthaifood.se,Facility
SE,65.0947553,17.1156896,hotelltoppen.se,Facility
SE,59.3141573,18.0781352,ceciliacarlstedt.com,Facility
SE,57.6975869,11.9648753,gbgoddfellow.se,Facility
SE,58.3958125,13.8458962,izmirskovde.se,Facility
SE,59.5172764,15.0430798,norataghem.se,Facility
SE,55.5948429,13.0092558,signalsignal.org,Facility
SE,59.2912806,18.0846405,tolvstockholm.se,Facility
SE,59.3012177,17.9362271,konditorilyran.se,Facility
SE,63.2896157,18.7307358,nyaparkenovik.se,Facility
SE,59.3441096,18.0521629,pilatesvia.com,Facility
SE,57.3201004,16.9992313,tokenascamping.se,Facility
SE,59.2776385,18.1323455,emelispizzeria.se,Facility
SE,59.2567778,18.0817174,asakohlerart.se,Commerce
SE,57.7671558,14.1825468,kingsandqueens.nu,Commerce
SE,59.261661,15.3273989,fyrenekalmen.se,Facility
SE,60.5912634,16.7674796,hotellhedasen.se,Facility
SE,59.2866831,18.0742693,bettypetterssonsgymnasium.stockholm,Facility
SE,55.5981435,12.9719684,bokvaerlden.se,Commerce
SE,57.6689626,14.9695975,oaklakebarbershop.se,Facility
SE,59.4449495,18.1191047,cykelkraft.se,Commerce
SE,57.7206333,12.0254562,eastkitchen.se,Facility
SE,60.669564,17.1116867,gefleteknologerna.se,Facility
SE,59.8840903,17.6595946,arenahotellet.se,Facility
SE,55.5880311,13.6710714,sovdemusteri.se,Commerce
SE,59.3388896,18.0246498,mbktrekronor.se,Facility
SE,59.3170963,18.0494171,thongwiset.se,Facility
SE,55.3867501,14.0645833,kasebergahotell.se,Facility
SE,59.7460503,18.680001,djurfavoriten.se,Commerce
SE,65.5833949,22.1429855,restaurangcg.se,Facility
SE,55.7173432,13.3446832,krogarenbagaren.com,Facility
SE,56.0327641,14.154505,currynamnam.eu,Facility
SE,59.3166697,18.0735825,byggfabriken.se,Commerce
SE,57.7035849,12.4518862,gyllenehinden.se,Commerce
SE,59.5410652,18.5929227,ljusterokajaksport.se,Commerce
SE,60.6256093,13.760065,lugnethotel.com,Facility
SE,58.1236658,15.4294263,ulrikainfo.se,Facility
SE,59.325869,18.0733951,kammarkollegiet.se,Facility
SE,59.3540146,17.9999745,drivkraftsolna.se,Facility
SE,59.5666086,18.1108406,vallentunaridskola.se,Facility
SE,60.6111243,15.6099229,ecodatacenter.se,Commerce
SE,59.3047071,18.1236649,velo-oxygen.se,Commerce
SE,59.855749,17.6538514,verkstanrsmh.se,Facility
SE,59.3333703,18.0304115,drakensantiques.se,Commerce
SE,59.2884763,18.0182934,vastbergablommor.se,Commerce
SE,56.0522112,12.686655,drottninggatan35.se,Facility
SE,57.6893622,11.9180937,leksaksbiblioteket.se,Facility
SE,61.7976126,16.5549552,dellenbanan.se,Facility
SE,59.340068,18.0341139,lillebrors.se,Facility
SE,58.4137044,14.1326172,maltemanson.com,Commerce
SE,56.0196617,12.7518345,carpenaturam.se,Facility
SE,59.3121931,18.0813065,lilysburger.com,Facility
SE,56.6731779,12.8580348,shisonsushi.se,Facility
SE,59.5264485,15.2795423,wedevagsherrgard.se,Facility
SE,59.3167222,18.0655893,hittabalansen.se,Facility
SE,59.3532151,17.9942401,hundenshorna.com,Unknown
SE,55.925055,14.3048327,aspetsrokeri.com,Facility
SE,56.0589887,12.7060228,tropikariet.com,Facility
SE,57.5041267,14.7057899,cabspecialisten.se,Unknown
SE,59.4982692,17.9225161,ballingslov-infracity.se,Commerce
SE,57.7412327,13.4308419,termoventiler.eu,Commerce
SE,65.5814274,22.1368301,tillvaxtverket.se,Facility
SE,58.5508747,11.089007,xn--hamner-1xa.se,Unknown
SE,63.8051564,20.2773513,beerstudio.se,Commerce
SE,57.6468233,11.8559605,kappseglaren.se,Facility
SE,58.2091484,14.0433559,campfjallet.com,Facility
SE,56.8284045,16.6764522,mellangarden.nu,Facility
SE,55.5948243,13.0034155,creperiebretagne.se,Facility
SE,65.7103032,15.2662446,trolltrumman.com,Commerce
SE,57.5190517,11.9694507,saromontessori.com,Facility
SE,63.8265611,20.258274,costasofsweden.com,Facility
SE,59.5814388,18.3035941,golfstarbrollsta.se,Facility
SE,56.0348806,12.7073084,ralphnoack.se,Commerce
SE,59.3168762,18.0742005,ramstenkliniken.se,Facility
SE,57.8277414,13.1976715,adalenscafe.se,Facility
SE,57.6749615,12.0064177,touisthaigoteborg.se,Facility
SE,56.3096676,15.2769526,paddelkompaniet.se,Unknown
SE,58.8716278,11.5382857,bullarebygdenscamping.se,Facility
SE,58.408062,15.5984375,studentspex.se,Facility
SE,55.5987031,12.9978104,ngonrestaurang.se,Facility
SE,63.8392233,20.2355911,byggbeslag.se,Commerce
SE,57.3251014,15.5734954,sprangmattor.se,Unknown
SE,59.3389208,18.0571323,rufsochkalufs.se,Facility
SE,56.8997566,14.5537076,alvestasparen.se,Facility
SE,59.8530164,17.6347822,vasaborgen.se,Facility
SE,59.3186465,18.0596641,gazzasthlm.se,Facility
SE,59.3297799,18.0451893,wilmercafe.se,Facility
SE,59.3355036,18.0537588,strindbergsintimateater.se,Facility
SE,56.0744744,13.2156569,ljungbyhedsgk.se,Facility
SE,59.8558694,17.6769563,lellesmcdelar.se,Commerce
SE,56.1583893,12.578646,sansochbalans.se,Facility
SE,55.586679,12.926746,limhamnsglassmejeri.se,Facility
SE,58.3872692,13.4382897,jackdawrecords.com,Commerce
SE,55.6063356,13.0198669,mansastudios.se,Commerce
SE,61.1563177,15.8821437,timber-lodge.se,Facility
SE,57.6841718,11.9180149,klasparknas.se,Facility
SE,59.337429,18.0024639,stockholmtennis.se,Facility
SE,65.5842403,22.1574338,modellhobby.se,Commerce
SE,56.6172793,16.4475669,eriksorecamping.se,Facility
SE,59.3231461,18.0089078,luxparkenmarina.se,Facility
SE,55.5678007,12.9000198,olafureliasson.net,Commerce
SE,63.1559223,14.3637204,spela-golf.nu,Facility
SE,59.3119336,18.0239912,cafe-rosteriet.se,Facility
SE,56.0479225,12.7015023,medhist-hbg.se,Facility
SE,59.1925181,17.8234753,tumbatraningscenter.se,Facility
SE,59.3420833,18.0484515,primociaociao.se,Facility
SE,56.651603,14.0340197,stenshultmellangard.se,Facility
SE,59.3392726,18.0066481,fiskskaldjur.se,Commerce
SE,59.3148425,18.0794829,voodooroom.se,Facility
SE,57.8914321,16.7061465,tattohavsbad.se,Facility
SE,59.2619546,15.1810683,restaurangfalcken.se,Facility
SE,59.368358,18.0126878,gardssallskapet.se,Commerce
SE,59.9283264,16.5843267,cameleonterna.se,Facility
SE,57.7027705,11.9613355,cityskraddarna.com,Commerce
SE,59.3287466,18.04575,taylorsandjones.com,Commerce
SE,59.8586167,17.6341996,faraosfalafel.se,Facility
SE,60.0994601,18.810317,restaurangvischan.se,Facility
SE,57.80583,13.4195416,toyotaulricehamn.se,Commerce
SE,57.6387131,18.2914533,donnershotell.se,Facility
SE,59.7565907,18.7056688,edsburgers.se,Facility
SE,61.7381293,15.1728841,lottaboden.se,Commerce
SE,57.7344741,11.6713164,bjorkomusicsociety.com,Commerce
SE,59.8621834,17.6459101,teateraros.se,Facility
SE,64.6179329,21.1994544,buremathorna.se,Facility
SE,59.2167473,14.8982191,hsbygghandel.se,Commerce
SE,59.8550352,17.6511594,lindvallskaffe.se,Commerce
SE,59.3281397,18.0999975,ullawinbladh.se,Facility
SE,60.611507,15.6335165,sanktakatarina.se,Facility
SE,59.3329691,18.0567658,grosshandlarn.se,Commerce
SE,56.0465678,12.6948287,stenstromsstore.se,Commerce
SE,56.2001838,12.5714985,adamskokbar.se,Facility
SE,55.7511398,13.3773448,flyingebil.com,Commerce
SE,56.0459236,12.6980857,avantlaforet.se,Facility
SE,56.6749343,12.8678204,halmstadstudentkar.se,Facility
SE,57.056029,16.0004452,allgunnensfvo.se,Facility
SE,59.3131057,18.0636903,stekpannan.com,Facility
SE,57.7951619,13.4151376,ulricehamnssparbank.se,Facility
SE,57.5708978,12.4386731,garngladje.se,Commerce
SE,59.3305733,18.0934616,royaldjurgarden.se,Facility
SE,58.4348628,15.5931346,stadiumoutlet.se,Commerce
SE,59.337531,18.074253,lundochlund.se,Commerce
SE,59.337422,18.0093841,ponglindhagen.se,Facility
SE,59.9275957,16.5935775,vasbykungsgard.se,Facility
SE,59.318084,18.0497199,sthlmdental.se,Facility
SE,59.3160755,18.0659461,karateskolan.se,Facility
SE,55.5911795,13.0171694,pizzastuganmalmö.se,Facility
SE,57.7343314,11.6715917,bjorko-pizzeria.se,Facility
SE,59.34912,18.0391172,hagaflowerbar.se,Commerce
SE,55.710355,13.1835857,salladsfabriken.nu,Facility
SE,58.5386331,15.0334381,motalabaptist.se,Facility
SE,64.9096367,20.6100434,perssonmaskin.se,Commerce
SE,57.7011901,11.915169,dialoghotels.se,Facility
SE,59.2625409,18.0145248,hagsatrasport.se,Commerce
SE,59.3319183,18.0684193,runnersstore.se,Commerce
SE,59.3361235,18.0560735,dansenshus.se,Facility
SE,59.2864383,12.7798157,varmlandsvikingacenter.se,Facility
SE,56.0477936,12.6880786,dunkermatsalar.com,Facility
SE,59.3173349,18.0618216,happyindia.se,Facility
SE,59.3331353,18.0417912,vattumannen.se,Commerce
SE,55.3633274,13.2091935,trelleborgstrand.se,Facility
SE,60.6048098,15.6299852,hagstromska.se,Facility
SE,59.4306778,17.9437123,crossfitnorrort.se,Facility
SE,57.6940749,11.9471303,temaelektronik.se,Commerce
SE,57.8741286,11.9685099,umisushibar.se,Facility
SE,59.3679918,18.0159868,artofmakeupschool.com,Facility
SE,59.331242,18.027277,gnarlyburger.se,Facility
SE,59.3176882,18.0713913,sambasushi.net,Facility
SE,57.7681673,14.2094816,a6paintball.se,Facility
SE,60.88305,15.119938,rattviksglass.se,Facility
SE,59.3173937,18.2131782,segerholmsbygg.se,Unknown
SE,59.3307531,18.0679585,sthlmunderstjarnorna.com,Facility
SE,57.7110324,12.006883,lejonetochbjornen.se,Facility
SE,59.4144886,13.4550131,bryngfjorden.com,Facility
SE,63.5751477,17.6038152,kyrkokartan.se,Facility
SE,60.4852734,15.4211735,stugknuten.se,Facility
SE,59.3181887,18.0496612,andersson-munkert.se,Commerce
SE,60.770829,14.8681107,siljanspizzeria.se,Facility
SE,59.6108226,16.5414746,sturebrand.nu,Facility
SE,55.7908631,13.1100527,matmakarna.se,Facility
SE,59.5547743,16.757726,karrboprastgard.se,Unknown
SE,56.8779411,14.8057662,cykelochfritidscenter.se,Commerce
SE,58.2742573,15.0981981,bleckenstad.se,Commerce
SE,63.8280484,20.265597,millysshop.se,Facility
SE,59.7825727,17.6263192,skarholmenuppsala.se,Facility
SE,57.4948132,15.0190042,equmeniakyrkanekenassjon.se,Facility
SE,58.4090897,15.5628074,pizzeriailpiatto.se,Facility
SE,59.3351799,18.0348514,restaurangag.se,Facility
SE,58.4120273,15.5595737,admittansen.se,Commerce
SE,65.6159268,22.141355,luleadiscgolf.se,Commerce
SE,60.3451324,15.759184,folkansater.se,Facility
SE,59.8961432,15.574193,baggaskola.com,Facility
SE,62.0823559,13.2324987,vaffelstugan.se,Facility
SE,56.2009928,12.5519045,skanebiografer.se,Facility
SE,63.5679417,19.4954033,victorygym.se,Facility
SE,59.3171935,18.0502069,hornsgatankvarterskrog.com,Facility
SE,57.477977,15.0342699,brodernaanderssons.se,Commerce
SE,59.8176948,16.7807502,rosenberggard.se,Facility
SE,65.5940058,19.1737859,arvidsjaur.se,Facility
SE,61.9601513,17.3238617,trolskaskogen.se,Facility
SE,57.1582193,17.004703,ladbilslandet.se,Facility
SE,58.4102468,15.6232876,artndesign.se,Commerce
SE,57.6375347,18.2950215,tuppenskrog.se,Facility
SE,59.3361311,18.0217179,internationalschoolofkungsholmen.com,Facility
SE,55.7071286,13.1873235,crafoordauktioner.se,Commerce
SE,61.53933,16.37165,orbadencamping.se,Facility
SE,59.063537,16.449951,valdemarson.se,Unknown
SE,59.3417823,18.0457862,tennstopet.se,Facility
SE,59.5200844,17.8946393,runbyingrid.se,Facility
SE,63.2877291,18.7129954,hanshedbergmuseum.se,Facility
SE,59.5581617,17.5393787,enkopingshalsan.se,Facility
SE,59.2778011,15.2031144,konditorivasterport.com,Facility
SE,63.6232816,19.9079818,horneforsrestaurang.se,Facility
SE,59.3328594,18.0576012,mapetitemaison.se,Facility
SE,57.92913,11.6026166,tralverket.se,Facility
SE,58.5851659,16.1990919,sodrahotellet.se,Facility
SE,59.5170091,17.928291,johanssonsror.se,Unknown
SE,59.4179127,17.8301521,sushibykyoto.se,Facility
SE,57.9001366,12.0559499,nodingedack.se,Commerce
SE,57.7171444,12.0265719,veteranpoolen.se,Commerce
SE,59.5134522,18.3108867,lappdalsislandshastar.se,Unknown
SE,59.3256428,18.0257253,stockholmssegelsallskap.se,Facility
SE,58.7263167,11.3267735,pizzacleopatra.se,Facility
SE,61.7174768,16.1744068,jarvsomotor.se,Commerce
SE,56.1502983,13.7757157,goingeplat.se,Commerce
SE,55.6395641,13.0841895,burlovcenter.se,Commerce
SE,55.5628785,12.9509759,elinelundssommarstad.se,Commerce
SE,55.6048973,12.9982411,craftindiasverige.se,Commerce
SE,58.3697902,15.3429866,sjogestadmotell.se,Facility
SE,56.056353,12.701454,pub-norrbro.se,Facility
SE,55.5809344,12.9403636,limhamnshundvard.com,Commerce
SE,56.1890317,15.2558441,djurvilan-ronneby.se,Unknown
SE,59.3175081,18.0602425,paradisostockholm.se,Facility
SE,64.1910165,20.8521358,friskvardscenter.se,Facility
SE,59.1936369,17.8386345,picassopizzagrill.se,Facility
SE,58.2018025,16.6021834,myriamsveranda.se,Facility
SE,59.3168282,18.0718226,fountainhouse.se,Facility
SE,59.3150092,18.0338255,salongsoderport.se,Facility
SE,58.0587913,14.9724796,cafepelargonen.se,Facility
SE,57.8307331,18.7878845,gotlandsvafflan.se,Facility
SE,59.193492,17.6282152,stektburger.se,Facility
SE,55.5952354,13.0237971,cirkulationscentralen.com,Facility
SE,59.8580925,17.6425797,chocomania.se,Facility
SE,59.3349308,18.0708529,bradkultur.se,Commerce
SE,63.4245755,18.3057064,mellanselskonferens.se,Facility
SE,59.3855831,18.0418775,floristatelje.com,Commerce
SE,58.1109716,11.670754,svanviksbatklubb.se,Facility
SE,59.3576578,18.2765641,ruinretreat.se,Facility
SE,55.4527795,14.2576772,jordochbord.com,Facility
SE,59.3189166,18.0598519,restaurangnostrano.com,Facility
SE,62.8282069,18.1789375,horsangscamping.se,Facility
SE,57.6625351,14.1848108,lovsjocamping.se,Facility
SE,58.9479342,17.5017786,tallmaskin.se,Commerce
SE,59.3760391,13.4886051,teamvidars.se,Commerce
SE,59.5208099,17.9047393,italian-slice.se,Facility
SE,59.8644226,17.6030086,upplandskylovarme.se,Commerce
SE,58.2435511,11.461127,lyckansslip.se,Facility
SE,59.3174623,18.0634068,konstframjandet.se,Facility
SE,55.5938571,12.9710917,kiropraktikrehab.se,Facility
SE,55.9542176,12.8320313,tomatenshus.com,Commerce
SE,57.865657,11.9937055,kungalvssjukgymnastik.se,Facility
SE,58.3489577,11.9597086,bohuslans-forsvarsmuseum.se,Facility
SE,55.7940794,13.1097391,lldancestudio.se,Facility
SE,59.3378905,18.0476336,alvabarnklinik.se,Facility
SE,58.56308,15.2807453,salemborensberg.org,Facility
SE,57.9094964,11.8009784,xn--skragrdsbageri-mibd.se,Facility
SE,62.3905037,17.2699177,uniquepizzeria.se,Facility
SE,59.2725021,18.1105304,karlokristinas.com,Facility
SE,59.6162228,17.7208116,salongensigtuna.se,Facility
SE,55.7566245,13.0169653,loddekanot.nu,Unknown
SE,59.3412211,18.042121,turning-point.se,Unknown
SE,59.3335669,18.0763636,skajsantikhandel.com,Commerce
SE,55.5854479,13.0263258,hypnostheatre.com,Facility
SE,59.3334674,18.0560276,oscarsteatern.se,Facility
SE,59.3318541,18.0731297,sanktaeugenia.se,Facility
SE,59.3359019,18.0552614,citybackpackers.se,Facility
SE,57.8808192,11.9439419,fordonsgas.se,Commerce
SE,59.5344351,18.0773433,vallentunastenugnsbageri.se,Commerce
SE,55.429617,13.8205872,loongsching.nu,Facility
SE,59.2811197,17.9861644,frumariasbak.se,Commerce
SE,56.8828855,16.6569824,kapelludden.se,Facility
SE,59.3333449,18.0542014,senstreetkitchen.se,Facility
SE,59.8000473,14.5832732,sikforsherrgard.se,Facility
SE,56.123474,12.6011771,poppegarden.se,Facility
SE,59.216986,18.0309538,snattringesk.se,Unknown
SE,60.14349,12.98812,valbergsangen.se,Facility
SE,59.4360043,17.9318414,graciestockholm.com,Facility
SE,59.2575244,15.1560324,pallkonsulten.se,Commerce
SE,57.9366538,13.1776662,textilgruppen.se,Commerce
SE,59.7398482,17.8153708,novaparkkonferens.se,Facility
SE,57.6987194,11.911988,sushieriksberg.se,Facility
SE,65.8548196,23.1411672,kalixbowlingcenter.se,Facility
SE,60.6045641,15.6526595,dalregementetsmuseer.se,Facility
SE,60.897251,15.1206064,rattvikarena.se,Facility
SE,57.8710467,11.9494335,kungalvsgrillen.se,Facility
SE,56.2018787,15.6318895,karlskronabilcenter.se,Commerce
SE,56.3908083,15.0390972,danshallen.se,Facility
SE,57.6913081,11.9491084,svenskenergiforbattring.se,Commerce
SE,59.229194,17.993789,byggnadssmide.se,Commerce
SE,59.3236611,18.0690285,pizzerianiva.se,Facility
SE,59.3372824,18.0670127,ingerskitchen.com,Facility
SE,59.4455087,17.9519128,sollentunadjurklinik.se,Commerce
SE,59.2644173,18.5036521,varmdomusteri.se,Unknown
SE,57.7998256,11.9912582,karraburgers.se,Facility
SE,59.3029698,18.0806363,loparboxen.se,Facility
SE,62.3895474,17.2599799,kristnaskolanoasen.se,Facility
SE,58.4115281,15.6209481,osteriakaramia.se,Facility
SE,59.3302058,18.0262782,thekulture.se,Facility
SE,59.3656136,17.9990096,restauranglulu.se,Facility
SE,64.7497111,20.9534939,stadskallaren.nu,Facility
SE,58.0243561,14.4672071,grannagarden.se,Facility
SE,59.2980897,18.0109296,stockholmsfilmskola.com,Facility
SE,59.316195,18.0831787,chokladfabriken.com,Facility
SE,65.8570965,23.4964643,steffi-s-cottage.se,Facility
SE,59.3231102,18.0714513,raptisahlgren.se,Facility
SE,59.3226832,18.0695453,gamlastansfisk.se,Commerce
SE,64.396904,18.8185077,visitlycksele.se,Facility
SE,55.4285118,13.8291061,hotellfritiden.se,Facility
SE,55.5143944,14.3464147,branteviksmuseum.se,Facility
SE,59.2383246,14.4403756,degerforsif.se,Facility
SE,59.2540144,15.242263,massimopizza.se,Facility
SE,59.6240407,18.501921,rodenakarna.se,Commerce
SE,59.8293921,17.5197367,dalbymaskin.se,Unknown
SE,59.370525,13.5501613,filterteknik.se,Commerce
SE,59.3017782,18.0771071,marindepan.se,Commerce
SE,59.8391634,17.6384925,leijonbageri.se,Facility
SE,57.9303258,12.5345776,sallyscafe.se,Facility
SE,59.3159294,18.0106208,klippotek1.se,Facility
SE,59.7910262,18.2955688,ranasslott.se,Facility
SE,59.2505345,18.0111507,takeitthai.se,Facility
SE,59.6165972,16.4627635,pitzerianvästerås.se,Facility
SE,63.3196753,14.8664984,litscamping.com,Facility
SE,59.332382,18.0617313,sallyochsystrar.se,Facility
SE,61.7994394,16.5378008,delsbocamping.se,Unknown
SE,59.3245188,18.0688764,affarenigamlastan.se,Unknown
SE,59.3157952,18.0556283,grandgourmet.se,Facility
SE,55.7292177,13.1549184,gunnesbo4h.se,Facility
SE,55.6070426,13.0236331,kitchen961.se,Facility
SE,64.5927613,18.6993956,ansiabadpark.se,Facility
SE,57.901207,16.4128473,husbilgamleby.se,Facility
SE,58.2288367,14.6536687,lysingskonditori.nu,Facility
SE,58.2533363,17.0105554,harstenabyskola.se,Facility
SE,59.6707082,18.6811108,kattcenter.se,Unknown
SE,57.3164039,15.5910856,mobelmuseum.se,Facility
SE,59.2534968,17.856883,slagstagatehotell.se,Facility
SE,59.5694963,17.5297721,sparbankenenkoping.se,Commerce
SE,59.3312097,18.3888269,kedjebacken.se,Facility
SE,59.6150315,16.5335356,fordonskontroll.se,Commerce
SE,59.257631,15.172601,kebabfabriken.se,Facility
SE,58.258027,14.6208997,ombergsgolfresort.se,Facility
SE,63.9045573,19.749401,vannasbilverkstad.se,Commerce
SE,57.1631392,17.0109239,kvarnensvardshus.se,Facility
SE,55.7037838,13.1924017,kyrkogatanfem.se,Facility
SE,60.4867736,15.4324028,hermansbistro.se,Facility
SE,56.1555919,13.7592532,tastygarden.se,Facility
SE,59.3545416,17.8829709,edinbenedictsson.se,Facility
SE,57.1854848,14.0401921,tandcentrum.se,Facility
SE,59.3755971,13.5038631,olivenkarlstad.se,Facility
SE,58.411892,15.6207583,cabomexican.se,Facility
SE,59.3506627,18.0382164,medicinhistoriskastockholm.se,Facility
SE,59.3448692,18.0616299,meatonastick.se,Facility
SE,57.7484278,13.0070856,bramhultsgard.se,Facility
SE,59.3661751,17.9906719,rasundabarnklader.se,Commerce
SE,65.6770309,22.3625243,brandonlodgelapland.com,Facility
SE,59.9341993,17.5966274,saperformance.se,Commerce
SE,59.3173866,18.0871,fjallgatan.com,Facility
SE,63.5762954,19.0503788,jonersgarden.se,Facility
SE,60.4046288,15.5375922,sodertunabygdegard.se,Facility
SE,55.7220578,13.1709963,oscarshem3.se,Unknown
SE,55.5863304,13.1856222,persiennbutiken.se,Unknown
SE,59.2004351,17.7704795,ronningeborg.se,Facility
SE,59.3059623,18.1204913,ettvackertkok.se,Commerce
SE,64.5357556,19.3437765,amselecamping.se,Facility
SE,58.5017197,16.2950158,carlssonsrecond.nu,Commerce
SE,55.3906565,14.0958082,backagarden.com,Facility
SE,63.4231779,15.8253698,brannholms.se,Commerce
SE,59.1179021,15.1815056,galleriorsta.se,Facility
SE,59.6146935,17.8810499,verktygsproffsen.se,Commerce
SE,59.7391501,17.6709261,krusenberg.org,Unknown
SE,59.3412631,13.5005157,hammarosmadjursklinik.se,Commerce
SE,56.1968103,15.6658923,maskinochfritid.se,Commerce
SE,59.3196687,18.0286135,langholmenkajak.se,Commerce
SE,57.7076327,11.9631873,stefansalomonsson.se,Commerce
SE,59.3276524,18.0829693,panoptikon.nu,Commerce
SE,64.7186111,21.1711127,tradgardeniursviken.se,Commerce
SE,59.2915571,18.3808549,medicinskaforeningen.se,Unknown
SE,57.7054308,11.9715225,frokenolsson.se,Facility
SE,60.3103275,18.6035834,grasokanot.se,Commerce
SE,56.3806054,13.9726702,butiksmobler.se,Commerce
SE,57.187927,14.0383095,varnamoallians.se,Facility
SE,59.4160944,18.0427176,houseofcurling.se,Facility
SE,59.2225561,18.5395014,bjorkviksbatklubb.com,Facility
SE,64.6784148,21.2464779,portofskelleftea.se,Unknown
SE,68.3960179,18.1219245,fjallklubben.se,Commerce
SE,55.7708286,13.5313252,granbacken.nu,Unknown
SE,60.1733893,18.1680481,gimohockey.se,Facility
SE,59.0659936,15.1118419,hotellstinsen.com,Facility
SE,57.7221282,11.937676,frisorkallaren.se,Facility
SE,59.3551461,18.0560069,proviantalbano.se,Facility
SE,63.428282,18.3128357,sjodinssport.se,Commerce
SE,58.8089109,17.3626792,sormlandsmuseum.se,Facility
SE,59.3472768,18.070261,karbokhandeln.se,Commerce
SE,57.908219,12.9072319,vp-autoparts.com,Commerce
SE,57.6407924,11.7776662,brannovardshus.se,Facility
SE,55.6574155,13.0789882,alnarpsmuseerna.se,Facility
SE,59.8607392,17.6394343,creativezone.se,Facility
SE,59.3516519,18.0846902,swartlingsridskola.se,Unknown
SE,59.2503712,17.9507155,sparvagencykel.se,Facility
SE,63.1898394,14.6607906,tordwiksten.com,Commerce
SE,59.7734415,18.6950942,naturbarnstugan.se,Facility
SE,63.824826,20.2604501,kulturbageriet.se,Facility
SE,59.8597231,17.6392445,forsahembageri.se,Commerce
SE,56.8500524,14.8261598,stuborhotell.se,Facility
SE,59.5078214,17.7339479,optimumbilvard.com,Commerce
SE,55.6049873,12.9973735,lillaskane.se,Commerce
SE,58.0359515,14.9751122,lofstadkyrkan.se,Facility
SE,61.7132289,16.1730829,jarvsocreperie.se,Facility
SE,56.8276937,13.9222166,lydendistillery.com,Commerce
SE,59.8440468,17.6143966,victoriahamnen.se,Facility
SE,59.3346399,18.0649118,oolongteahouse.se,Facility
SE,59.8838649,13.7276208,sunnemoslantlivglasscafe.com,Commerce
SE,56.8347798,15.7423113,orreforshotell.se,Facility
SE,59.3697494,18.0047954,baldersbrod.se,Facility
SE,64.8684441,20.3812516,jakt-trofe.com,Commerce
SE,63.8245886,20.2716565,umeastadsmission.se,Facility
SE,59.3125448,18.0758741,underjordiska.com,Facility
SE,59.3631762,18.0585582,storiescafe.se,Facility
SE,55.5973807,13.015123,farm2table.se,Facility
SE,63.8097832,20.2581742,svalanpizzeria.se,Facility
SE,65.8627184,22.2985035,finsnickeri.nu,Commerce
SE,63.312105,13.348529,ristafallet.se,Facility
SE,55.5862418,12.9715166,montessoriskolan.com,Facility
SE,57.718024,11.9470192,llamalloyd.se,Commerce
SE,65.8530294,23.1390451,kalixcamping.com,Facility
SE,60.1412404,14.3721562,rosahöjden.se,Facility
SE,63.2523438,12.4505569,hanriiscafe.se,Facility
SE,60.1404595,16.1677894,wienercondis.se,Commerce
SE,63.8250082,20.2605786,linnegrankvist.se,Commerce
SE,55.7228805,13.2272783,logenilund.nu,Facility
SE,56.1956742,15.6944109,barnensgard.se,Facility
SE,59.344574,18.0571136,flyinghorse.se,Facility
SE,59.3328266,18.0584124,freyshotels.com,Facility
SE,64.7915714,20.0446994,bastutraskcharkuteri.se,Unknown
SE,59.2840797,18.1160669,karrtorptandvard.se,Facility
SE,60.1025323,18.8085564,pensionat-solgarden.se,Facility
SE,58.3540694,15.2912465,lonestamsbilar.com,Commerce
SE,63.9156918,19.7644277,vannasbadcamping.se,Facility
SE,58.9824335,14.6226127,bergskyrkan.se,Facility
SE,56.1890614,15.9451725,orranasgardsmejeri.se,Commerce
SE,59.3380284,18.0797828,brunoskorvbar.se,Facility
SE,57.1006932,12.2465825,hotellhavanna.se,Facility
SE,63.143984,14.7310188,furuparken.se,Unknown
SE,59.3401509,18.3766139,bkfiskgjusen.se,Facility
SE,63.4356075,13.2934385,favikenmagasinet.se,Facility
SE,56.2458922,12.8636865,telegrafen.com,Facility
SE,59.5992267,17.9998701,tjustagolf.se,Facility
SE,61.7279642,17.1077779,halsinglandsmuseum.se,Facility
SE,59.3114798,18.0724809,goldenathlete.se,Commerce
SE,58.4103305,15.6222273,brasseriebouquet.se,Facility
SE,58.4103776,15.6363448,marcuskraftan.se,Commerce
SE,55.8701857,12.8529713,toyotahelsingborg.se,Commerce
SE,59.3342756,18.0629199,tokyoramen.se,Facility
SE,59.357915,17.9479188,stockholmbrommahotel.se,Facility
SE,56.8817252,16.722291,smedjansstallplatser.se,Facility
SE,59.2903972,17.8116373,bageriekero.se,Facility
SE,55.6351799,13.6926681,haraldssonsauktioner.se,Commerce
SE,56.0642919,14.4679043,fyskompaniet.se,Facility
SE,59.3814725,18.0355625,madamemoblemang.se,Unknown
SE,59.1060507,17.7314969,eldtomtacafe.se,Facility
SE,59.3837494,17.8869569,spangaautoservice.se,Commerce
SE,57.7817928,14.162118,finduzzcatcafe.se,Facility
SE,65.5906375,19.1719408,hotelledstrom.se,Facility
SE,61.7204477,16.1676741,jarvsogardsbageri.nu,Facility
SE,59.3168159,18.07371,ortagubben.se,Commerce
SE,61.7284488,17.108894,pizzeriaamanda.se,Facility
SE,61.0155482,14.5327854,vallescykel.se,Commerce
SE,57.3501309,12.1065272,kumlabarnensdag.se,Facility
SE,58.3487892,11.9254901,hotelriverside.nu,Facility
SE,59.3380242,18.0801745,momskitchen.se,Facility
SE,59.3439771,18.0603432,dengamleochhavet.se,Facility
SE,57.6488617,11.9289223,ebbapettersson.se,Facility
SE,57.7422858,12.0597804,fjallstugan.nu,Facility
SE,57.7810021,14.1396708,jonkopingslansmuseum.se,Facility
SE,59.3060005,18.1091978,realestatestockholm.se,Commerce
SE,56.7611723,16.3051143,morebiogas.se,Commerce
SE,59.3286757,18.0444854,annawhitlocksgymnasium.stockholm,Facility
SE,62.3873676,17.306244,butikametist.se,Commerce
SE,58.4189075,15.6110785,shakesushi.se,Facility
SE,59.3061293,18.000954,aspuddensapotek.se,Commerce
SE,59.4551809,17.8002011,bolinderstrandskrog.se,Facility
SE,60.596918,15.6561883,lindstrom-violin.com,Commerce
SE,57.8515683,14.3061494,kaxholmenspizzeria.se,Facility
SE,60.5547897,15.0838471,himmelslatta-airpark.se,Facility
SE,59.3348483,17.9992567,pizzeriakristineberg.se,Facility
SE,56.0439659,12.6962312,hotell-linnea.se,Facility
SE,57.422091,18.916639,hamnkrogenherrvik.se,Facility
SE,59.2199635,17.5778878,tradgarn-sodertalje.se,Facility
SE,55.5950433,12.9836935,santaluciacyklar.com,Commerce
SE,59.1711834,18.1510395,heartsecondhand.se,Facility
SE,58.113016,11.3676552,emmamalena.com,Commerce
SE,59.4040304,17.9430928,zanrestaurang.com,Facility
SE,65.5739821,22.1062161,chattanoga.se,Facility
SE,59.4790997,18.2876582,marinbutiken.com,Commerce
SE,58.4035415,15.6254832,bistromejeriet.se,Facility
SE,62.2990567,17.3784577,duvansbegravningsbyra.se,Commerce
SE,58.3950507,15.615421,linblomman.net,Facility
SE,57.6667556,14.6911563,lbinredning.se,Commerce
SE,59.8732031,17.6388583,anaperfeitocakes.com,Commerce
SE,64.832497,20.9896527,kagegrillen.se,Facility
SE,55.7021127,13.1966944,palmyrapizzeria.se,Facility
SE,56.282077,12.4935509,2020baguetteria.se,Facility
SE,59.1866295,17.6566996,wallesvitvaror.com,Commerce
SE,59.9312843,12.6517937,treenscamping.se,Facility
SE,55.6453568,13.0807671,ringtjanst.com,Commerce
SE,60.227752,17.4587614,syltkrukan.se,Facility
SE,55.4163463,12.8303586,lindaletelierhansson.se,Facility
SE,59.6396582,16.5637339,mickeshusman.se,Facility
SE,56.8347879,15.2217644,bergdaladesign.se,Commerce
SE,58.2562562,11.5201682,kutterkonfekt.se,Facility
SE,62.519319,17.4329503,bergochhjort.se,Commerce
SE,59.9392366,17.656546,kockenokallskankan.se,Facility
SE,55.61402,12.9762746,cf-fabriken.com,Facility
SE,59.3415272,18.0494287,franklincafe.se,Facility
SE,56.2569985,12.5398757,kullabergs.se,Commerce
SE,59.318435,18.0705069,stpaulspizzeria.se,Facility
SE,57.7148622,12.9470477,kungalvs-ror.se,Unknown
SE,59.3127552,18.0786867,soderbiljarden.se,Facility
SE,56.0358161,13.6782815,ateljeviktoria.se,Commerce
SE,65.3157033,21.4837955,centrumkrog.se,Facility
SE,58.2011581,16.6008147,vikensthai.se,Facility
SE,62.5483979,12.5373639,fjallmuseet.se,Facility
SE,57.7661308,16.6441311,vasterviksmuseum.se,Facility
SE,63.3144288,13.2543698,areljusfabrik.se,Commerce
SE,59.3173769,18.0706023,sidenkallaren.se,Facility
SE,59.2949995,18.0705099,gamlaenskedebryggeri.se,Commerce
SE,59.3202807,18.0676833,lindbergstenberg.se,Unknown
SE,56.889547,14.8130615,svenskakyrkanivaxjo.se,Facility
SE,59.2695731,15.2245345,pizzeriavikings.se,Facility
SE,59.3253578,18.0077915,pizzerialillaessingen.se,Facility
SE,56.6656998,16.4887227,tvattcenter.com,Commerce
SE,59.3296154,18.0614454,storebrandfastigheter.se,Commerce
SE,56.1715859,14.8190405,blekingevedlager.se,Commerce
SE,58.1824389,13.5713922,dackhallen.se,Commerce
SE,59.3592846,18.1218971,millesgardenlanthandel.se,Facility
SE,59.2298974,18.2727617,tyresodiscgolf.se,Unknown
SE,58.4620887,15.6371849,ekangensbatklubb.se,Facility
SE,59.3476114,18.0585291,melodyflowers.se,Commerce
SE,59.3245189,18.3840989,deliverkstan.se,Facility
SE,59.3119972,18.0736992,restauranghimlen.se,Facility
SE,56.0659782,14.4816953,claessonsmotor.se,Commerce
SE,57.7779255,12.0019326,toyotagoteborg.se,Commerce
SE,58.4052764,15.5886816,gamlalinkoping.info,Facility
SE,59.8724883,17.6237329,klinikskolden.se,Facility
SE,59.2461002,18.0861823,grannenspizzeria.se,Facility
SE,60.6241239,16.7747775,foderladan.com,Commerce
SE,59.2753086,15.2148134,lillabokhandeln.se,Commerce
SE,56.3608636,13.4756173,godisflyget.nu,Commerce
SE,65.5742508,22.0982102,kioskigloo.se,Unknown
SE,59.324956,18.0703012,chokladkoppen.se,Facility
SE,59.3427725,18.069536,embalgeria.se,Facility
SE,59.3233675,18.0755125,missbehavebar.se,Facility
SE,60.882365,15.1237641,dalachoklad.se,Commerce
SE,59.316151,18.0123077,grondalsapotek.se,Commerce
SE,59.850741,18.5237277,hammartorp.com,Unknown
SE,60.410905,15.4686929,nybroberget.se,Facility
SE,58.4079373,15.6185148,restauranggoldenlotus.se,Facility
SE,55.6726427,13.0700007,pizzerialomma.se,Facility
SE,57.6960234,11.9359162,multimedium.se,Commerce
SE,55.6072863,13.002276,nybergshembageri.se,Facility
SE,62.9554325,16.6753987,thaipaviljongen.se,Facility
SE,55.6080494,13.0108431,marieantoinette.se,Facility
SE,56.4119469,15.9981257,victoriarestaurang.se,Facility
SE,57.6816912,11.9079208,framespecialsnickeri.se,Unknown
SE,57.6938609,11.9191065,singsinggbg.se,Facility
SE,65.5825954,22.1536965,spaofsweden.se,Facility
SE,59.6102724,16.5424294,frankbistro.com,Facility
SE,59.3171907,18.0631765,swedenborgsgatan4.se,Facility
SE,59.7403742,17.1806817,landsberga.se,Facility
SE,56.1664819,14.86408,visitkarlshamn.se,Facility
SE,59.3392045,18.0376038,smartasaker.se,Commerce
SE,59.3430005,18.0568729,stockholmsserieoskivhandel.se,Commerce
SE,56.0456253,12.692419,hamnkrogen-hbg.se,Facility
SE,58.1055485,11.5081275,nosundhavshotell.se,Facility
SE,63.2905722,18.7129858,minioplaneten.se,Commerce
SE,60.8144973,15.019927,tallberggk.com,Facility
SE,67.6142513,19.018562,fishyourdream.com,Facility
SE,55.7012903,13.1950667,piggapeggy.com,Commerce
SE,56.6923959,12.8678649,dhsolutions.se,Commerce
SE,59.262483,18.0815002,vintrotastic.com,Commerce
SE,57.3716352,16.5493081,gesallbageriet.se,Commerce
SE,61.8017603,15.8934643,husmanifarila.info,Facility
SE,59.1554707,18.1691873,smartmicrofiber.se,Commerce
SE,55.5551907,12.9190561,papajoesrestaurang.se,Facility
SE,59.2895212,18.0939475,dgsfastfood.se,Facility
SE,59.2429328,18.101773,farstawoksushi.se,Facility
SE,59.3818382,18.0503955,marinalaroverket.se,Facility
SE,59.3503711,18.0678445,makerspace.se,Unknown
SE,59.5927485,16.5125712,skafferietvasteras.se,Commerce
SE,58.4937327,12.4435337,sorbostrandscamping.se,Facility
SE,55.6823598,14.2282186,retrohotell.se,Facility
SE,59.8581703,17.6383373,choicesuppsala.se,Facility
SE,64.6317257,16.6518641,vasterbotten.net,Facility
SE,58.3900316,13.4402566,vastergotlandsmuseum.se,Facility
SE,59.6146663,12.8476709,sandvikengarden.se,Facility
SE,63.819882,20.3056362,sjobergsfrisorer.se,Facility
SE,59.3379522,18.0862856,dellattore.se,Facility
SE,59.3713667,17.858498,lakarmissionen.se,Facility
SE,65.5831464,22.1582466,parkhotell.se,Facility
SE,55.5913843,13.0070998,mollansost.com,Unknown
SE,55.6986227,13.183412,stadsparkscafeet.se,Facility
SE,56.1632069,15.5832565,palmnilsson.se,Commerce
SE,59.3169322,18.0645973,enhalvtrappaner.se,Facility
SE,58.0218981,14.467527,grennamuseum.se,Facility
SE,59.7581235,18.7096083,wineanddinene.se,Facility
SE,55.5563943,14.3487917,cancaninterior.com,Commerce
SE,67.8535227,20.2470108,kirunabostader.se,Facility
SE,59.415163,17.913341,akallatorget.se,Facility
SE,57.6973065,11.9785832,boqueriagoteborg.se,Facility
SE,56.6604717,16.3655451,bryggankalmar.se,Facility
SE,59.3560155,18.0001182,solnafolketshus.se,Facility
SE,59.3180845,18.0455833,lundaskolan.se,Facility
SE,61.1586191,13.2583872,olnispasidan.se,Facility
SE,59.3332127,18.117001,riksidrottsmuseum.se,Facility
SE,62.6329917,17.9311183,brygghusetharnosand.se,Facility
SE,57.7052975,12.0351801,solvikingarna.se,Facility
SE,59.3230438,14.0921784,hotellmarieberg.se,Facility
SE,59.7443006,17.8116152,burgerdudes.se,Facility
SE,57.6980789,11.9891691,svenskamassan.se,Facility
SE,59.2797601,18.0342466,baravedugnspizza.se,Facility
SE,59.9204153,16.5994298,högagrader.se,Facility
SE,59.7239555,18.0305388,skobykrukmakeri.se,Commerce
SE,58.411114,15.6352291,salongtasstrim.se,Commerce
SE,60.7869004,14.860205,siljansnasstugby.com,Facility
SE,58.4029228,15.6621594,begbildelar.com,Commerce
SE,57.7896912,12.0030463,gotecarlsson.se,Commerce
SE,59.3676579,18.0062071,egmontpublishing.se,Commerce
SE,55.4270039,13.8243402,ystadstation.com,Facility
SE,59.8706787,17.6683203,festlokaluppsala.se,Facility
SE,59.3801464,13.4991219,suziepicant.se,Facility
SE,55.8564683,13.764664,torstenandersson.com,Facility
SE,59.3604326,17.9626181,novodental.se,Facility
SE,59.2725866,15.2138329,tehusetiorebro.se,Facility
SE,60.5609095,17.4361749,johanthunberg.se,Facility
SE,58.8072147,17.3653114,nynasslott.se,Facility
SE,61.2286435,14.027765,alvdalencamping.se,Facility
SE,59.3452555,18.0612768,tehusetjava.se,Commerce
SE,59.2785526,18.006281,rapportering.se,Commerce
SE,55.4336304,13.8643634,ystadcamping.se,Facility
SE,59.3227234,18.0060894,classiccollection.se,Unknown
SE,58.41248,14.132064,formidabelspecialinredningar.se,Commerce
SE,58.1240324,15.6890811,rimforsastrand.se,Facility
SE,55.5153424,14.3467303,branteviksakeri.se,Unknown
SE,58.3805242,15.6805015,ekholmencentrum.se,Commerce
SE,57.1797059,14.0583757,hemmahallen.se,Commerce
SE,58.3513795,11.8528263,blessburgers.se,Facility
SE,57.6810667,11.941088,slottsskogendiscgolf.se,Unknown
SE,59.7649985,18.6944418,sportringennorrtalje.se,Commerce
SE,58.7109326,13.8226073,steakhouse75.se,Facility
SE,58.5141889,13.1400397,kronocamping.com,Facility
SE,59.3252064,18.0989394,hasselbacken.com,Facility
SE,59.418679,16.4743204,konditoriamarant.se,Commerce
SE,59.3531004,17.9696601,bss-seglare.se,Facility
SE,58.3919893,15.5833392,bestialkpg.se,Facility
SE,58.1607454,13.5541503,mumbaimasala.se,Facility
SE,60.3121254,16.7990315,lundgrensbageri.com,Commerce
SE,57.3012232,12.1877109,stravallacamping.se,Facility
SE,58.5043402,13.154958,restaurangchance.se,Facility
SE,56.6842868,16.3447234,adelscykel.se,Commerce
SE,55.6908809,14.2152164,kivikscamping.se,Facility
SE,59.3209094,18.0645244,entryscape.com,Commerce
SE,59.3578788,17.9223714,virecplattan.se,Commerce
SE,55.6148892,12.9860035,ubatshallen.se,Facility
SE,59.3176951,18.0648291,tequilaink.se,Facility
SE,59.2876909,18.0583033,enskederackethall.se,Facility
SE,57.7204015,12.9368073,cityklippet.com,Facility
SE,60.5769443,15.6012078,bilforsaljningen.se,Commerce
SE,56.6588088,12.8055349,amadeuskliniken.se,Facility
SE,57.7148655,12.9464592,directlarm.se,Commerce
SE,59.3455813,17.9899869,solnaseglarskola.se,Facility
SE,58.4831984,16.3213796,bakfickansoderkoping.se,Facility
SE,61.0071205,14.5480382,wasastugan.nu,Facility
SE,60.7098076,12.8835581,vildmarkscenter.com,Facility
SE,57.6797729,12.0025321,empowerwellness.se,Facility
SE,59.3229748,18.4912691,lillplogen.se,Facility
SE,63.1730897,14.6398588,aladdinspizza.se,Facility
SE,55.4304173,13.8214081,antikvariat.net,Commerce
SE,58.8653212,15.0005044,hotelmontagne.com,Facility
SE,59.9248674,16.6068699,cafejernvagen.se,Facility
SE,58.4291293,15.5986164,appelskogsbil.se,Commerce
SE,60.6550001,17.1541879,fordonsexperten.se,Commerce
SE,60.6492895,17.1507563,stovelnoberg.se,Commerce
SE,60.4751379,15.4047808,skyltstallet.se,Commerce
SE,56.2907943,14.7265751,astensmalagard.se,Facility
SE,63.8271776,20.2632066,verketumea.se,Facility
SE,59.3346577,18.0808881,restaurangartilleriet.se,Facility
SE,59.8797082,15.0078331,kopparbergs.se,Commerce
SE,58.4102373,15.6204704,nordicposters.se,Commerce
SE,55.6005342,13.0124092,model-craft.se,Commerce
SE,55.5933795,13.0259025,mariasindiankitchen.com,Facility
SE,58.5505749,16.0406508,vardshusetlofstadslott.se,Facility
SE,56.0736585,14.4672745,ivetoftasparbank.se,Facility
SE,55.5980194,13.0012769,apotekhjärtat.se,Commerce
SE,56.2745027,12.5712285,rusthallargarden.se,Facility
SE,59.332513,18.0733328,chinateatern.se,Facility
SE,58.3512678,11.92169,uddevallafolkdans.se,Facility
SE,61.7992891,16.5414592,filadelfiadelsbo.se,Facility
SE,59.3623482,17.9676266,ristoranterustico.se,Facility
SE,59.2620871,18.0839306,restaurangmaxi.se,Facility
SE,63.8379775,20.1604553,forskolan-pratbubblan.se,Facility
SE,60.3912414,15.6635844,solvarbobystuga.se,Facility
SE,60.6502605,15.7759437,carllarsson.se,Facility
SE,60.6245721,16.7749092,sandvikenbilglas.se,Commerce
SE,57.5990995,11.9203163,amundomarina.se,Facility
SE,59.3772136,16.5142146,eskilstunasushibar.se,Facility
SE,60.0258586,13.6917616,miljohalsan.se,Unknown
SE,59.8507513,17.6313803,restaurangfeiroz.se,Facility
SE,59.3502682,17.9829964,sveapizzeria.se,Facility
SE,55.5983306,13.0008817,topvisible.se,Commerce
SE,55.6118559,12.9864275,beijerelectronics.com,Commerce
SE,68.4252965,18.1610485,arcticlodge.nu,Facility
SE,58.4134074,15.6310439,stangsmagasin.se,Facility
SE,55.5909898,13.0207998,folkmatmoten.se,Facility
SE,60.5090051,15.602007,kvinnohojden.se,Unknown
SE,59.3515128,18.0053781,indianstreetfood.com,Facility
SE,66.6032447,19.7757888,jaktfiskejokkmokk.se,Commerce
SE,55.7536763,13.2004161,gioia-stangby.se,Facility
SE,60.4845021,15.418368,deaaxelssons.se,Commerce
SE,65.5847092,22.1258391,gamlafärjläget.se,Facility
SE,59.5018582,18.0483909,camp-nygard.se,Facility
SE,59.1498444,18.1580937,yamahacenter.com,Commerce
SE,55.5873027,13.0232555,malmoparkour.se,Facility
SE,59.2852183,18.275336,saltsjobadensbokhandel.se,Commerce
SE,59.76377,13.44897,storangenscamping.com,Facility
SE,59.335461,18.0682655,salongmeduza.se,Facility
SE,57.9715204,19.2638527,ekevikenscamping.se,Facility
SE,55.7019666,13.7860343,piratensallskapet.se,Facility
SE,59.4004826,18.4410019,fredriksborghotel.se,Facility
SE,57.6994872,11.9604335,salongdomingo.se,Facility
SE,57.6889244,11.9670304,angemarken.se,Commerce
SE,59.3194283,18.0705369,fatoljencafe.com,Facility
SE,59.1827913,15.1425976,orebrogolf.se,Facility
SE,59.3169271,18.0629711,adisgladis.se,Commerce
SE,59.3024718,18.0811545,sthlmladiesandgents.se,Facility
SE,56.2003332,15.6353662,rabergsbil.se,Commerce
SE,58.4176346,15.6203913,massimolinköping.se,Facility
SE,59.3334572,18.0738859,nobishotel.se,Facility
SE,58.593587,16.1830171,restaurangvila.se,Facility
SE,59.319099,18.0632259,blackandbrown.se,Facility
SE,59.305141,17.9887236,marialouis.se,Facility
SE,59.3493154,18.0568637,savojsthlm.se,Facility
SE,57.706334,11.9248449,bakastenugnsbageri.se,Commerce
SE,59.3319134,18.0577302,laughingduck.se,Facility
SE,59.8110859,18.8934459,samuelssons.nu,Unknown
SE,57.6719497,11.9235915,hogsboleksaksbibliotek.se,Facility
SE,58.4851905,11.6739676,bralandsgard.com,Facility
SE,59.3160296,18.0387367,sportfiskeprylar.se,Commerce
SE,59.3950561,15.8328256,arbogamuseum.se,Facility
SE,60.0635002,14.9945647,motornostalgimuseum.com,Facility
SE,59.3778754,16.5111175,kentkarlsson.net,Commerce
SE,59.3120522,18.0738622,thehealthybutcher.se,Facility
SE,59.1262292,15.1555159,djupadalsbadet.se,Facility
SE,60.4849143,15.4339132,dalaindisk.se,Facility
SE,60.734204,14.9813077,hildasholm.org,Facility
SE,58.6413713,13.7011014,mariestadskok.se,Commerce
SE,57.8031788,13.4409272,ulricehamnstapetfabrik.se,Commerce
SE,60.1719007,18.4647356,hargshamnscamping.se,Facility
SE,58.5893213,16.1893016,sanktabirgitta.se,Facility
SE,59.37727,13.4539054,villagrasdalen.se,Facility
SE,58.4855175,15.5311564,aventyrsgolfcity.se,Facility
SE,57.7063606,11.9722323,hotel-royal.com,Facility
SE,59.3363307,18.077623,armstrongtheshirt.com,Commerce
SE,59.6549098,12.5933377,bristolhotel.com,Facility
SE,59.3415135,17.9348509,husdjursshopen.se,Commerce
SE,59.3413482,18.0773021,embassymozambique.se,Facility
SE,56.1765891,15.1797995,kanslansverkstad.se,Unknown
SE,64.8703683,20.3777227,folketshusboliden.se,Unknown
SE,60.176536,17.1833034,zetterbergs.se,Commerce
SE,64.5950081,18.8098378,lyckseleds.se,Facility
SE,59.3772827,16.5114778,eskilstunafolkhogskola.nu,Facility
SE,60.7240149,15.0300214,alfvengarden.se,Facility
SE,59.3439046,18.0475276,wallenbergfast.se,Commerce
SE,60.3740863,15.8137768,svartkonst.se,Commerce
SE,56.6737955,12.8554042,brooktorpsgarden.se,Facility
SE,58.4080878,15.6174901,familjejuristen.nu,Commerce
SE,62.2957365,17.0481764,attmarshbf.se,Facility
SE,59.2922674,18.0782445,afrikasthlm.se,Facility
SE,56.0444854,12.6966351,frimarksnetto.se,Commerce
SE,59.3324023,18.0601925,restaurangholiday.se,Facility
SE,59.3327085,18.102054,princesshall.se,Facility
SE,63.3982096,13.1465596,exploreare.se,Facility
SE,59.4019811,18.0355903,lachoupette.se,Facility
SE,57.1832029,14.0521698,gastgivargarden.com,Facility
SE,59.3492328,17.9662725,minniesthaikitchen.se,Facility
SE,59.3765895,13.5082767,goodguysbrew.com,Commerce
SE,59.8369663,13.1440707,herbertssonblommor.se,Commerce
SE,59.3910224,13.4725419,gengåvansecondhand.se,Commerce
SE,59.3559201,18.0196362,norrabegravningsplatsen.se,Facility
SE,59.3129786,18.0789905,louielouie.se,Facility
SE,59.351885,17.9667726,bodyflight.se,Facility
SE,59.3117986,18.074068,pongskrapan.se,Facility
SE,59.8637972,17.6247077,sturegatan16.se,Facility
SE,56.1695552,14.8612346,gourmetthai.se,Facility
SE,58.8107449,13.7119996,seaportlaxhall.se,Facility
SE,59.3362338,18.0780794,loakenordic.com,Commerce
SE,59.3361288,17.952701,abrahamsbergssushi.se,Facility
SE,60.4871553,15.435913,skomakerireboot.se,Commerce
SE,59.4027645,17.9385326,kistaakupunktur.com,Facility
SE,55.3884745,14.1308412,dhbackakra.se,Facility
SE,59.3977837,18.087869,brasseriegreta.se,Facility
SE,55.6046602,13.0009351,palomateacompany.com,Commerce
SE,59.3936748,18.0919771,villapauli.com,Unknown
SE,63.8359851,20.164492,bistrolegarage.com,Facility
SE,62.4889843,17.3284471,sagarestaurang.se,Facility
SE,59.8355394,13.5462119,munkforstrainingcenter.se,Facility
SE,59.4013496,18.3446387,roddarhuset.se,Facility
SE,59.3164944,18.0613373,fonsterdesign.se,Commerce
SE,59.6347507,16.5773978,returbolaget.se,Commerce
SE,56.8882511,14.7606689,mickesmotor.se,Commerce
SE,59.8650038,17.6096039,hellstromsvet.se,Commerce
SE,59.3446725,18.0525073,dinhalsaodenplan.se,Facility
SE,59.6363278,16.5337737,hedlundsgolv.se,Commerce
SE,57.1861751,14.0382325,tapasmarket.se,Facility
SE,59.5321003,16.0120338,smelarsson.se,Commerce
SE,59.3316622,18.0594109,illumsbolighus.se,Commerce
SE,65.5743906,22.0977204,workoutlulea.se,Facility
SE,59.3407514,18.0639313,maninthemoon.se,Facility
SE,58.4112371,15.6219648,restaurang-hornan.se,Facility
SE,59.3118064,18.0810877,demokratipiloterna.se,Facility
SE,59.3626452,17.9404182,jarlatrafikskola.se,Facility
SE,60.4842783,15.4177358,vaskcentrum.se,Unknown
SE,63.8221271,20.283936,pizzeriamatador.se,Facility
SE,58.1753113,13.5014892,paverasgardsmejeri.nu,Commerce
SE,59.8669948,17.6712714,paesanoitaliano.se,Facility
SE,59.3657593,18.1342195,holmersbarber.se,Facility
SE,59.3331156,18.1184726,polismuseet.se,Facility
SE,59.3317397,18.0492798,trattoriavillaromana.se,Facility
SE,59.2700741,18.0483838,bandhagenstandvard.se,Facility
SE,59.3118334,18.0755305,bistrobananas.se,Facility
SE,57.6632542,11.9121122,vastrafrolunda.com,Facility
SE,60.4526368,16.0373173,brukshistoriska.se,Facility
SE,58.6716058,14.9645596,medevibrunn.se,Facility
SE,60.6213552,16.7744181,sandvikenpingst.se,Facility
SE,57.4569075,15.2583362,klevagruva.se,Facility
SE,59.3421887,17.9497574,svenskstubbfrasning.se,Commerce
SE,59.3431907,18.0580852,embassyofnamibia.se,Facility
SE,58.5491105,15.0097787,husvagnochcamping.se,Facility
SE,59.3669264,18.1404536,prestogrillen.se,Facility
SE,59.324133,17.9969013,essingebatsallskap.se,Facility
SE,59.3176248,18.0601865,restaurangkrypin.se,Facility
SE,59.4444205,18.0728983,centersource.io,Commerce
SE,59.4022554,17.9426234,kistafolkhogskola.se,Facility
SE,59.3268589,14.4976053,tratoffelfabriken.se,Unknown
SE,59.3165272,18.0638983,sodermalmsshaolin.se,Facility
SE,58.2856775,16.7341609,campingtorpabad.se,Facility
SE,59.3416365,18.0466471,swedishswing.se,Facility
SE,58.4037,15.598026,tensegrity.se,Commerce
SE,57.4608694,12.1716285,montanapizzeria.se,Facility
SE,67.4287236,22.5092255,junosuandoboende.se,Facility
SE,62.387767,17.3064651,docsundsvall.se,Facility
SE,56.3573268,14.5872591,kyrkhultslanthandel.se,Commerce
SE,59.3616324,17.9666432,bistroberg.se,Facility
SE,59.3671385,18.1571132,kaptensstugan.se,Facility
SE,55.6763511,13.0673378,frisorgron.se,Facility
SE,55.9605075,12.8529532,wallakraskolaochforskola.se,Facility
SE,57.6857819,11.9439601,domenkonstskola.se,Facility
SE,60.1773551,15.2058683,wikersplat.se,Commerce
SE,57.7000586,11.9307056,portofgothenburg.com,Unknown
SE,58.4082932,15.6025901,myresjohus.se,Commerce
SE,59.3237149,18.0686151,lillakarachi.se,Facility
SE,59.3185828,18.0592171,hotelhornsgatan.se,Facility
SE,59.6049772,17.7999026,steningekompaniet.se,Commerce
SE,63.1700198,14.6624766,albinsrestaurang.se,Facility
SE,59.3315908,18.0464502,cafefrankfurt.se,Facility
SE,59.4817917,12.4110468,stuga-glaskogen.com,Facility
SE,56.0453955,12.6966339,lantztrafikskola.se,Facility
SE,59.0490623,17.3102672,frosjowardshus.se,Facility
SE,64.7399989,20.676753,dahlgrenscement.se,Commerce
SE,55.6010248,13.0023484,auktionsverket.com,Commerce
SE,60.5788711,16.5166538,skottesyoga.com,Facility
SE,59.3393591,18.0588003,garderoben.se,Commerce
SE,64.5208496,20.6558524,vasterbottensost.com,Facility
SE,57.704893,11.99413,hildasrestaurang.se,Facility
SE,59.3357987,18.0709142,pongnorrlandsgatan.se,Facility
SE,57.707566,11.96325,marcelswatch.com,Commerce
SE,60.6738673,17.1413893,kabaregavle.se,Facility
SE,59.3229369,18.0725722,martentrotzig.se,Facility
SE,58.3296076,11.9023673,konditorisnackan.se,Facility
SE,59.4267606,17.9522373,elitebysauvko.se,Facility
SE,55.6125034,13.9929261,danielberlin.se,Facility
SE,57.3183824,15.5843456,ohlssonsel.se,Unknown
SE,59.3698314,18.030551,ecocarsclean.se,Commerce
SE,60.7323326,14.9967292,wanpenthaifood.se,Facility
SE,58.4110824,15.6264176,booyaburger.se,Facility
SE,57.6837717,11.9169152,sannastenhuggeri.se,Commerce
SE,57.708793,11.8404213,mattssonakeri.se,Commerce
SE,58.4104397,15.6194869,horseandhound.se,Facility
SE,59.8664884,17.6424787,kvarngardetodlarna.se,Unknown
SE,57.881554,11.9452884,toyotakungalv.se,Commerce
SE,59.3327653,18.0581755,belgobaren.se,Facility
SE,63.8387625,20.236133,umeadansimperium.com,Facility
SE,59.3366674,18.05894,ljudmakarn.se,Commerce
SE,59.3367522,17.9391692,tunnlandet.beer,Facility
SE,55.9283254,14.3048126,jockescykel.se,Commerce
SE,59.3179618,18.0655986,spiritofthreads.com,Commerce
SE,56.7999384,12.9583351,lustgarden.biz,Commerce
SE,59.3367249,18.0546811,motherindia.se,Facility
SE,59.2901954,17.8120194,malarokyrkan.se,Facility
SE,63.159507,17.2385629,hallstaberget.se,Facility
SE,59.7992911,17.4461575,hogbergsbuss.se,Unknown
SE,59.4930999,18.064867,lillahantverkaren.se,Facility
SE,59.3344796,18.0562612,vesterlins.se,Commerce
SE,60.4081213,17.8803642,drivhusetilovstabruk.se,Commerce
SE,56.057527,12.7089677,centrumskolan.se,Facility
SE,65.3177546,21.4801867,sushiododpitea.se,Facility
SE,57.6707387,11.9278738,improveskin.se,Facility
SE,58.4104748,15.6184101,munkkallaren.com,Facility
SE,63.28647,18.7294858,minvardagslyx.se,Facility
SE,57.6801861,11.8737945,seasidethaifood.se,Facility
SE,57.2028782,17.0529344,glabogokart.se,Facility
SE,59.2706687,18.0287023,prezzemolo.se,Facility
SE,59.3819062,13.5041714,citytrafikskola.eu,Facility
SE,59.3143364,18.0855153,bluelightyokohama.com,Facility
SE,59.4444125,18.0678725,tabycentrumdoktorn.se,Facility
SE,59.3353861,18.0674091,rapunzelofsweden.se,Facility
SE,58.4063655,15.8404022,askebytradgard.se,Commerce
SE,57.7535716,12.1345041,high-adventure.se,Facility
SE,55.6199164,13.0389436,folketsdack.se,Commerce
SE,59.3081665,18.0271543,lasassistans.nu,Commerce
SE,56.122956,13.4137409,perstorpsgk.com,Facility
SE,60.6038813,15.6312571,dalateatern.se,Facility
SE,59.3394113,18.0673165,lundell-zetterberg.nu,Commerce
SE,57.7156554,12.8346748,sjomarkenspizzeria.se,Facility
SE,59.2774123,15.215898,hotellhjalmar.se,Facility
SE,58.9789167,14.0186968,arashultscamping.com,Facility
SE,59.3296107,18.0754902,grandhotel.se,Facility
SE,58.0208937,15.8986603,bjorkforskajak.se,Facility
SE,67.8679091,18.6205919,bestigakebnekaise.se,Facility
SE,55.5695931,14.337466,tobisvikscamping.se,Facility
SE,56.9021948,12.4872423,hallandstrafiken.se,Unknown
SE,59.4657679,18.0431022,vallatorpsdoktorn.se,Facility
SE,59.3314125,18.0299643,restaurangspringrolls.se,Facility
SE,58.9762133,12.4660723,nordicrefuge.se,Facility
SE,57.699539,11.96897,ateljemarie.se,Commerce
SE,60.4657775,15.5634211,torsangscamping.se,Facility
SE,59.3776601,13.426111,tandkompaniet.com,Facility
SE,56.0429658,12.6999755,anderssonstrafikskola.se,Facility
SE,59.770857,18.700711,roslagensbk.se,Unknown
SE,59.3411083,18.0915963,thomassundbil.se,Commerce
SE,55.6059138,13.0097503,trevannermalmo.se,Facility
SE,60.0270725,13.6933289,monicazetterlundmuseet.se,Facility
SE,59.3795578,13.5039964,westerlundsguld.se,Commerce
SE,58.3595141,16.793611,stannagarden.com,Facility
SE,59.868342,17.6332641,uppsalalankarna.se,Facility
SE,56.4596473,13.5951693,storahotelletmarkaryd.se,Facility
SE,57.6591654,11.8450195,saltholmenskallbadhus.se,Commerce
SE,60.4805998,15.4460232,belinsdack.se,Commerce
SE,57.7415457,12.0356217,martinaskolan.se,Facility
SE,56.914069,14.806149,hovsslaputhyrning.se,Unknown
SE,57.527585,18.4434244,svenskbyborna.se,Facility
SE,58.3529724,11.9269799,hotelluddewalla.se,Facility
SE,57.7189203,12.9425946,sagateatern.se,Facility
SE,56.6284012,15.5381384,stahlmotor.se,Commerce
SE,55.7164924,13.2247189,mobileheights.org,Commerce
SE,56.9036466,14.834371,idrottskliniken.com,Facility
SE,56.7716966,13.5074664,alpackagarden.se,Facility
SE,63.8206379,20.2808361,forskolan-duvan.se,Facility
SE,59.3966565,18.0915693,djursholmsvardshus.se,Facility
SE,59.1998376,17.626887,hotellparadis.se,Facility
SE,57.1822008,14.040618,smyrna-varnamo.se,Facility
SE,59.852082,17.6486762,swedennails.se,Facility
SE,59.3130571,18.0742506,gallerihantverket.se,Commerce
SE,57.7558775,12.0228207,realmaskin.se,Unknown
SE,65.2617275,19.6257833,bostadlappland.com,Facility
SE,59.5340591,18.078037,cmtandklinik.se,Facility
SE,59.3374504,18.0797464,hellstromsguld.se,Commerce
SE,59.4029262,18.0187965,phawadeethai.se,Facility
SE,59.2565296,18.0812805,bokskogenbutik.se,Commerce
SE,58.8840114,17.5230857,cykelgaraget.se,Commerce
SE,63.2875827,18.5594279,pingstoverhornas.se,Facility
SE,60.2921263,14.9674102,swedalatak.se,Unknown
SE,57.6330438,18.2999133,barlingbobryggeri.se,Commerce
SE,59.308868,18.0886559,secondsunrise.se,Commerce
SE,61.911186,16.55402,avholmsberget.se,Facility
SE,55.7101197,13.2135102,lundaekonomerna.se,Commerce
SE,56.9886785,16.4297182,alemenergi.se,Commerce
SE,65.7198085,15.33498,tarnabycamping.se,Facility
SE,55.88065,13.6121151,storkprojektet.se,Facility
SE,62.0520833,17.2409451,nordanstig.se,Facility
SE,55.605917,13.004783,playoteket.com,Commerce
SE,59.4168199,17.8555406,shirtfactory.se,Commerce
SE,58.5601798,11.5739629,bohusbetong.se,Unknown
SE,56.7438556,14.9227135,elkmarketyarn.com,Unknown
SE,59.4416449,18.0725566,grindtorpskyrkan.se,Facility
SE,55.5981059,12.9963983,restaurangcataleya.com,Facility
SE,56.041918,14.57879,socialdemokraterna.se,Facility
SE,59.318584,18.0619353,ming-palace.se,Facility
SE,55.6003925,12.9803956,portobellop-r.se,Facility
SE,56.8777658,14.8062466,kafedeluxe.se,Facility
SE,59.3405527,18.0408451,lundbergsguld.se,Commerce
SE,59.3152741,18.07661,madamsthlm.se,Facility
SE,58.3497445,11.9359312,gerhardsost.se,Commerce
SE,57.7461421,11.9820358,ladanibacka.se,Facility
SE,66.1155005,22.7363301,tinylivingcamping.com,Facility
SE,58.5905381,14.4041661,stromsnascamping.se,Facility
SE,59.473545,17.8748232,norellnilsson.se,Commerce
SE,59.8362133,18.6541182,storholmen.org,Facility
SE,58.2082443,13.6887075,honungogront.se,Commerce
SE,56.7391345,16.7113925,olandsmuseum.com,Facility
SE,59.5912881,15.2304691,lindesbergsbio.se,Facility
SE,59.326818,18.2577548,lindebergbageriochkonditori.se,Commerce
SE,62.3942272,17.2904116,sundsvallsatletklubb.se,Facility
SE,59.3179427,18.0654206,elisabethskolan.se,Commerce
SE,60.607027,15.6340354,hotelfalun.se,Facility
SE,57.9276682,12.5337873,restaurangskaal.se,Facility
SE,59.768038,18.7201164,pizzeriaarena.se,Facility
SE,56.0402281,12.7160859,pingvinenhbg.se,Facility
SE,58.3802124,15.6797676,pizzeria-venezia.se,Facility
SE,59.2840251,18.0749895,sterikskatolskaskola.se,Facility
SE,57.1288298,16.49764,emsherrgard.se,Unknown
SE,56.093376,15.8557295,sandhamnmarine.se,Facility
SE,64.6066657,18.6684666,gammplatsen.com,Facility
SE,60.5079134,15.5456993,ornasbatklubb.se,Facility
SE,59.3144559,18.0330386,bitzahornstull.com,Facility
SE,59.3180094,18.060005,sodermalmszoo.se,Commerce
SE,59.3666538,17.9815524,raketbaren.se,Facility
SE,61.0101022,14.5575296,kristinebergsmora.se,Facility
SE,57.9945672,14.4311499,kulturratten.se,Facility
SE,59.3265654,18.2572675,happiesleksaker.se,Commerce
SE,59.3359121,18.0692246,paschadeli.se,Facility
SE,57.1746146,17.0371489,sandbybadetscamping.se,Facility
SE,59.0734149,18.2309266,salstationen.com,Facility
SE,56.5974144,16.4637489,olandsjarnvag.org,Unknown
SE,65.6191136,22.1475603,lifecenter.nu,Facility
SE,56.2618429,15.1952019,swedisharmory.se,Commerce
SE,59.8444187,19.1103221,bullaugust.com,Facility
SE,59.3238321,18.0730173,judiskamuseet.se,Facility
SE,59.409984,13.679485,skattkarrsbatklubb.se,Facility
SE,59.3384678,18.0567127,antikvariataugust.se,Commerce
SE,57.6985589,11.9734056,gallerinilsaberg.se,Commerce
SE,59.3125611,18.0721292,asokonditori.se,Facility
SE,58.9497558,17.5000675,trosamobler.se,Commerce
SE,61.0924918,13.3192603,stinaskiosk.se,Facility
SE,59.5679884,16.370888,byggnadsvardsbutiken.se,Commerce
SE,59.7154351,17.1372491,skuggansgrona.com,Facility
SE,57.8720967,11.9340958,kungalvsgardencenter.se,Commerce
SE,59.8618039,17.6421442,trattoriaalessandro.se,Facility
SE,57.3659931,15.3958526,frenillasbod.se,Facility
SE,58.3895081,13.8492865,blackandwhiteskovde.se,Facility
SE,57.7310133,12.0168006,bunkeberget.org,Facility
SE,58.7240623,11.323933,kaptenviking.se,Facility
SE,57.7564135,16.6521808,sjomackenvastervik.se,Commerce
SE,56.1701629,14.8604607,sushibarmaki.se,Facility
SE,62.6266986,17.9497297,kristinaskolan.se,Facility
SE,56.6737563,12.8629607,bistrojarlen.se,Facility
SE,55.5000984,13.5219482,johannamuseet.se,Facility
SE,59.5200927,17.9105009,harstylisterna.com,Facility
SE,62.8895306,18.2123445,gavikstorpet.com,Facility
SE,59.6190818,17.8775237,arlandastad.se,Facility
SE,63.3350418,19.1660571,husumgarden.se,Facility
SE,59.2705594,18.0491275,wallenstam.se,Commerce
SE,57.7049484,11.9711357,wagnersbistro.se,Facility
SE,59.3439569,18.0570424,cafefacile.se,Facility
SE,56.0272676,14.2058958,bakedandgrilled.com,Facility
SE,57.6614168,11.8415169,borjessons.se,Unknown
SE,59.3252772,18.0725303,bildrunsten.se,Commerce
SE,66.348537,22.8218101,pondusfoder.com,Commerce
SE,55.4764505,13.0167783,veterinarkliniken.se,Commerce
SE,57.7057342,11.9934218,jacyzhotel.com,Facility
SE,59.1976553,17.6259436,novatandklinik.se,Facility
SE,59.3538847,18.0886558,sunnydelikatess.se,Commerce
SE,60.8890829,15.1259164,minnesmaskinen.se,Facility
SE,59.9406998,17.6662082,uppsalanord.se,Commerce
SE,56.4810458,16.4238587,bitcoingalleriet.se,Facility
SE,59.3435504,18.89504,59north18east.com,Facility
SE,59.3121698,18.0795999,symbiossthlm.se,Facility
SE,57.7255839,12.9461113,lditservice.com,Commerce
SE,59.3127094,18.0782198,swahilibobs.com,Facility
SE,59.3002362,17.9939017,transitsthlm.se,Commerce
SE,59.5342731,18.0787525,ellenscorner.se,Commerce
SE,63.859939,20.3015971,porsche-umea.se,Unknown
SE,60.6601793,17.1801975,gastrikeatervinnare.se,Facility
SE,59.3517695,18.0051189,pixelsolna.se,Facility
SE,59.3359856,18.031896,bellavista.nu,Facility
SE,58.3477986,16.7048017,sanktannaresort.se,Facility
SE,63.8279886,20.2655348,perssonsgarn.se,Commerce
SE,59.3547801,18.1019585,akupunkturyang.se,Facility
SE,59.3266147,18.0730777,livrustkammaren.se,Facility
SE,59.3111877,18.0254667,musikgymnasiet.se,Facility
SE,61.0538948,14.4886554,myrangsgarden.se,Facility
SE,56.1180099,13.8253678,tykarpsgrottan.net,Facility
SE,57.7043528,11.9619594,magasinsgatan5.se,Facility
SE,59.2802499,18.1088001,pulsochtraning.se,Facility
SE,58.3940867,15.5594806,syspartner.se,Commerce
SE,55.3981976,12.863371,falsterboresort.se,Facility
SE,60.4962453,16.6751841,arsundaislandshastcenter.se,Facility
SE,59.2998991,18.2580707,theoldsmokehouse.se,Facility
SE,59.3085337,18.08019,skanstulls.se,Facility
SE,59.310039,14.0936215,anetteuhlin.com,Facility
SE,64.7541996,20.9590955,hotell-stensborg.se,Facility
SE,58.9073545,15.2012211,krogensomintefinns.se,Facility
SE,59.3120255,18.076833,cafeblalotus.nu,Facility
SE,58.5686366,11.3613753,widengarden.se,Facility
SE,59.3172611,18.0631482,kanslaochsmak.se,Commerce
SE,57.7131052,12.9476318,borasbargning.se,Commerce
SE,57.7494849,12.1762845,poppelsolochmat.se,Facility
SE,59.3138035,18.0652174,opizzicato.se,Facility
SE,55.5681304,12.9764467,flowhyllie.se,Commerce
SE,59.0684962,15.101819,bilcenterab.com,Commerce
SE,55.6738055,13.0709197,highersense.se,Facility
SE,59.4127288,18.4963233,cafesjostugan.se,Facility
SE,59.5942943,16.6258317,flygmuseum.com,Facility
SE,62.6408513,12.4243321,bruksvallarnas-fjallhotell.se,Facility
SE,56.3053525,14.1365924,greater-copenhagen.net,Commerce
SE,59.3149532,18.0440955,zinkensdamm.com,Facility
SE,59.3268944,18.0436286,norrmalarstrandsblommor.se,Commerce
SE,59.3616637,17.873289,soderlingsfrisersalong.se,Facility
SE,64.5537178,18.7169057,sverigetravet.se,Facility
SE,59.337091,18.0426248,bonnierskonsthall.se,Facility
SE,57.89568,11.4663792,paternoster.se,Facility
SE,55.560601,13.7128259,snogeholmsslott.se,Facility
SE,59.2599604,17.9747837,deli-italia.se,Facility
SE,59.3124587,18.0762586,helenaskolling.se,Commerce
SE,59.2780961,18.0061133,skyttesbarkok.se,Facility
SE,56.4245185,13.7677892,karloskargarden.se,Commerce
SE,59.3481366,18.0318185,hagabottega.se,Facility
SE,59.1477189,15.1157448,klubbenonline.se,Facility
SE,65.8367843,24.1412898,rivermotell.com,Facility
SE,57.7356747,12.9501815,musiklagret.se,Commerce
SE,57.9352547,11.5834186,tjornshavspensionat.se,Facility
SE,65.5995555,22.1509226,koksverket.se,Facility
SE,55.5935484,13.0101707,malmomuaythai.se,Facility
SE,57.7163247,11.7890444,lillaspisbutiken.se,Commerce
SE,55.7006174,13.1947758,sprakbokhandeln.se,Commerce
SE,55.6319326,13.7020604,mollanscafe.se,Commerce
SE,57.8770059,13.3290478,knalten-eko.se,Commerce
SE,59.3069108,18.078063,sfantikvariatet.se,Commerce
SE,55.5821321,12.9289167,bistrostella.se,Facility
SE,58.8673819,15.3771458,logistikpartner.se,Commerce
SE,57.2377671,17.0710578,bodahamnscamping.se,Facility
SE,59.3628247,18.0214582,alsasakerhet.se,Unknown
SE,59.3214165,18.0592459,rygerfjord.se,Facility
SE,64.7505037,20.9532421,hotelvictoria.se,Facility
SE,60.6806947,17.1674254,akternochforen.se,Facility
SE,59.1750062,14.8590861,sannabadet.se,Facility
SE,65.5846504,22.1435626,hemmagastronomi.se,Facility
SE,59.3340109,18.016108,mormorspasta.se,Facility
SE,59.317221,18.0723804,creperiefyraknop.se,Facility
SE,63.5815903,19.4479594,olofsforsbruk.nu,Facility
SE,60.8927866,15.0961739,stiftsgardenrattvik.se,Facility
SE,55.7806243,14.1978612,rigelejestrand.se,Facility
SE,55.5824364,12.9893966,malmolyftarklubb.se,Facility
SE,59.8380245,17.6350589,kvarteretrosendal.se,Commerce
SE,58.4108244,15.622786,skapalinkoping.se,Facility
SE,55.7042663,13.1885897,singsingkaraoke.com,Facility
SE,63.7806611,13.8206217,jansmassholmen.se,Facility
SE,58.3301443,11.9031023,gustafsberg.se,Facility
SE,55.7031284,13.1977784,lundsfontanhus.se,Facility
SE,59.8572509,17.6363486,masterarnes.se,Commerce
SE,55.6358303,13.518333,mossagarden.se,Unknown
SE,58.5337026,15.0386203,hamnkrogenmotala.se,Facility
SE,65.5847587,22.1495015,kebab-huset.se,Facility
SE,56.6747484,12.8522102,kinnohashi.se,Facility
SE,59.3246971,18.068313,soundpollution.se,Commerce
SE,57.6907189,11.9300714,ekobestallarna.se,Commerce
SE,57.7122445,12.0058951,antica-roma.se,Facility
SE,58.0245916,13.566915,korskyrkanasarp.se,Facility
SE,63.8337468,20.3277584,fatimasushibar.se,Facility
SE,58.6850545,11.2576031,grebbestad-bryggeri.se,Commerce
SE,57.699077,11.964335,teositalienskakok.se,Facility
SE,59.31677,18.0441014,stockholmshem.se,Commerce
SE,56.8579492,14.8227144,tandvardenteleborg.se,Facility
SE,60.5502699,15.0800672,gagnefsflygklubb.se,Unknown
SE,59.5061981,11.8477758,granshotellet.se,Facility
SE,59.6045482,17.8826145,arlandastadgolf.se,Facility
SE,59.6984076,18.4034294,nystromscement.se,Commerce
SE,55.6592477,14.2332799,bondensskaffeributik.se,Facility
SE,58.6006892,16.1753404,turistgarden.se,Facility
SE,59.2567581,18.0813965,kollektivetihokis.se,Facility
SE,59.393703,17.9033027,tenstakonsthall.se,Facility
SE,56.9325994,12.5220265,cykelmagneten.com,Commerce
SE,56.1620804,15.5917907,montmartre.se,Facility
SE,57.9407999,11.8189234,solrosen-kode.se,Facility
SE,56.168857,15.284092,karobolaget.se,Facility
SE,57.7228964,13.1061768,sasongsbagarn.se,Commerce
SE,59.2572671,18.0274713,nyaragsvedsfolketshus.se,Facility
SE,56.1736447,14.8590985,karlshamnsmuseum.se,Facility
SE,55.4302032,13.8629744,beachhouseystad.se,Facility
SE,59.3914729,13.4782129,bilcenterkd.se,Commerce
SE,59.1894171,17.5705003,axasportscenter.se,Facility
SE,59.3221448,18.073922,larssonkorgmakare.se,Unknown
SE,61.0220688,14.5910111,morabryggeri.se,Commerce
SE,56.0810653,12.7053852,bagenmariapark.se,Facility
SE,58.4821924,16.3199723,kroonshalsa.se,Facility
SE,55.5678365,12.952738,hyllieparkfolkhogskola.se,Facility
SE,57.6697355,11.8499109,viktoriahallenius.com,Facility
SE,55.7172936,13.3450481,hairtrendbylinna.se,Facility
SE,59.3153733,18.0717469,mediskokochbar.se,Facility
SE,59.2564956,17.8650624,plastbearbetning.se,Unknown
SE,57.7036089,11.9688719,strangergbg.com,Facility
SE,59.4020523,18.3536362,winbergs-vaxholm.se,Facility
SE,56.17629,14.7781136,kakeloklinker.se,Unknown
SE,59.5335647,18.0842651,sportsclubvallentuna.se,Facility
SE,57.3222067,15.1561801,bengtssons.com,Commerce
SE,58.8900675,17.946666,nynashavsbad.se,Facility
SE,59.4675466,17.8141121,badrumsrenovering.nu,Commerce
SE,59.3294992,18.0402008,gallerilorentzon.com,Commerce
SE,63.6381223,19.9114724,frendohornefors.se,Facility
SE,60.6172977,15.6196133,majakliniken.se,Facility
SE,57.7490026,11.915026,toleredutby.se,Facility
SE,59.296433,15.204329,eurostoporebro.se,Facility
SE,57.9493575,11.5668015,lottasbakoform.se,Facility
SE,59.460248,18.3163704,oscarssonwall.se,Facility
SE,57.1735317,12.2888254,toftabygdegard.se,Facility
SE,59.6362818,16.5379245,hemtillgarden.se,Facility
SE,60.0757901,15.229636,lagertappan.se,Unknown
SE,57.6987515,11.9454016,goteburgare.com,Facility
SE,55.7148578,13.2164323,smakapakina.se,Facility
SE,59.5729716,16.3955698,avloppscenter.se,Unknown
SE,55.6930664,13.1787952,klostergardapotek.se,Commerce
SE,57.7780921,14.1583465,tandooripalace.se,Facility
SE,55.6037459,13.0285006,spelenshus.se,Facility
SE,57.707755,11.9750536,skonhetsfabriken.se,Facility
SE,59.3089594,18.0913165,onspotstory.com,Commerce
SE,58.3948533,15.5614184,restauranghusman.se,Facility
SE,59.3061533,17.9975847,barlibertin.se,Facility
SE,58.7710966,17.0039083,stenbrosalonger.se,Facility
SE,61.8295957,16.1170894,slottegymnasiet.se,Facility
SE,56.1821249,15.6052828,regionblekinge.se,Facility
SE,59.327468,18.1148348,rosendalstradgard.se,Facility
SE,63.8105268,20.2683373,grannamatbar.se,Facility
SE,56.2456937,12.863395,popengelholm.com,Facility
SE,57.7271364,16.5208222,tfllicenssvets.se,Commerce
SE,59.301094,18.0069063,pitaiparken.se,Facility
SE,59.3803376,13.5028991,baronkarlstad.se,Facility
SE,59.4031724,17.9445165,kistagalleria.se,Commerce
SE,59.3550978,18.1001273,shinerelax.com,Facility
SE,59.3390934,18.0676341,barcentral.se,Facility
SE,59.2162113,17.936944,umthaisushi.se,Facility
SE,59.2018289,17.6207312,tt-sektionen.se,Facility
SE,58.4122634,15.6281494,restaurangbutterfly.se,Facility
SE,67.8602772,20.223715,hotelarcticeden.se,Facility
SE,55.9986405,13.0890676,kagerodspizzeria.se,Facility
SE,59.2544839,15.2498899,radiocampus.se,Unknown
SE,58.5373101,14.5043859,hotellrodesund.se,Facility
SE,59.3346405,18.0737569,engelbertstockholm.com,Commerce
SE,57.7035671,13.0678575,dalsjöfors.com,Commerce
SE,56.4117553,16.0027304,tuppentorsas.se,Facility
SE,62.8510013,12.7904721,ljungdalenshemslojd.se,Unknown
SE,55.6824898,14.2353856,cafesagmollan.se,Facility
SE,57.681393,11.9084034,beerbliotek.com,Commerce
SE,55.60877,13.000635,bistroroyal.se,Facility
SE,61.1178262,14.6249406,orsatraningscenter.se,Facility
SE,59.3622355,17.8753832,marqetstores.se,Commerce
SE,59.3237409,18.0725677,estniskaskolan.se,Facility
SE,62.0941993,12.3095616,grovelsjonfjallbageri.se,Commerce
SE,57.7078494,11.9642703,nyalanthandeln.se,Commerce
SE,59.7211324,17.7917254,greatplate.se,Facility
SE,57.6815014,11.9061233,medborgarskolan.se,Facility
SE,56.0430784,13.2573305,pensionatsoderasen.se,Facility
SE,55.6585577,14.1960862,alboharadshembygdsfor.se,Unknown
SE,59.3552845,17.96138,konradssons.com,Unknown
SE,59.3237127,18.0729761,xn--cyklanderrmokaren-7zb.se,Commerce
SE,60.4870364,15.4343819,freaksrestaurants.se,Facility
SE,60.6112688,16.6031404,gestrikeantennservice.com,Unknown
SE,59.337898,18.0601228,adolffredrik.se,Facility
SE,59.3100886,18.03051,nidacatering.com,Facility
SE,63.3986106,13.0746473,holidayclub.se,Facility
SE,59.3185396,18.0712722,oldbeefeaterinn.com,Facility
SE,68.4250592,18.1611808,katterjokk.nu,Facility
SE,59.2421105,18.2844821,linnea-andrae.se,Facility
SE,59.3385555,18.0361164,totemoramen.com,Facility
SE,59.6556675,12.5899096,helloindia.se,Facility
SE,58.5891541,16.1800731,arbetetsmuseum.se,Facility
SE,59.3309127,18.044465,spisahoshelena.se,Facility
SE,63.8379242,20.1599913,umedalenskulptur.org,Commerce
SE,56.1704548,14.8602237,brasseriefridolf.se,Facility
SE,64.7721101,19.2431827,lotta-holmgren.com,Commerce
SE,57.1594028,14.0795199,padelcourt9.se,Facility
SE,57.34147,18.7178683,semesterby.se,Facility
SE,59.0382365,16.8579868,preppyride.com,Facility
SE,62.4157067,16.5693158,stodecamping.com,Facility
SE,59.3388351,18.0752872,olbydesign.se,Commerce
SE,59.338631,18.0058529,saltapizza.se,Facility
SE,57.6897003,11.9125673,juliescafe.se,Facility
SE,61.0048919,14.540932,korsnasgarden.se,Facility
SE,55.5919219,13.4699206,frisksportmalmo.se,Facility
SE,59.3088922,15.18557,restaurangksara.se,Facility
SE,64.1081655,16.1748445,ivarsbilmuseum.se,Facility
SE,55.4288692,13.8183955,lecardinal.nu,Facility
SE,59.3672881,17.9956962,svenskathaiwok.com,Facility
SE,58.4094417,15.6207693,citatvinochmat.se,Facility
SE,56.8994232,12.4907322,pizzerialacasa.se,Facility
SE,59.598942,15.2238635,msrasvalen.se,Unknown
SE,56.5077979,13.0429217,visitlaholm.se,Facility
SE,59.3307953,17.9473003,effekttraning.se,Facility
SE,59.8638128,17.6251479,luthagendoktor.com,Unknown
SE,57.7151225,11.9990632,hjalpredan.se,Commerce
SE,59.3366022,18.07204,coquetelsocial.se,Facility
SE,58.4414623,14.8790264,starbyhotell.se,Facility
SE,60.5408365,16.2232875,edskencamping.se,Facility
SE,56.878119,14.806415,youhaircare.se,Facility
SE,57.8391231,12.298828,missionskyrkangrabo.se,Facility
SE,55.5854722,13.0503512,rosengardskliniken.se,Facility
SE,55.709465,13.2080198,helsingkrona.se,Facility
SE,57.024789,16.4312964,kvalitetsgodis.se,Commerce
SE,65.5862133,22.1601427,entrappaupp.se,Facility
SE,58.7539634,17.019177,nanoarkitekt.se,Unknown
SE,57.6391241,12.0185889,santamariaworld.com,Commerce
SE,59.3984722,17.9840261,pelicanselfstorage.se,Commerce
SE,58.3248498,12.1215248,uaslektforskare.se,Facility
SE,57.720081,12.9446061,citysnabbtvatt.com,Facility
SE,63.9085175,19.7338051,vannasmotormuseum.se,Facility
SE,59.8487721,17.6585353,konstantinopel.se,Facility
SE,59.4342944,15.5899974,fellingsbromekaniska.se,Commerce
SE,64.5960738,18.6757753,lyckselebokhandel.se,Commerce
SE,55.7158329,13.212119,ksektionen.se,Facility
SE,57.9370654,16.4614474,lofta-caffe.com,Facility
SE,59.3404491,18.009397,ponghornsberg.se,Facility
SE,55.6066442,13.0356165,stromsbilverkstad.se,Commerce
SE,59.3388573,18.0553459,tuttobello.se,Facility
SE,59.3150728,14.1075287,park-hotell.nu,Facility
SE,59.6161776,17.7214143,tantbrun-sigtuna.se,Facility
SE,57.4104547,15.6179377,smalandsinredningar.se,Commerce
SE,59.25145,14.4595,degernascamping.se,Facility
SE,59.3149475,18.0695434,stavrostaverna.se,Facility
SE,59.1982366,17.6195055,liliangylin.se,Facility
SE,57.2650253,16.4381045,shalommission.se,Facility
SE,58.4064633,15.6509863,krubbstugan.se,Facility
SE,57.2328287,12.2109705,tammyskeramik.com,Commerce
SE,58.9038331,17.6704263,jarnabatklubb.se,Commerce
SE,65.5837654,22.1519978,bengts-mensfashion.se,Commerce
SE,57.5839342,11.9440325,systrarnawerner.se,Facility
SE,59.6577696,17.5952267,smulteberg.se,Unknown
SE,56.5098007,14.7159505,blidingsholm.se,Facility
SE,55.7029597,13.1903931,mediterranean.se,Facility
SE,59.8544406,13.7076087,thegreenhousesunnemo.se,Facility
SE,55.7175817,13.2326625,brunnshogpizzeria.se,Facility
SE,58.5797047,16.1491579,johannesskolan.se,Facility
SE,55.5619241,12.9546534,mossangens.se,Commerce
SE,57.6664375,15.8559604,ramonstapasbar.se,Facility
SE,57.6473592,14.9508563,hagelsrumsbiogas.se,Commerce
SE,61.228755,14.0375156,hotellalvdalen.se,Facility
SE,55.8824768,14.2298197,kastanjelund.se,Facility
SE,59.5910163,15.2263367,lindesbergsstadshotell.se,Facility
SE,59.4493876,13.4515613,almarskrog.se,Facility
SE,55.5966885,12.9998272,plantthatplant.com,Commerce
SE,61.272531,16.9935588,erik-anders.se,Unknown
SE,55.6694432,13.0673072,lommafolketshus.se,Facility
SE,59.3303901,18.050386,kungsantik.com,Commerce
SE,55.4534568,14.2587499,gamlabageriet.se,Commerce
SE,59.1866501,17.6107643,vastergardspizzeria.se,Facility
SE,58.4118707,15.6266698,melinscafe.se,Facility
SE,56.0482727,12.691432,nestle-nordic.com,Facility
SE,57.6693781,14.969432,restaurangbroneksjo.se,Facility
SE,57.7035373,11.9678919,storasaluhallen.se,Commerce
SE,59.7342821,17.015915,gyllenebrunnen.se,Unknown
SE,60.4550782,15.4950235,sahlinsstruts.se,Commerce
SE,59.8573857,17.6404891,unofikabutik.se,Facility
SE,59.3356294,18.0309241,stockholmhostel.se,Facility
SE,59.2780027,15.2118505,restauranghanoi.se,Facility
SE,63.1778465,14.6373735,tecentralen.se,Commerce
SE,59.3408571,18.0466738,nischrestaurant.com,Facility
SE,57.3333506,18.7119407,strandcafe.se,Facility
SE,58.5395181,15.01517,wahlstedtsbil.se,Commerce
SE,59.1201747,18.304794,karlslundsmarina.com,Facility
SE,56.3948854,14.2497465,svartabergen.nu,Facility
SE,58.9008334,17.9523911,nynasrokeri.se,Facility
SE,65.5819391,22.150596,behandlingscentret.se,Facility
SE,60.4803603,15.4415967,dalasolenergi.se,Commerce
SE,64.5961327,18.6762195,budhaskafferosteri.se,Facility
SE,57.1838902,14.0305817,babylonvarnamo.se,Facility
SE,65.0920716,17.1075751,fiskehornan.com,Commerce
SE,59.331751,18.0436534,uffeolottas.se,Facility
SE,59.3125698,18.0653853,activagecenter.com,Facility
SE,59.2634588,18.0415416,hogdalskyrkan.se,Facility
SE,62.5174162,17.3837884,bergeforsparken.se,Facility
SE,57.6551932,12.0123649,steinbrenner-nyberg.se,Commerce
SE,59.3060783,18.0356973,pontesimone.se,Facility
SE,59.3424744,18.05794,organicgreen.se,Facility
SE,57.6665269,12.0103252,swedenfashionhouse.com,Commerce
SE,55.6156754,13.0206415,digitaliseum.org,Facility
SE,59.6064662,16.5445905,vasteras-slott.se,Facility
SE,59.2393552,14.4084461,visitkarlskogadegerfors.se,Facility
SE,63.8307619,20.2629621,gaochlopkliniken.se,Commerce
SE,58.4206427,15.6066743,restaurangviktor.se,Facility
SE,58.3951975,13.8522179,fotocenter.se,Commerce
SE,59.6218875,16.5362276,orgilsushi.com,Facility
SE,57.4882629,12.0768946,husmaklaren.se,Commerce
SE,60.3996071,15.6366987,gustafskorv.se,Commerce
SE,59.8196248,17.7010587,campuslinne.se,Facility
SE,66.6048351,19.7640144,jokkmokkguiderna.com,Commerce
SE,65.0959525,17.112795,ruccolastoruman.se,Facility
SE,63.3257101,14.4706971,byggnadssnickerier.com,Commerce
SE,59.2898007,18.160798,hellasstorstugan.se,Facility
SE,58.7525645,17.0142514,espanatapas.se,Facility
SE,64.0594455,15.3662477,nordichuskyfarm.com,Facility
SE,59.3092346,18.0160709,liljeholmensstadshotell.se,Facility
SE,63.4006172,13.0794138,broken-are.com,Facility
SE,56.161976,15.5892524,restaurangmichelangelo.se,Facility
SE,57.7007636,11.9491578,grandfitness.se,Facility
SE,59.0836157,16.8269323,sparreholmsslott.com,Facility
SE,59.3366937,18.0822749,bap-burgersandpastrami.se,Facility
SE,55.5925616,13.0082042,farinamalmo.se,Commerce
SE,59.6027513,16.5500021,pramenvasteras.se,Facility
SE,62.8089681,17.9408726,bjorkudden.se,Facility
SE,59.774596,17.7766186,shkuppsala.com,Facility
SE,59.3095874,18.0223653,liljeholmstorget.se,Commerce
SE,55.6892305,13.2338029,rosatornetilund.se,Facility
SE,59.3398418,18.0841467,halvgrekplusturk.se,Facility
SE,55.5564289,14.3490721,peterenglander.se,Unknown
SE,59.7673508,19.0324337,radmansobygdegard.se,Facility
SE,59.3092122,18.0660017,wsiestetica.com,Facility
SE,55.537353,14.1178289,gyllengarden.com,Facility
SE,55.5823811,12.9316951,crustpizzalab.online,Facility
SE,62.5922816,12.1864644,fjallnascamping.com,Facility
SE,57.1497944,15.7373112,hojdensmejeri.se,Commerce
SE,57.7077494,11.9618657,olrepubliken.se,Facility
SE,59.3183614,18.0595074,gamla-amsterdam.se,Commerce
SE,59.2375102,18.0114819,stuvstamopedservice.com,Commerce
SE,59.6538346,12.5921559,paennsthai.se,Facility
SE,56.87229,16.6721033,guntorpsherrgard.se,Facility
SE,59.3346122,18.0771543,nordiskagalleriet.se,Commerce
SE,55.5897772,12.9837479,monopolyfanclub.com,Facility
SE,59.8908064,17.6533358,nasstrommaskin.se,Commerce
SE,60.4961162,15.4383025,tunahembygd.se,Facility
SE,57.693799,11.9894335,bombaystreet.se,Facility
SE,56.1190508,14.6907293,norjebokecamping.com,Facility
SE,58.125753,11.71565,orustsparbank.se,Facility
SE,59.6736227,14.8108502,nyhyttanskurort.se,Facility
SE,55.6094667,13.0318547,saarisskradderi.se,Commerce
SE,56.5203345,12.9484443,mellbystrands.se,Facility
SE,55.7183843,13.2259824,cabellobeauty.se,Facility
SE,55.9233533,14.0925783,skydiveskane.se,Facility
SE,55.9217101,14.2950624,ahusgastis.com,Facility
SE,59.2951867,18.2599718,leksaksmuseet.se,Facility
SE,59.325888,17.9997257,lillaessingebk.se,Unknown
SE,55.8705021,12.8336921,restaurangbasilika.se,Facility
SE,57.7117333,11.945498,uni3bygeely.com,Unknown
SE,57.326626,18.5598177,scharpkeramik.se,Commerce
SE,57.7015336,11.983045,pizza-meny.se,Facility
SE,60.0713165,17.6222033,vikstatraktor.se,Facility
SE,58.4102764,15.6295099,clarascoffee.se,Facility
SE,60.6354582,15.5967222,falustenhuggeri.se,Commerce
SE,55.7013704,13.1411394,reformfurniture.se,Commerce
SE,57.7450329,12.1712075,paxetbonum.se,Facility
SE,57.734775,18.6130091,gotlandsforsvarsmuseum.se,Facility
SE,65.7565796,23.4022972,nordiclapland.com,Facility
SE,56.7213537,13.1265133,mountainbikinginhalmstad.com,Facility
SE,59.3165413,18.0808169,freeleaguepublishing.com,Commerce
SE,61.6241226,12.6775262,rosjostugorna.se,Facility
SE,57.6563316,12.0162063,gamlabeirut.se,Facility
SE,56.0002257,12.7425712,christianandersson.net,Commerce
SE,59.3002655,18.052707,kulturkrabaten.se,Facility
SE,63.1662342,13.0605673,valagarden.se,Facility
SE,57.2496758,17.062172,bodariviera.se,Facility
SE,63.8362371,20.2447652,banthaiumea.se,Facility
SE,63.1833333,17.0544048,langselecamping.se,Facility
SE,57.665942,14.9790283,cykelsmedjan.com,Commerce
SE,59.8471516,17.633947,leijonhufvuds.se,Commerce
SE,59.3033697,18.0998276,allekokbar.se,Facility
SE,59.3229268,18.07471,docksidehostel.se,Facility
SE,57.6637361,11.9314606,raddningsmissionen.se,Commerce
SE,59.8581548,17.6366086,gallerilondon.se,Facility
SE,55.7039649,13.1979013,lundmediagroup.se,Facility
SE,57.6665967,11.9398428,hundenshus.se,Facility
SE,55.3386259,13.3526664,smygehukhostel.com,Facility
SE,59.3363538,18.0761169,cashmerestockholm.se,Commerce
SE,59.3651537,17.9943728,rootssthlm.com,Facility
SE,63.8274903,20.2611116,sagolikating.se,Commerce
SE,59.3647725,18.1295523,lidingobrod.se,Commerce
SE,58.9098027,11.1097108,styrsovandrarhem.se,Facility
SE,58.479074,16.4137927,kanalmagasinet.se,Facility
SE,58.3488956,11.9425293,minminsushi.com,Facility
SE,57.4755081,15.0342821,ekenasmekaniska.se,Commerce
SE,59.314531,18.0666007,hellstromsbar.com,Facility
SE,59.3321012,17.9744164,pizzeria-vedugnenialvik.se,Facility
SE,56.0462424,12.6987981,sweetandtender.com,Commerce
SE,59.3222505,18.1487001,thielska-galleriet.se,Facility
SE,55.5677386,13.0498097,handelsboden.com,Commerce
SE,59.3955646,18.0850614,mittag-leffler.se,Unknown
SE,64.6171542,21.1813188,bureacamping.se,Facility
SE,60.7754152,16.7287363,medskogssjon.se,Facility
SE,55.7019592,13.1899299,ladonnabirgitta.se,Facility
SE,57.9882639,15.6346495,skonvidbron.nu,Commerce
SE,59.9025851,17.0868452,vittingeparken.se,Facility
SE,59.3332768,18.0326549,kungsholmensbowling.se,Facility
SE,60.6067088,15.6300421,dalarnadesign.se,Commerce
SE,59.3020127,18.0082047,telluspizza.com,Facility
SE,56.0440854,12.7118135,stclemensforskola.se,Facility
SE,59.3424632,18.0414278,yangstudios.se,Facility
SE,56.0400094,12.7035372,helsingborgsvandrarhem.com,Facility
SE,59.8546305,17.6394577,konditorifagelsangen.se,Facility
SE,56.2780488,14.527212,renatesbageri.se,Facility
SE,59.3763286,18.0132944,jm-entreprenad.se,Commerce
SE,58.8386747,13.9788258,sjötorpsvandrarhem.se,Facility
SE,59.6112145,16.5482526,laxmiindisk.se,Facility
SE,67.6945729,21.6219832,vittangiturism.se,Facility
SE,59.3797182,13.4990994,novakarlstad.se,Facility
SE,55.5893972,12.9606589,fairplaytk.se,Facility
SE,59.3341476,18.0644117,stockholmkonst.se,Commerce
SE,58.5813952,16.2188741,zetterblombil.se,Commerce
SE,59.3125997,18.4324553,kananmarin.se,Commerce
SE,55.5904997,13.0289699,branteviksgruppen.se,Commerce
SE,59.3498418,18.0462908,skolinspektionen.se,Facility
SE,56.2045809,15.2874958,kullbergsbygg.se,Commerce
SE,58.4115446,15.6362566,serieborsen.se,Commerce
SE,61.7996198,16.5704627,delsboveterinarpraktik.se,Commerce
SE,56.1434178,12.5777017,mavi-viken.se,Facility
SE,55.9750104,12.859845,borstbutik.se,Commerce
SE,59.3332752,18.2065485,katthemmet.nu,Commerce
SE,59.3453306,18.0530238,sveatandklinik.se,Facility
SE,60.1396748,15.4127478,hattkalles.se,Facility
SE,63.3943051,12.9331959,fjallporten.se,Facility
SE,60.5504567,15.2226628,dalarnarivercamp.se,Facility
SE,59.8746515,17.6245887,tunasalong.se,Facility
SE,57.6995908,11.9369318,massageterapeuten-gbg.se,Facility
SE,59.3177878,18.0526453,tribunalen.com,Facility
SE,61.7290588,17.1019776,hotellhudik.se,Facility
SE,57.2102312,14.4470899,lindoecamping.com,Facility
SE,56.8773696,14.8070181,baraaithaimassage.se,Facility
SE,62.9110956,18.3035357,mannaminne.se,Facility
SE,65.197587,17.6509942,lapplandsdrag.com,Unknown
SE,59.4174135,18.3143421,kanotcenter.com,Unknown
SE,56.0523341,12.7026369,slottshojdens.se,Facility
SE,59.5257457,17.9147067,vasbykonsthall.com,Facility
SE,59.3593542,17.2072027,printzbageri.se,Facility
SE,57.7328855,12.0776907,gillisedman.se,Commerce
SE,58.5415378,15.3252362,brunnebymusteri.se,Commerce
SE,59.3357738,18.0511503,hilmastockholm.com,Facility
SE,58.4447909,14.8823333,slottsgarden.se,Facility
SE,61.7255748,15.1694512,gammeltomten.se,Facility
SE,59.868521,17.6293867,latitude-59.se,Facility
SE,64.0469045,19.9129289,glassbonden.se,Commerce
SE,56.881233,14.7759904,idrottshuset.se,Facility
SE,63.3749625,19.1971064,grundsundahbf.se,Facility
SE,59.3495596,18.0566695,hoppetossa.com,Facility
SE,59.3417673,18.0390962,paniqescaperoom.se,Facility
SE,60.6050181,15.6339267,ateljefiori.se,Commerce
SE,58.3003312,13.1835123,kvanumsfamiljetandvard.se,Facility
SE,59.3688666,17.858605,siggecykel.se,Commerce
SE,59.2812944,18.4204137,angsblomman.se,Facility
SE,56.8282581,13.9229876,minivarlden.se,Facility
SE,59.3462388,18.0617382,lennartochbror.se,Facility
SE,59.3378707,18.08006,nybrogatan38.com,Facility
SE,58.334198,15.2242482,opennewdoors.se,Facility
SE,59.3178529,18.0713171,greenlaces.se,Commerce
SE,56.4327821,12.8357756,bistrogrodlar-timjan.se,Facility
SE,55.7083331,14.0084945,hallamolla.se,Facility
SE,59.2726191,15.2119568,rst-hellas.se,Facility
SE,60.5069543,14.8248017,flodaforsfarare.se,Unknown
SE,62.2948048,17.4485677,juniskarsbatklubb.se,Facility
SE,55.608142,12.9935238,vastrastation.se,Facility
SE,56.6259026,14.9547636,vackelsang.se,Unknown
SE,61.0058182,14.5391941,kakochplock.se,Facility
SE,56.7676707,12.6291704,kuststationen.se,Facility
SE,63.3303521,14.4721938,norratimber.se,Commerce
SE,60.6762533,17.1504906,jarnvagskrogen.se,Facility
SE,57.3282841,17.0106418,annasstalle.com,Facility
SE,66.104543,21.5830355,diesibirischen.de,Facility
SE,57.464935,15.1722996,hedstromsmotor.se,Unknown
SE,58.1848433,11.8137423,rodetsgard.se,Commerce
SE,59.2221561,17.9600336,crossfitpassagen.se,Facility
SE,59.1984992,17.8355126,botkyrkapingst.se,Facility
SE,59.3158165,18.083888,eightrooms.se,Facility
SE,57.7139118,12.9487596,brunswickbowling.com,Facility
SE,59.3357676,18.0712249,surfersstockholm.se,Facility
SE,57.6564296,12.0156629,lillafilur.se,Commerce
SE,59.3253513,18.0693965,deckarbokhandeln.com,Commerce
SE,59.3391559,18.0544983,belgobarensbakficka.se,Facility
SE,59.5118638,18.0664127,kristorante.se,Facility
SE,59.2442532,17.2395796,kafeklaver.se,Facility
SE,55.7058127,13.7891014,byn-creperie.se,Facility
SE,55.4272664,13.8496896,villastrandvagen.se,Facility
SE,59.3180314,18.0412736,kristinehovsmalmgard.se,Commerce
