country,lat,lon,website,place_type
NL,53.1388429,6.2109265,bosparktrimunt.nl,Facility
NL,51.6252482,4.8447451,basisschoolmenorah.nl,Facility
NL,52.3793226,6.8191317,vcfleringen.nl,Facility
NL,50.8496166,5.7007964,harrysrestaurant.nl,Facility
NL,52.0677751,5.2017476,suzannesvoetzorg.nl,Facility
NL,52.3351845,5.6177868,cbsdewegwijzerhw.nl,Facility
NL,52.0911381,4.3051355,finehotelsandsuites.com,Facility
NL,50.8531521,5.685101,vivelevelo.org,Commerce
NL,52.4023003,4.6218633,bornwaterschool.nl,Facility
NL,52.6743417,6.2590262,dehavixhorst.nl,Facility
NL,53.279633,6.1479323,tikokinderopvang.nl,Facility
NL,52.3626837,4.8638484,stomerijsupervorm.nl,Commerce
NL,52.0237923,4.2179125,trendyhairkappers.nl,Facility
NL,52.3218807,4.6734114,sintmaartengroep.nl,Facility
NL,51.9420781,5.9197093,huisartsbroens.nl,Facility
NL,52.2839635,5.9589037,krugerstee.nl,Facility
NL,51.9282017,4.3487396,xs2passerelle.nl,Commerce
NL,53.0665731,5.5688863,automobielbedrijfjaarsma.nl,Commerce
NL,53.1856995,5.7724733,eethuisdelorentz.nl,Facility
NL,51.3673908,5.2182247,outfitzbyzoe.nl,Commerce
NL,52.035102,6.6310741,havezatemarveld.nl,Facility
NL,52.4985065,5.0531739,delisnacks.nl,Facility
NL,51.8468486,4.4964032,shoarma-carnisse.nl,Facility
NL,52.1638152,4.4889647,vanleeuwen-tandartsen.nl,Facility
NL,51.9572653,5.5678404,bonsaisushi.nl,Facility
NL,52.0449387,5.3540851,helenaheuvel.nl,Facility
NL,52.8833631,7.0496163,talentemployment.nl,Commerce
NL,52.2529077,6.1596601,restaurantnuchter.nl,Facility
NL,51.7091581,4.7049119,kaatjeskapsalon.nl,Facility
NL,52.0804999,5.1124928,restaurantdebrandingutrecht.nl,Facility
NL,52.4802216,5.5311616,swifterkamp.nl,Facility
NL,52.9411972,6.6046824,hetamerveld.nl,Facility
NL,51.954553,4.5660346,vloerhetzelf.nl,Commerce
NL,52.0288082,4.2827722,wateringseveldcollege.nl,Facility
NL,52.3579216,4.8906578,cafeberkhout.nl,Facility
NL,52.1453393,5.3917483,huisartsenamersfoortzuid.nl,Facility
NL,52.2018733,4.393113,knipboetiekvanzuilen.nl,Facility
NL,52.2505221,6.2844796,deheerenvandorth.nl,Facility
NL,52.5148272,6.1204406,zelfstandigmetzorg.nl,Commerce
NL,52.9949627,6.5640137,marktvanassen.nl,Commerce
NL,52.1077293,6.2989632,piekzweverink.nl,Facility
NL,52.0274565,4.7012929,destartbaangouda.nl,Facility
NL,52.6976352,5.2346942,vivantwinkels.nl,Commerce
NL,52.0121277,4.3706145,vissenasiel.nl,Facility
NL,52.241584,7.0304259,concordia-overdinkel.nl,Commerce
NL,51.884977,4.466254,hpc-charlois.nl,Facility
NL,52.1397959,5.0390932,wijngenotenmaarssen.nl,Commerce
NL,52.0128843,4.359954,mekhongdelft.nl,Facility
NL,51.8551883,4.5392319,fr-body-art.nl,Facility
NL,52.0076484,4.7019427,filmhuisgouda.nl,Facility
NL,52.2172847,5.1940939,hummelingschool.nl,Facility
NL,52.3788732,4.8521056,mannenkapper-keesbregman.nl,Facility
NL,52.4839012,4.6663482,bakkerijschoone.nl,Commerce
NL,52.0129925,4.3575995,logesilentium.nl,Unknown
NL,51.994965,4.3726873,delftlacrosse.com,Facility
NL,51.8333063,4.3438192,restaurantmaxima.nl,Facility
NL,52.3200331,5.5417629,obsdewetering.nl,Facility
NL,51.422084,4.3233049,restaurantlacucina.nl,Facility
NL,52.2800136,6.8072443,ondernemershuish10.nl,Commerce
NL,51.8165927,5.6191707,laurenshoeve.nl,Facility
NL,52.0938525,4.3654761,hitandhealth.nl,Facility
NL,52.5103595,4.9465686,smidetenendrinken.nl,Facility
NL,51.2845542,6.0783995,lef-reuver.nl,Facility
NL,52.0947994,5.1203153,kapsalonsunny.nl,Facility
NL,52.5084481,6.3805973,peterzemel.nl,Facility
NL,53.21856,6.5617327,depintelier.nl,Facility
NL,51.4377261,5.4774829,hotellumiere.nl,Facility
NL,51.453473,5.470756,tdreefke-eindhoven.nl,Facility
NL,51.9939314,5.0927481,panterhuis.nl,Commerce
NL,52.6214991,6.0409646,huisman-assurantien.nl,Commerce
NL,52.7459278,6.4650246,spaarbankhoeve.nl,Facility
NL,53.2193856,5.8635496,zeilschoolpropsma.nl,Facility
NL,52.3695448,4.5272886,zandvoortpension.nl,Facility
NL,52.9004425,4.7518245,langevliet.nl,Facility
NL,52.2946904,6.8161231,derankhengelo.nl,Facility
NL,51.9626724,5.6589535,vanleusdentransport.nl,Commerce
NL,51.2988118,5.6791617,daatjeshoeve.nl,Facility
NL,52.2161347,5.9566085,beekparktandartsen.nl,Facility
NL,52.2509144,6.1596447,speelgoedmuseumdeventer.nl,Facility
NL,52.1055074,6.0648388,detijdeerbeek.nl,Facility
NL,52.6429663,5.0539204,zorba-hoorn.nl,Facility
NL,52.3761433,4.8862153,hypnotherapiejordaan.nl,Facility
NL,51.8755837,4.043038,salsabeachclub.nl,Facility
NL,52.8889157,6.4630272,detuinfluiter.nl,Facility
NL,51.491884,4.0482148,tandartspraktijkyerseke.nl,Facility
NL,52.6327285,4.7447275,stadskaffee-laurens.nl,Facility
NL,51.4333463,5.5014937,koelhuiseindhoven.nl,Facility
NL,51.5805515,5.1930113,terhorstvangeelmode.nl,Commerce
NL,52.369898,4.8653231,cafe-thuys.nl,Facility
NL,52.3546112,4.8552619,cafeschinkelhaven.nl,Facility
NL,51.5255427,4.4539999,kroevenpoort.nl,Facility
NL,51.3736948,6.1403356,kafkaseethuis-venlo.nl,Facility
NL,52.1930761,5.9390373,futurumshop.nl,Commerce
NL,51.6569101,5.6168419,raadhuis-uden.nl,Facility
NL,52.2142759,5.1977453,grootgoylant.nl,Facility
NL,51.4765685,5.437611,deluytervelde.nl,Facility
NL,12.0851444,-68.8974292,hemingwaycuracao.com,Facility
NL,53.2178755,6.569433,thesmoothbrothers.nl,Facility
NL,53.1965634,5.8007902,mediainnovatiecampus.nl,Commerce
NL,52.6571115,6.4239135,natuurverenigingzuidwolde.nl,Commerce
NL,52.5513761,5.4015297,bootmarkerwadden.nl,Commerce
NL,52.1633052,4.4900266,therockinchair.nl,Commerce
NL,51.541246,5.211212,stellophoeve.nl,Facility
NL,51.8366521,5.8493038,fawakafood.nl,Facility
NL,52.2206138,5.9701698,moodkeukens.nl,Commerce
NL,52.2924326,4.5776805,deroodelaars.nl,Commerce
NL,51.331196,6.0955515,ragazzikappers.nl,Facility
NL,53.202677,5.797263,sherebangla-leeuwarden.nl,Facility
NL,52.1865601,6.4912733,erve-hofvanheden.nl,Facility
NL,51.9661595,5.6616618,janweernekers.nl,Commerce
NL,52.3739798,4.8911471,mellyscookiebar.nl,Facility
NL,51.9786864,5.6610216,obsdetarthorst.nl,Facility
NL,52.2120423,5.9650815,pokepoke-apeldoorn.nl,Facility
NL,52.8816995,7.0549523,hbg-partners.nl,Commerce
NL,52.1386149,6.1991362,dezoutknop.com,Facility
NL,51.7941756,4.5539835,tvputtershoek.nl,Facility
NL,51.4837734,3.8917012,cardselect.info,Commerce
NL,51.944665,4.7127511,gergemberkenwoude.nl,Facility
NL,52.220511,6.9044912,adema-sleutelspecialist.nl,Commerce
NL,52.146863,4.5264998,pcbowillemdezwijger.nl,Facility
NL,52.1683111,6.4087134,garagevanoostrum.nl,Commerce
NL,52.073999,4.2853992,deklimopschool.nl,Facility
NL,52.2623622,6.8017599,robersadvocaten.nl,Commerce
NL,53.2171177,6.5679879,horlogeriekronos.com,Commerce
NL,52.2316073,6.8907562,opdebrouwerij.com,Commerce
NL,52.226007,5.9763157,dwautotechnologie.nl,Commerce
NL,51.5527394,5.0891509,kingcashshoptilburg.nl,Commerce
NL,51.4636335,4.4249565,aandegroenezoom.com,Facility
NL,50.9077547,5.8117987,oenselsfruitweike.com,Facility
NL,52.0182744,4.4316561,brasseriebrocantepijnacker.nl,Facility
NL,51.6892824,5.8267236,hetwisbroek.nl,Facility
NL,50.8743139,5.9238064,gsvservices.nl,Commerce
NL,52.3666394,4.8695707,armysurplus.nl,Commerce
NL,52.51962,4.9973674,erkampglasbv.nl,Commerce
NL,51.5761526,4.7414829,vishandelvermeulen.nl,Commerce
NL,52.0310309,4.6966867,scoutingwilo.nl,Facility
NL,52.7724163,5.1058569,indiarotiroommedemblik.nl,Facility
NL,52.3456723,4.8118855,slagerijnieuwsloten.nl,Commerce
NL,52.1771123,4.5036058,intotalent.nl,Commerce
NL,51.5368684,4.2798432,rksvhalsteren.nl,Facility
NL,51.9464014,4.2958959,aandekwakel.nl,Facility
NL,51.8477256,5.8607366,wereldwinkelnijmegen.nl,Commerce
NL,51.8783328,4.4814089,rvvkocatepe.nl,Facility
NL,53.2282181,6.5934849,bouwman-aanhangwagens.nl,Unknown
NL,51.7341088,5.300013,natuurlijkebomen.nl,Facility
NL,52.3673568,4.8915534,blue-amsterdam.nl,Facility
NL,52.5152851,6.102172,uphillmarketing.nl,Commerce
NL,53.32409,6.88341,theetuin-sarasvati.nl,Facility
NL,52.6307448,4.7518527,koffiekowalski.nl,Facility
NL,51.4417721,4.8599679,mcc-baarle-nassau.nl,Facility
NL,52.3837707,4.6293764,appelenfrismakelaars.nl,Commerce
NL,52.2401854,6.8367984,totalreality.nl,Commerce
NL,51.9421501,5.1988575,studiourban.dance,Facility
NL,51.914159,4.1031776,tandartspraktijkhofstede.nl,Facility
NL,51.9107093,4.5269552,antibarbari.nl,Unknown
NL,50.7710626,6.0203487,vereinshoes.nl,Facility
NL,52.9553751,4.7739588,thaisemassageforyou.nl,Facility
NL,52.1383606,6.1932004,jachthavenzutphen.nl,Facility
NL,53.0528275,6.8020998,dekameleoneexterveen.nl,Facility
NL,51.9226158,4.4832388,restaurant-napoli.nl,Facility
NL,52.2680287,4.7476505,cafedepraam.nl,Facility
NL,51.3455273,6.0593873,debreukerheide.nl,Facility
NL,52.6504393,5.0708269,vsodestormvogel.nl,Facility
NL,52.0196325,4.4321033,restaurantchinapijnacker.com,Facility
NL,51.8119642,5.2494556,bragtwonen.nl,Commerce
NL,53.2571163,6.1395364,steenhouwer.nl,Commerce
NL,52.1780039,5.2000933,campingfazantenhof.nl,Facility
NL,51.8231451,4.4146512,georgetweewielers.nl,Commerce
NL,52.2644135,4.6311709,misterspaghettitakeaway.nl,Facility
NL,51.9299317,4.5088374,ltckralingen.nl,Facility
NL,52.1024311,5.0828967,matrixemobility.com,Commerce
NL,51.6437604,4.859628,deheerenvanbeijnen.nl,Facility
NL,52.8353786,4.7567265,smikkelhof.nl,Facility
NL,51.9200038,4.4904878,schaakstukkenmuseum.nl,Facility
NL,52.3457,4.8120466,vishandeljanhendriks.nl,Commerce
NL,52.2660164,6.8081033,anninksschool.nl,Facility
NL,51.9503461,5.8983918,de-horizon.nl,Facility
NL,50.8341922,5.9842738,sjabbie-sjiek.nl,Commerce
NL,52.0924647,5.1219157,love4beads.nl,Commerce
NL,51.9473106,6.2798909,geerligsdejong.com,Commerce
NL,52.3934537,5.2799876,chillyflakes.nl,Unknown
NL,52.1667313,4.4666545,bataviabiosciences.com,Facility
NL,51.3563852,5.5626063,brasseriegezellig.nl,Facility
NL,52.0905885,5.1170717,cafehetcollege.nl,Facility
NL,52.1134505,6.3109134,tekenpraktijkhetkleineveld.nl,Facility
NL,51.6611706,5.6177702,ikcdeklimboomuden.nl,Facility
NL,51.9662704,6.2879843,restaurantdezaak.nl,Facility
NL,51.4265384,4.3218493,bdp-account.nl,Commerce
NL,51.910527,4.4889834,a3architecten.com,Unknown
NL,52.4579398,5.9488454,groteschuur.nl,Commerce
NL,51.6963408,4.7017102,groenecampingindepolder.nl,Facility
NL,51.4313345,4.113717,obsdeklimroos.nl,Facility
NL,52.3981346,4.941325,hethoorhuis.nl,Unknown
NL,52.1855632,5.9379465,slagerijspaans.nl,Commerce
NL,53.1643476,6.7689505,ngk-hoogezand-sappemeer.nl,Facility
NL,52.1331486,5.0460949,asiandelightmaarssen.nl,Facility
NL,50.871247,5.8237081,hoteldeuitkijk.nl,Facility
NL,52.2222449,4.4838286,neuteboomvoorhout.nl,Commerce
NL,51.715841,5.3624163,penningsoz.nl,Commerce
NL,52.6926512,5.2156588,jcinventas.nl,Facility
NL,51.8537132,5.9183431,boerderijdeplak.nl,Commerce
NL,51.8900366,5.4152151,ziekenhuisrivierenland.nl,Facility
NL,52.3791457,4.7719663,stadsgroenteboer.nl,Commerce
NL,52.3690246,6.7556845,autodalhoeven.nl,Commerce
NL,52.3666432,4.91166,koosjeamsterdam.nl,Facility
NL,51.8179996,5.0046068,gewoonploon.nl,Facility
NL,52.1287842,4.5929526,steijaertschool.nl,Facility
NL,51.8334084,4.6820322,ikcbeatrix.nl,Facility
NL,52.294455,6.1572613,dscdiepenveen.nl,Facility
NL,51.9568244,4.5701465,webparking.nl,Commerce
NL,51.9968081,6.0631947,wsvgiesbeek.nl,Facility
NL,52.9213373,6.7923138,hetwoonhuis.com,Commerce
NL,52.1978564,4.7572463,cafetariadehoek.nl,Facility
NL,52.9782792,6.7912936,restaurantdewiemel.nl,Facility
NL,52.0836114,5.1398599,lightendesign.com,Commerce
NL,52.3943961,5.2783076,defietsroute.nl,Commerce
NL,52.3558426,4.6208818,cordonnier.nl,Commerce
NL,52.4442831,4.8383869,pizzalina-zaandam.nl,Facility
NL,52.3788883,4.8955488,multatulihotel.nl,Facility
NL,51.4083455,5.1680701,hoeveheikant.nl,Facility
NL,52.3434195,5.614818,verloskundigenpraktijkharderwijk.nl,Unknown
NL,52.2588402,6.1606287,vsdekleinejohannes.nl,Facility
NL,53.2227285,6.5558918,eetcafe-lambik.nl,Facility
NL,51.5881033,4.7726966,tedsarcade.nl,Facility
NL,51.3259778,3.4888897,desmickelaer.nl,Facility
NL,53.1428127,6.4331587,alidassmulpaleis.nl,Facility
NL,51.9827754,5.9080061,ristorantepizzerialacorte-arnhem.nl,Facility
NL,51.4274256,5.4403992,adriaanseautoverhuur.nl,Commerce
NL,52.1786603,5.2228424,bosrandlagevuursche.nl,Facility
NL,51.7429401,4.3212884,rienpoortvlietmuseum.nl,Facility
NL,52.0167602,5.5788039,kanoverhuurveenendaal.nl,Facility
NL,52.4546254,4.5870226,cutzooibarbershop.nl,Facility
NL,51.6573136,5.6141849,schoenmakerijvanheeswijk.nl,Commerce
NL,51.7300334,5.882671,cuijksarchief.nl,Facility
NL,52.6819015,6.9321715,minicampingamos.nl,Facility
NL,51.7715925,5.5211417,tandheelkunde-oss.nl,Facility
NL,52.0964385,4.5924183,bogermanschilders.nl,Unknown
NL,51.5108053,5.4930421,slagerijroyackers.nl,Commerce
NL,52.3802232,4.6355857,alojaportugese.com,Facility
NL,51.5042442,4.3498605,burgerstack.nl,Facility
NL,51.8780062,6.3780634,atletico73.net,Unknown
NL,52.3506113,4.8943445,dopeyselixer.nl,Facility
NL,52.1351364,6.2211325,tc-welgelegen.nl,Facility
NL,51.5104027,5.6413438,toktokkiekinderopvang.nl,Facility
NL,52.6136856,4.8215727,obswiekslag.nl,Facility
NL,52.011505,4.7118645,rhodos-gouda.nl,Facility
NL,51.9012353,4.4855474,restauranthamburg.nl,Facility
NL,52.0869965,6.1556798,fysiotherapiebalans.nl,Commerce
NL,51.8385406,5.861572,pilates-nijmegen.nl,Facility
NL,51.4266971,5.4156325,villalabella.nl,Facility
NL,52.3565045,6.5926409,brainworkz.nl,Commerce
NL,52.3729143,4.5305389,tantedinasexpress-zandvoort.nl,Facility
NL,51.9777744,5.4578746,heerlijkheideckenwiel.nl,Facility
NL,52.119715,5.6888603,jbruilbouw.nl,Commerce
NL,51.5045575,5.3793329,logopediekardol.nl,Unknown
NL,53.2161467,6.5715597,beautyalive.nl,Facility
NL,52.0263347,4.6550294,botaugroup.com,Commerce
NL,52.8374917,7.0393048,obs-dreske.nl,Facility
NL,52.8974967,4.7553639,vishandeldeboer.nl,Facility
NL,51.8542226,4.3170123,caferestaurantplateau.nl,Facility
NL,53.0492081,6.6384244,herbergdefazant.nl,Facility
NL,51.7847271,4.8703504,manegebiesbosch.nl,Facility
NL,53.1747241,5.4200197,brasseriebooming.nl,Facility
NL,52.3176711,6.5259969,vanrijnproducts.nl,Commerce
NL,51.6714453,5.6071324,chiropractie-udenveghel.nl,Facility
NL,53.2132131,6.5787859,poggenpohlstudiogroningen.nl,Commerce
NL,52.1602702,4.4943641,paperwhite.nl,Commerce
NL,52.278301,5.1625843,rijksbredius.nl,Commerce
NL,53.1991784,5.7944912,zleeuwarden.nl,Commerce
NL,52.5082355,6.0983908,fietsjezwolle.nl,Commerce
NL,51.9675331,5.6676016,hoteldewereld.nl,Facility
NL,52.1634137,5.9838857,huizebloem.nl,Facility
NL,52.5060766,4.7782562,one2health.nl,Commerce
NL,51.5017769,3.6204224,middelburgschilderkunst.nl,Commerce
NL,51.8449177,5.86829,arentzwijnen.nl,Commerce
NL,52.0478227,5.8946441,veteranenlandgoedvrijland.nl,Facility
NL,52.116284,6.5236693,bloemuniek.nl,Commerce
NL,52.1529113,6.2083054,scoutingkdg.nl,Facility
NL,52.0665974,5.1186822,babyspa-utrecht.nl,Facility
NL,52.0514172,5.6435763,kernhemmedischcentrum.nl,Facility
NL,52.2216269,6.8938062,lightofindia-enschede.nl,Facility
NL,53.1291466,6.5871114,bitesandflights.nl,Facility
NL,52.2783303,5.5742472,landgoeduylenborgh.nl,Facility
NL,52.1601354,4.4883129,nieuwminerva.nl,Facility
NL,52.3733473,6.4599882,stichtingdewelle.nl,Facility
NL,52.3363818,5.2288674,studiotekening.nl,Facility
NL,51.694571,4.4398542,wapenvanwillemstad.nl,Facility
NL,52.113085,5.0091264,obshaarzicht.nl,Facility
NL,52.3457617,4.8912059,dewinkelvannijntje.nl,Commerce
NL,52.2900536,4.5778681,pinokkiohillegom.nl,Facility
NL,51.4358007,6.0491637,arco-solutions.nl,Commerce
NL,52.9945977,6.5597077,burgerqueen.nl,Facility
NL,52.2121271,6.8862437,edmonautos.nl,Commerce
NL,52.3884147,6.2904377,texacoraalte.nl,Commerce
NL,52.9357764,4.7708156,schootenplaza.nl,Commerce
NL,53.1890355,5.7579277,houkesloot.nl,Commerce
NL,50.7715002,6.0228168,wajos-vaals.nl,Facility
NL,51.6772115,5.8105912,cafebroers.nl,Facility
NL,51.9614082,5.9682003,ikc-debrug.nl,Facility
NL,51.9444482,5.2090521,imami-azam.nl,Facility
NL,51.5110161,5.4943677,deschoenmaker-gerhouwen.nl,Unknown
NL,52.0558928,4.3159455,fysiopelvis.nl,Facility
NL,52.5766667,5.9176199,wsvhetkoggeschip.nl,Facility
NL,51.9069328,4.4314448,moederscheimmoonen.nl,Unknown
NL,52.2809167,6.4153506,beleefrijssenholten.nl,Facility
NL,53.0714936,6.5751423,vijverstee.nl,Facility
NL,51.6502468,3.9194347,juwelier-postma.nl,Commerce
NL,51.8621691,6.3848275,campingtzwaantje.nl,Facility
NL,52.2003202,5.9647477,samuelkerk.nl,Facility
NL,52.217773,5.185038,dapsoestdijkerstraatweg.nl,Commerce
NL,51.4978698,3.6102574,brasseriebijts.nl,Facility
NL,53.0116665,4.7858921,waddenstertexel.nl,Facility
NL,51.9580605,5.5668816,hertog-hengelsport.nl,Commerce
NL,52.8175345,6.077789,minicampingantpad.nl,Facility
NL,52.0600887,4.4749798,wereldwijs-levwn.nl,Facility
NL,51.8896152,4.6883453,boekwinkeldeparel.nl,Commerce
NL,52.0157786,6.0249432,brasserieveluwezoom.nl,Facility
NL,53.2018258,6.5763371,brink-hoek.nl,Commerce
NL,50.8155422,5.8881714,gulpen-wittem.nl,Facility
NL,52.3623528,4.9108398,calientefood.nl,Facility
NL,52.1279211,4.4945425,boerengoed.com,Commerce
NL,52.3137435,5.0382831,restaurantjumboweesp.com,Facility
NL,52.7738903,5.1062936,okv-medenblick.nl,Facility
NL,53.3342099,6.5153323,sporthuiswinsum.nl,Commerce
NL,52.0725918,4.249863,bistrobergendal.nl,Facility
NL,52.4135469,4.6842072,dcspaarndam.nl,Facility
NL,52.4061705,4.6488681,degoudenlelie.nl,Facility
NL,53.4054649,5.3844332,campingdeduinkant.nl,Facility
NL,52.0175577,4.4317451,beatrix-octant.nl,Facility
NL,52.6410553,5.0378332,obsdejulesverne.nl,Facility
NL,52.111083,5.0897326,ijssalonroma.nl,Facility
NL,52.0761321,5.121471,campingganspoort.nl,Facility
NL,52.2314899,5.9554533,schoonhovenbouwprof.nl,Commerce
NL,52.0839121,5.4156815,geeresteingroep.nl,Facility
NL,52.7886696,4.7958242,knip-itkappers.nl,Facility
NL,52.1542641,6.8441593,denieuwebosplaats.nl,Facility
NL,52.1125204,5.110131,pureaesthetics.nl,Facility
NL,12.5205,-70.0272509,onderlingehulp.com,Commerce
NL,51.549665,4.469866,railparkroosendaal.nl,Facility
NL,50.8976396,6.0155519,hongkonglandgraaf.nl,Facility
NL,52.773439,6.8020888,hermanschepers.nl,Commerce
NL,52.0872911,5.0852906,taart-utrecht.nl,Commerce
NL,50.7700629,5.8633425,hofvanslenaken.nl,Facility
NL,52.0343052,5.1684054,sterpoelierlingen.com,Commerce
NL,52.0211971,5.164821,hervormdhouten.nl,Facility
NL,51.9553464,5.8845049,xxlscooters.nl,Unknown
NL,52.9604495,4.7614745,kapsalonjankleine.nl,Facility
NL,52.9334548,5.9563278,mteamkapsalon.nl,Facility
NL,53.0729683,4.7711759,juttersflora.nl,Facility
NL,52.4945623,4.762195,eetcafederemise.nl,Facility
NL,51.9778963,4.2646734,marsmanmaatwerk.nl,Commerce
NL,51.3996086,5.9626629,wertemerhoeve.nl,Facility
NL,51.9926782,4.3710051,proteus-eretes.nl,Facility
NL,52.0416282,6.6205513,scoutinggroenlo.nl,Facility
NL,52.3143762,4.9529005,arenafoodexpress.nl,Facility
NL,52.0135082,4.3155104,hoteldelft.com,Facility
NL,52.7258813,6.4778648,wereldwinkelhoogeveen.com,Commerce
NL,53.1991498,5.8094654,oranjewijk.nl,Facility
NL,51.537927,4.4718892,rianroosendaal.nl,Commerce
NL,51.4359961,5.4990121,voedselbankeindhoven.nl,Facility
NL,52.4154401,4.8940536,puurnatuurtuin.nl,Facility
NL,51.6554019,5.607042,museumkrona.nl,Facility
NL,52.3783924,4.6348162,muijsonline.nl,Commerce
NL,52.3752509,4.8917464,323trading.nl,Commerce
NL,52.1571639,4.4941478,bierwinkel-leiden.nl,Commerce
NL,52.2464067,5.2088929,sintjanskerkhof.nl,Facility
NL,52.3641447,4.892701,vespertool.com,Commerce
NL,52.6567894,5.193484,owfvenhuizen.nl,Facility
NL,53.3921498,6.5622111,hethoogeland.com,Facility
NL,53.08916,6.90126,annekegebert.nl,Facility
NL,52.27742,6.2711999,basisschoollettele.nl,Facility
NL,52.3524326,4.8897079,behindthepines.eu,Commerce
NL,51.6571638,5.6079796,marcsbarbq.nl,Facility
NL,51.5985111,4.7700536,monne-zorgenbeweging.nl,Facility
NL,51.9356783,4.5826687,jatech-automaterialen.nl,Commerce
NL,51.5256895,5.1368799,watersportbaantilburg.nl,Facility
NL,52.9915219,6.9466157,heiligkruisparochie.nl,Facility
NL,51.935574,6.129505,kapsalonwanders.nl,Facility
NL,51.9851782,4.6763178,salonshades.nl,Facility
NL,51.8163419,4.6699085,doordordrecht.nl,Facility
NL,52.2769336,5.1890621,elanprimair.nl,Facility
NL,53.1990957,6.5791814,zijnstijlhaarstijl.nl,Facility
NL,52.0065475,6.034057,bellaitalia-rheden.nl,Facility
NL,53.1602179,5.7192988,nijkleaster.frl,Facility
NL,51.8870865,4.4877549,lisarotterdam.nl,Facility
NL,53.1066212,6.1003465,egbertstweewielers.nl,Commerce
NL,51.6451565,4.8426346,wsv-sluis1.nl,Facility
NL,52.0493881,5.5559173,grebbelounge.nl,Facility
NL,52.0116529,4.3598816,cafeluna-delft.nl,Facility
NL,50.9158532,6.087461,rk-ubachoverworms.nl,Facility
NL,53.0336652,5.6332898,bedrijfswagenssneek.nl,Commerce
NL,52.0952467,5.0863173,gerardusmajella.nl,Facility
NL,52.1253513,4.4529617,goederaadsport.nl,Facility
NL,52.0900698,4.3962751,hairstyling-rimmelzwaan.nl,Facility
NL,52.0292377,5.5568348,winants-schoenen.nl,Commerce
NL,52.3959344,5.2761688,slagerijtalhahome.nl,Commerce
NL,52.144977,4.4810125,boulderhalkunststof.nl,Facility
NL,52.363499,4.8363187,restaurantavenida.nl,Facility
NL,51.9642708,5.5739791,sector2bikes.nl,Commerce
NL,52.008647,4.7120003,stoppelenburg-fd.nl,Facility
NL,51.2777685,4.0512803,whatelslunchenlekkers.nl,Facility
NL,52.2594367,6.1636902,molenbeltdeventer.nl,Facility
NL,52.3650638,4.8962363,hotelfrank.nl,Facility
NL,52.4492562,5.9023402,vandeschootbrugge.nl,Commerce
NL,51.9455339,5.9810962,oostlaswerk.nl,Unknown
NL,52.1777312,4.4719917,galeriekorsman.nl,Facility
NL,51.6602983,5.0317556,restaurantxo.nl,Facility
NL,51.443269,4.9277416,begrafenissencreemers.nl,Facility
NL,52.2152546,5.9629163,spicebrush.nl,Facility
NL,51.8123711,4.6685307,vindparketwerk.nl,Commerce
NL,51.8921341,5.2487907,dehoenderik-tricht.nl,Commerce
NL,52.1072597,6.3305613,smederijoldenhave.nl,Commerce
NL,53.2414613,6.5969976,pitchenputtgroningen.nl,Facility
NL,52.3621879,4.9282678,localdealer.nl,Facility
NL,51.3621668,6.065397,defabriekmaasbree.nl,Facility
NL,52.6498985,4.7918885,tkbewindvoering.nl,Commerce
NL,52.3654467,4.8926577,cafekramer.nl,Facility
NL,52.2598957,5.5999157,orthodontiepraktijkputten.nl,Facility
NL,52.4077464,6.8958819,vandermaas.nl,Facility
NL,51.2806642,4.0529303,fashionbyreiss.nl,Commerce
NL,51.7827904,5.8532784,tuinwereld.nl,Commerce
NL,52.9951385,6.562177,sijlcoffee.nl,Facility
NL,51.888472,4.4964032,romytaniaclinics.nl,Facility
NL,51.9443094,4.4750875,debergsezonnebloem.nl,Facility
NL,51.9530578,4.0264778,ameydemarine.com,Commerce
NL,51.959579,4.9394538,campingdekoekoek.nl,Facility
NL,52.2198586,5.7386131,boerderijhetmolentje.nl,Facility
NL,52.0420144,6.6084225,goossensgroenlo.nl,Commerce
NL,51.6079656,4.6946727,hofvanoverveld.nl,Facility
NL,52.1561185,5.3894216,ristorantelascala.nl,Facility
NL,52.3311723,4.8764248,roggeamsterdam.nl,Commerce
NL,52.0825536,5.4123101,van-lunteren.nl,Commerce
NL,52.1864136,5.5387165,dekruyfmelkenstal.nl,Commerce
NL,52.5027939,6.1058719,kattenkliniekzwolle.nl,Commerce
NL,52.3615936,4.8874004,moederannecasting.nl,Commerce
NL,12.0895669,-68.8653068,n-joyresidencecuracao.com,Facility
NL,52.3451944,4.9082519,utage-sakebar.nl,Facility
NL,51.402629,5.7447779,rkfranciscus.nl,Facility
NL,52.3825989,4.8552055,samenamsterdam.nl,Facility
NL,51.6279809,5.8598118,ullingsebergen.nl,Facility
NL,52.2730401,5.2433756,chapeaublaricum.nl,Facility
NL,52.2044269,4.4892364,teylingereind.nl,Facility
NL,52.4932217,6.118334,gamesnstuff.com,Unknown
NL,51.9843741,5.8171431,vaart-oosterbeek.nl,Commerce
NL,52.7880436,4.8023613,mubokeukens.nl,Commerce
NL,51.8350999,5.8688349,montessorinijmegen.nl,Facility
NL,52.0861933,6.1554749,tanteblanche.nl,Facility
NL,52.4969297,4.8057385,roestigbarbershop.nl,Facility
NL,51.4170621,5.3522067,geitenboerke.nl,Commerce
NL,51.3684561,5.2576799,cafetariahetsmulhuis.nl,Facility
NL,51.8794823,4.5354446,maasstadziekenhuis.nl,Facility
NL,51.9203879,4.1185547,camping-gorshoeve.nl,Facility
NL,51.6239205,5.4267693,tandartsenpraktijkboschweg.nl,Facility
NL,51.2808629,4.0544915,the-prince-of-wales.nl,Facility
NL,52.2093097,4.5151163,desophiahoeve.nl,Commerce
NL,51.8402088,5.8544179,ehbonijmegen.nl,Commerce
NL,51.9354003,4.5678003,aktiebikes.nl,Commerce
NL,53.3494437,6.6428024,herbergindevalk.nl,Facility
NL,52.1178312,5.876,dierenkliniekdevijfsprong.nl,Commerce
NL,50.8424797,5.701339,bonnefanten.nl,Facility
NL,53.3369118,6.2998141,visserijmuseum.com,Facility
NL,52.0065862,4.9789451,ebenhaezerbenschop.nl,Facility
NL,51.5108502,5.0532326,cvtpushbelt.com,Commerce
NL,52.9577292,4.7650877,niohbeauty.nl,Facility
NL,52.9858517,6.5469508,duurzaamheidscentrumassen.nl,Facility
NL,53.4013192,5.2512361,surfvillage.nl,Facility
NL,52.5507114,6.2242741,landjuweeldehoeven.nl,Commerce
NL,52.2721905,5.020504,tvnigtevecht.nl,Facility
NL,52.275842,7.0028639,develdzijde.nl,Facility
NL,51.3023419,5.9864222,debelaeving.nl,Facility
NL,51.1822381,5.9876911,nim-roermond.nl,Facility
NL,51.515266,5.0531851,antonisverhuur.nl,Commerce
NL,52.1599171,5.3664208,adadonerpoint-amersfoort.nl,Facility
NL,52.3284745,4.9561114,tandartspraktijkdiemenzuid.nl,Facility
NL,52.475076,6.0706912,sphinxhattem.nl,Facility
NL,51.8785621,5.9468919,sessinkwonen.nl,Commerce
NL,51.6118945,4.7468046,scoutinghaagsebeemden.nl,Facility
NL,52.0845876,4.3620721,slytattoos.com,Facility
NL,52.0429241,4.5756336,wapenvanmoerkapelle.nl,Facility
NL,52.5054702,4.9847717,c-hairlounge.nl,Facility
NL,51.8937649,4.6285652,haarstudiojanna.nl,Facility
NL,52.5069396,6.1006214,cobieskadoshop.nl,Commerce
NL,53.0182434,5.6933108,vakantieboerderijsneek.nl,Facility
NL,52.6671744,5.0476733,montessori-deflierefluiter.nl,Facility
NL,51.5920396,4.7885429,gymnasiumbreda.nl,Facility
NL,52.2902777,5.9706556,kolkmanwonen.nl,Commerce
NL,51.9425855,5.0810524,deontdekking.nl,Facility
NL,52.2185526,5.9637338,regentessekerk.nl,Facility
NL,52.345173,4.8550083,bellaciaoams.nl,Facility
NL,52.5645714,4.9185796,nachtegaalbeemster.nl,Unknown
NL,52.5116352,6.0947384,youngmensshop.nl,Commerce
NL,52.0654605,5.1934883,algemenebegraafplaatsodijk.nl,Facility
NL,51.6071772,4.8587039,chaletpark-dehannebroeck.nl,Facility
NL,51.5824247,4.7773677,wereldwinkelbreda.nl,Commerce
NL,52.4547937,4.6209353,sportloketvelsen.nl,Facility
NL,52.0522169,4.2667082,orthomeppelweg.nl,Facility
NL,51.705932,5.3614937,tandartsverhaegen.nl,Facility
NL,52.3797696,4.631141,mogadorcafe.nl,Facility
NL,52.0930156,5.0116653,martirestaurant.nl,Facility
NL,52.375874,4.8926698,moussaique.com,Commerce
NL,53.0870228,6.694196,shassurantie.nl,Commerce
NL,51.8812246,5.5102158,ruisseauclaire.nl,Facility
NL,53.1736416,6.5841427,scoutingtecumseh.nl,Facility
NL,52.968951,5.6061583,dewatersportheeg.nl,Facility
NL,52.5089835,5.4769599,juweliervisser.nl,Commerce
NL,51.844157,5.8503555,vissersmeubelen.com,Commerce
NL,51.4763899,5.6435934,fishenfoodhelmond.nl,Commerce
NL,51.4248406,5.4127572,eethuiszeelst.nl,Facility
NL,52.162012,5.0873314,dorpswinkelkastanjehoeve.nl,Commerce
NL,52.4612004,6.0000953,dekorenbloemlandelijkwonen.nl,Commerce
NL,52.4206346,5.8220463,boerverzekeringen.nl,Commerce
NL,52.66083,5.5959765,mondzorgurk.nl,Facility
NL,52.3613232,4.9006044,oockeramsterdam.nl,Facility
NL,51.9321738,4.398265,cryotainer.com,Commerce
NL,51.8280293,4.6225614,romersgrondverzet.nl,Commerce
NL,52.0833269,4.4058162,waaijerbouw.nl,Commerce
NL,51.9153487,4.4765876,termarschco.nl,Facility
NL,51.9149665,4.4807897,downtownapartments.nl,Commerce
NL,52.9932233,6.5624146,restaurant-apricot.nl,Facility
NL,53.0117538,6.7300097,mooiplekkie.nl,Facility
NL,53.3862002,6.386475,vvkloosterburen.nl,Facility
NL,51.6968996,5.3018767,laminaathal.nl,Commerce
NL,52.3417778,4.8638779,openluchtschool2.nl,Facility
NL,52.292829,5.1742614,rugbyclub-gooi.nl,Facility
NL,50.8463439,5.69195,wijmakenkoffie.nl,Facility
NL,52.5153288,6.0981413,nibourginterieurs.nl,Commerce
NL,52.4034435,5.3038446,snackbardebanda.nl,Facility
NL,52.3636127,4.9371822,elthetokerkamsterdam.nl,Facility
NL,53.2174494,5.7811972,wynsmamechanisatie.nl,Commerce
NL,52.0195451,4.2984269,yourinhairkappers.nl,Facility
NL,51.84833,4.20213,melkveehouderijeikelenboom.com,Facility
NL,51.8478049,5.8674304,marcus-antonius.nl,Facility
NL,53.2916117,5.9783979,ijsclubakkerwoude.nl,Facility
NL,52.2663236,6.7940871,online-snoep.nl,Commerce
NL,51.5531216,4.9445567,hotelgilzetilburg.nl,Facility
NL,52.560965,5.9076569,kamperbloemenshop.nl,Commerce
NL,52.0115696,4.7118048,looxfashion.nl,Commerce
NL,52.0465595,5.6713845,optieksloof.nl,Commerce
NL,52.3664336,4.895541,fairplaycasino.nl,Unknown
NL,52.2646135,5.1825529,heidezicht.com,Facility
NL,52.2697096,4.7463463,vesela-pani.nl,Facility
NL,51.6963372,5.1552112,medifit-healthclub.nl,Facility
NL,51.4417134,4.9280276,hairpointhaarstudio.nl,Facility
NL,12.3184112,-69.1497731,miramarlagun.com,Facility
NL,52.3088834,5.0399621,heertjeweesp.nl,Facility
NL,51.9153177,4.541844,global-fairs.com,Commerce
NL,51.9686749,5.6680587,skincarewageningen.nl,Facility
NL,52.1014471,5.0155731,descootergarage.nl,Unknown
NL,51.5266587,4.4466908,vandriesumpianos.nl,Commerce
NL,53.1349676,6.5639766,derooiekater.nl,Facility
NL,51.6030603,5.4478113,gildeschijndel.nl,Unknown
NL,52.1655635,4.711606,cafetaria-prick.nl,Facility
NL,51.93718,4.2272007,petersmit2wielers.nl,Commerce
NL,51.6436946,4.8597583,goudsmederijmathon.nl,Commerce
NL,52.365129,4.9357688,studiobike.nl,Facility
NL,53.2329865,6.5742799,teruginbalans.nu,Facility
NL,52.2921004,5.2539747,cafetariadegriek-huizen.nl,Facility
NL,51.9729424,5.3455636,engelrestaurant.nl,Facility
NL,51.8079549,3.90353,achterdewestduinen.nl,Facility
NL,52.2666864,6.7947508,gelinkoptiek.nl,Commerce
NL,51.6340502,4.9318663,bergenberg-dongen.nl,Commerce
NL,52.0091009,4.3668661,kissthefrog.nl,Commerce
NL,52.3029019,6.1550703,werkplaats31at.nl,Facility
NL,51.4572556,6.0768015,aandeheuvel.nl,Facility
NL,52.0439652,4.3914805,fleurettes.nl,Commerce
NL,52.3088566,5.0383752,hartvanweesp.nl,Facility
NL,52.6705567,4.7029163,kaasboerniek.nl,Commerce
NL,52.3864574,4.6363771,spellenhuis.nl,Commerce
NL,51.9759297,5.9570075,jansenarnhem.nl,Commerce
NL,51.5260256,5.9735403,wolffjeansvenray.nl,Commerce
NL,52.6999402,6.1877322,coachkamermeppel.nl,Unknown
NL,52.0273724,5.5595072,oudveenendaal.nl,Commerce
NL,52.224746,5.1730034,puurbroeken.nl,Commerce
NL,53.2082511,5.7680606,debiologischetandarts.nl,Facility
NL,51.5620497,5.4598457,restaurantbomas.nl,Facility
NL,52.0419503,4.3926719,sportstudiosansi.nl,Facility
NL,53.1634999,6.7419736,doublefashion.nl,Commerce
NL,53.0920788,6.6816199,johnbardale.com,Commerce
NL,52.0902968,5.1174488,jwls-utrecht.nl,Commerce
NL,51.8445261,5.3884061,hetdijkhuis.eu,Facility
NL,52.1042433,5.1845241,retro-recherche.nl,Commerce
NL,52.6715231,4.7993035,vws-flowerbulbs.nl,Commerce
NL,52.5003496,4.9652465,dierenartspurmerend.nl,Commerce
NL,51.9876783,4.357418,groenewegendelft.nl,Unknown
NL,52.1772176,5.3928862,ltvrandenbroek.nl,Facility
NL,52.351756,4.6065629,basisschooldeevenaar.nl,Facility
NL,52.0822967,5.1404425,restaurantkaatje.com,Facility
NL,52.2875354,5.2668488,kbsdepionier.nl,Facility
NL,52.0854722,4.3719174,demandarijn.com,Facility
NL,52.3634426,4.8783821,orestistaverna.nl,Facility
NL,52.5139901,6.1113132,withaaryildirim.nl,Commerce
NL,52.3408155,6.6540998,ckv-achilles.nl,Facility
NL,52.1774026,4.4694288,welteroegstgeest.nl,Facility
NL,52.3155665,4.6884473,crossfithoofddorp.nl,Facility
NL,52.0089141,4.3597364,bizstayapartments.com,Facility
NL,51.6167993,5.4386034,bigbreadschijndel.nl,Facility
NL,50.9161071,5.8928041,dereukender.nl,Facility
NL,52.1614264,4.4360102,stoomtreinkatwijkleiden.nl,Commerce
NL,51.5069837,4.9892081,hsvalfheim.nl,Facility
NL,51.9228379,4.4938392,urbanbakery.nl,Commerce
NL,52.3898639,4.6427696,koningkerkhaarlem.nl,Facility
NL,52.9667626,5.7968321,bloemendelelie.nl,Commerce
NL,51.849454,4.6442368,jewelstore.nl,Commerce
NL,53.3212733,6.8602729,gkvappingedam.nl,Facility
NL,12.1030392,-68.926665,komecuracao.com,Facility
NL,51.9770731,5.7189819,ommuurdetuin.nl,Commerce
NL,52.4825669,6.104713,markesteen.nl,Facility
NL,53.2551852,6.3997674,wkregister.nl,Unknown
NL,52.3255838,6.0519518,yogaboerderijoene.nl,Facility
NL,52.6681619,4.7001226,huisvanbergen.nl,Commerce
NL,52.0150016,4.367205,hoteldelftcentre.nl,Facility
NL,52.7858608,4.797327,slagvandesomme.nl,Facility
NL,52.2296156,5.9789733,gentiaancollege.nl,Facility
NL,53.1042258,6.8794631,smulcentrumveendam.nl,Facility
NL,52.5120129,6.5459236,beerzebulten.nl,Facility
NL,52.3681133,4.9242862,coulisse-amsterdam.nl,Facility
NL,51.6293516,5.0142775,le-silence.nl,Facility
NL,51.9963035,4.1730704,vanleent-bouw.nl,Commerce
NL,52.368636,4.9374133,museumperronoost.nl,Facility
NL,50.8627818,5.8299828,dinercafeamadeus.nl,Facility
NL,51.8500771,4.328455,ruttenschoenen.nl,Commerce
NL,51.9732815,6.2642544,garagefredriks.nl,Commerce
NL,51.661521,5.624721,ceulenklinieken.nl,Facility
NL,51.2879216,6.0474901,restaurantvaers.nl,Facility
NL,52.077731,4.7505082,wereldweijde.nl,Facility
NL,52.35116,4.8510242,barbaravanwegen.nl,Facility
NL,52.369263,4.8929841,delaatstekruimel.com,Commerce
NL,52.1655858,5.3086447,restaurant-nostalgia.nl,Facility
NL,52.1556588,5.3881409,lievevrouwtje.nl,Facility
NL,52.2057387,5.9761554,massagestudioapeldoorn.nl,Facility
NL,51.9467728,4.8536183,goudsmederijgoedbloed.nl,Commerce
NL,52.3785649,4.8961739,copafootball.com,Commerce
NL,52.1612746,6.4154481,debasilieklochem.nl,Facility
NL,50.8516399,5.7158832,soundacademymaastricht.nl,Facility
NL,53.3661698,6.6349866,cgk-kantens.nl,Facility
NL,51.4410984,5.4803144,restaurantsizzling.nl,Facility
NL,50.8956874,5.7341486,brasseriefriends.nl,Facility
NL,51.49241,4.2877784,thaibychin.nl,Facility
NL,51.6066479,4.7421226,tandartspraktijkbrandebeemd.nl,Facility
NL,52.0079593,4.3508955,balikbayan-nederland.eu,Unknown
NL,51.5794528,5.1922922,chiropractieoisterwijk.nl,Facility
NL,52.3541549,4.8114967,studioboes.nl,Commerce
NL,51.8506443,4.3268232,thebarberclub.nl,Facility
NL,51.4765181,3.9671496,peterbutler.nl,Commerce
NL,51.7335598,5.4019524,het-groene-erf.nl,Facility
NL,52.2542226,5.3752855,wegwijzerspakenburg.nl,Facility
NL,52.3042572,4.8494647,obs-piethein.nl,Facility
NL,52.3055961,6.521923,boekenhuisrijssen.nl,Commerce
NL,52.4514647,6.6201965,klostweewielers.nl,Commerce
NL,52.5122579,4.9964377,garage-purmerend.nl,Commerce
NL,52.34849,4.6205722,decostore-heemstede.nl,Unknown
NL,51.8555579,4.5394713,vanhemertwoonsfeer.nl,Commerce
NL,51.8263242,4.4111962,dammeinterieur.nl,Commerce
NL,51.8274479,5.1759335,kievitsheuvel.nl,Facility
NL,53.0493785,5.8391538,cor-oosterhoff.nl,Unknown
NL,52.2094763,5.9431136,nathaliesbruidsmode.nl,Commerce
NL,52.3156691,5.5640128,wokinnermelo.nl,Facility
NL,51.88174,5.8458716,ortho-lent.nl,Facility
NL,51.3947733,5.7107779,autobedrijf-linden.nl,Commerce
NL,53.3261696,5.9996466,dewaeghdokkum.nl,Facility
NL,52.3920736,4.6311032,beautybymonique.nl,Facility
NL,52.3798691,4.6434863,janheidemanmeesterbarbier.nl,Facility
NL,53.0967376,5.9517179,itpolderhus.nl,Facility
NL,52.2276721,5.9810728,moorrees-apeldoorn.nl,Facility
NL,51.4149323,5.3981481,bs-eigenwijs.nl,Facility
NL,53.2015613,6.562549,tamarisk-canadalaan.nl,Facility
NL,52.4497037,6.5632568,hetgoeiegevoel.nl,Commerce
NL,51.5423457,4.4497321,vestavuurwerk.nl,Unknown
NL,52.362435,4.8640063,saffraantraiteur.nl,Facility
NL,51.3063767,3.3889331,latraviatavansluis.nl,Facility
NL,52.1665118,5.2897317,3evanderhuchtschool.nl,Facility
NL,51.4823788,4.9556963,brabantserfgoed.nl,Commerce
NL,52.6396795,5.0591633,eetcafedeklinker.nl,Facility
NL,52.3158344,4.7083344,deversboerderij.nl,Commerce
NL,52.4484566,5.8341919,olderegthuyselburg.nl,Facility
NL,51.5534013,5.0902102,pizzariadehaven-tilburg.nl,Facility
NL,52.7007693,5.0563972,vriend-aardbeien.nl,Commerce
NL,52.0450546,4.3583617,forensischinstituut.nl,Facility
NL,52.0536344,4.382819,benniedebarber.nl,Facility
NL,52.1419671,5.0408082,maarssenaandekook.nl,Facility
NL,51.4943233,4.2866153,lagrottabergenopzoom.nl,Facility
NL,52.2187225,5.8747216,restaurantbergendal.nl,Facility
NL,51.8146255,4.6699277,gsmreparatiecentra.nl,Unknown
NL,51.6897448,3.8994994,recreatievanlangeraad.nl,Facility
NL,52.5756319,6.2907822,helgaschuurmanschoenen.nl,Commerce
NL,52.6701878,4.7022421,bellobergen.nl,Facility
NL,52.3982527,4.9369159,van-alem-mode.nl,Commerce
NL,52.7870921,4.7967088,dinos-schagen.nl,Facility
NL,53.202673,5.8000372,haircarebysen.nl,Facility
NL,52.3989762,6.0377954,vanolstbouwmaterialen.nl,Commerce
NL,51.6617478,4.6904127,meeuwissenstreekwinkel.nl,Commerce
NL,51.8204386,4.7628407,verhoefemc.com,Commerce
NL,51.6773225,5.2920912,emma-solutions.nl,Commerce
NL,51.8949601,4.1911642,meeuwenplaat.nl,Commerce
NL,51.9995914,5.6746153,restaurant22.nl,Facility
NL,50.9885535,5.7806399,hotelstein.nl,Facility
NL,52.7753165,6.4486888,heterfgoed.eu,Facility
NL,51.3612954,6.0287425,dynamic-maasbree.nl,Facility
NL,52.9667796,6.0938192,garagevandamme.nl,Commerce
NL,52.3959812,5.2572809,cafeluckysnacks.nl,Facility
NL,53.1067984,6.1039358,sondriodrachten.nl,Facility
NL,51.5049057,3.8892337,americanspareribs-goes.nl,Facility
NL,52.1592174,5.9675042,wilbrinkmakelaardij.nl,Commerce
NL,52.0875063,4.8840721,tostisentoetjes.nl,Facility
NL,52.6388957,5.0591316,ristorante-lasfida.nl,Facility
NL,52.2743002,5.1714013,hearthouse.nl,Facility
NL,51.8442634,5.8640878,haykojewels.com,Commerce
NL,52.1004175,6.2778564,keukenvanhackfort.nl,Facility
NL,53.2146078,6.7019185,ngkharkstede.nl,Facility
NL,52.9523369,4.7266519,atlantikwallcentrum.nl,Facility
NL,52.0887366,4.3826793,emma-sleep.nl,Commerce
NL,52.3031244,4.68695,hospicebardo.nl,Unknown
NL,52.6398012,5.0593892,brautecuisine.nl,Facility
NL,52.138103,5.6058644,kindcentrum-debrandingnorschoten.nl,Facility
NL,52.2534807,5.22798,vandijklaren.nl,Commerce
NL,52.4286614,4.9130088,happynursethuiszorg.nl,Facility
NL,52.0875143,4.3346184,deenadvocaten.nl,Commerce
NL,51.4822575,4.3884352,heilighartkpo.nl,Facility
NL,51.9814318,5.0983067,boschbedding.nl,Commerce
NL,52.1728213,5.0010089,fysiotherapiebeelen.nl,Facility
NL,51.4433201,5.4092401,koffiem-eindhoven.nl,Commerce
NL,52.3868063,4.6252596,bellaartbouw.nl,Commerce
NL,51.9535232,5.84847,basisschool-de-gazelle.nl,Facility
NL,51.8144633,4.66629,thebridalroomboutique.nl,Commerce
NL,52.0690976,4.3665518,piccolinovoorburg.nl,Commerce
NL,52.1857642,5.9618869,tolhuisvijf.nl,Facility
NL,52.1169102,4.2812084,zipholland.nl,Unknown
NL,50.868781,6.0257393,weerstation-parkstad.nl,Facility
NL,52.6573535,4.8204987,buurthuisdehoeksteen.nl,Facility
NL,53.1864957,5.7540023,bcfmobiliteit.nl,Commerce
NL,52.3901455,4.924556,aitmaten-supermarkt.nl,Commerce
NL,52.5148519,6.108178,scooterforyou.nl,Commerce
NL,51.5650947,5.461261,restaurantosteria.com,Facility
NL,52.6191065,4.7472408,uitvaartverzorgingduin.nl,Commerce
NL,12.1517678,-68.2778203,karelsbeachbar.com,Facility
NL,51.4934634,3.6093542,justionadvocaten.nl,Commerce
NL,52.1507153,4.3946941,wbv-willibrordus.nl,Commerce
NL,52.0106774,5.9107384,openluchtmuseum.nl,Facility
NL,52.9676773,5.7954707,teamharryhummel.nl,Facility
NL,53.4232493,6.7672428,orgelmakerijsteendam.nl,Commerce
NL,51.9838024,5.9888875,alpensonne.nl,Unknown
NL,53.0947682,6.6868311,danskwartier.nl,Facility
NL,53.2582381,6.1483501,npb-buitenpost.nl,Commerce
NL,52.2259353,6.4761606,kattenbergsehoeve.nl,Facility
NL,53.1714285,6.179746,auto-oostra.nl,Commerce
NL,53.1935743,7.0079717,blauwestadhoeve.nl,Facility
NL,52.709647,4.8178254,hoteldebuizerd.nl,Facility
NL,52.1578739,5.3860875,westwingcocktailbar.nl,Facility
NL,53.2170025,6.5746634,changthaigroningen.nl,Facility
NL,52.361174,4.8994603,zwartopwitboekhandel.nl,Commerce
NL,53.0450228,4.8329381,zelfpluktuin.nl,Facility
NL,51.534157,4.5055245,kwekerijpotters.nl,Unknown
NL,51.8466446,5.8620904,cafesamson.nl,Facility
NL,51.5411387,4.9406905,bakkerijwaegemakers.nl,Commerce
NL,51.8306446,4.9717043,grillroomside-gorinchem.nl,Facility
NL,52.6946261,5.2696119,thegymenkhuizen.nl,Facility
NL,52.5756389,6.6210159,juwelierhardenberg.nl,Commerce
NL,52.3832076,4.8337962,pinendrive.nl,Commerce
NL,52.5049433,6.103104,heppiezwolle.nl,Commerce
NL,53.0950388,6.1720515,degrootbakkerij.nl,Commerce
NL,51.9239341,4.4718491,delftsepoort.nl,Facility
NL,51.7253783,3.8423729,campingoldenhoeve.nl,Facility
NL,51.4949764,3.96372,defruittuin.com,Commerce
NL,52.3865455,4.6393516,fieldstars.nl,Commerce
NL,52.3473217,5.6158742,birdywomenswear.nl,Commerce
NL,51.8047004,4.0325995,dercadviesgroep.nl,Facility
NL,52.3684015,4.8803662,bijsimondelooier.nl,Facility
NL,51.9434437,5.5177303,electrovanommeren.nl,Commerce
NL,51.4770009,5.6461566,huisartsenpraktijk-smits.nl,Facility
NL,52.376758,4.6242443,cruquiusschool.nl,Facility
NL,52.8820552,6.017797,kringloopwinkelwolvega.nl,Commerce
NL,52.7868453,6.2239861,deholtingerschaapskudde.nl,Facility
NL,52.6716436,6.9995908,kapsaloneste.nl,Facility
NL,52.1043199,6.3195975,bloemendaalwiegerinck.nl,Commerce
NL,52.0878516,4.8792256,cafetariaverheul.nl,Facility
NL,51.923411,4.4956356,radjoeart-rotterdam.nl,Facility
NL,53.1853184,6.5902144,bequick1887.nl,Facility
NL,52.0272784,5.1613853,slaapspecialistjongerius.nl,Commerce
NL,52.0666157,4.3236603,grandcafesiezo.nl,Facility
NL,51.3814209,3.3977463,brasserieloulou.nl,Facility
NL,52.3898746,4.6238784,circushakim.com,Facility
NL,52.2929507,4.8759678,sinaicentrum.nl,Facility
NL,52.0990636,4.5950499,johannespostschool.nl,Facility
NL,50.834931,5.97341,vakantiehoevesimplevei.nl,Facility
NL,52.7459243,6.6885284,dezwerfkei.nl,Facility
NL,52.9556992,6.352234,restaria-appelscha.nl,Facility
NL,51.9032937,4.4972592,t3rijnhaven.nl,Unknown
NL,51.4258603,5.4894513,meiwaheindhoven.nl,Facility
NL,52.2901778,4.5780398,spieringsherenmode.nl,Commerce
NL,51.6119057,4.7584234,struktonmilieutechniek.nl,Commerce
NL,52.0964991,4.5905101,vanderlindehazerswoude.nl,Commerce
NL,52.252595,5.7615605,uddelermeer.com,Unknown
NL,51.7559954,4.1783657,streekarchiefgo.nl,Facility
NL,52.9733412,6.4731835,duurzaambovensmilde.nl,Unknown
NL,51.8648677,4.3543534,senseofchina.nl,Facility
NL,52.3430645,6.0467933,debongerdoene.nl,Facility
NL,52.2355759,5.6864961,klimbosgarderen.nl,Facility
NL,52.0574296,4.3458238,yogacompagnie.nl,Facility
NL,51.5431096,5.0552674,haantechniek.nl,Commerce
NL,52.0267279,5.6744651,proteinhub.nl,Facility
NL,52.8843548,6.0111645,victoriaparkwolvega.nl,Unknown
NL,52.36773,4.8661932,samskoffielunch.nl,Facility
NL,52.0652719,5.1376048,jankledingreparatie.nl,Commerce
NL,51.5021422,3.5964403,zorghotelszeeland.nl,Facility
NL,52.2277739,4.5243721,cafede2wezen.nl,Facility
NL,51.930052,4.4508671,sportparkblijdorp.nl,Facility
NL,51.61071,5.4469987,vincentiusschijndel.nl,Facility
NL,53.1919764,5.7199938,schoolplatendeinum.nl,Facility
NL,52.3566003,4.8921411,bistro-qlique.nl,Facility
NL,52.1278861,4.6617248,brasseriedealphenseburgemeester.nl,Facility
NL,51.9189646,4.5470172,fysiomotion.net,Facility
NL,52.3770232,4.8959088,saunanieuwezijds.nl,Unknown
NL,51.7009715,4.8592172,ijssalonenzo.nl,Commerce
NL,52.263075,4.6331635,fysiocentre.eu,Facility
NL,52.3467204,5.1496825,jeniffersbloemen.nl,Commerce
NL,51.8712944,6.3788114,christianoutlet.nl,Commerce
NL,50.8121116,5.9392892,restaurantinfini.net,Facility
NL,50.8472795,5.7074938,koepelkerk.net,Facility
NL,52.1322298,5.0614496,brasserieoudzuilen.nl,Facility
NL,52.2953828,6.5183387,excelsior31.nl,Facility
NL,51.8134087,4.6639887,bekkersnaaimachines.nl,Commerce
NL,51.6983801,4.2662331,campingdelagewerf.nl,Facility
NL,51.9898585,5.1036225,kitchen4all.nl,Commerce
NL,52.0840737,4.3128894,schipperslijsten.nl,Commerce
NL,52.3521989,5.2127403,thermenlamer.nl,Unknown
NL,51.4862434,5.1366881,santeborrelbar.nl,Facility
NL,52.3854723,6.2770185,foto-en-zo.nl,Commerce
NL,52.3497179,4.6536771,molenwiek-dalton.nl,Facility
NL,52.0136689,6.1353625,jackintheboxmode.nl,Commerce
NL,52.7727577,6.9188609,vanleeuwenemmen.nl,Commerce
NL,52.0963077,5.1220357,domstadadvocaten.nl,Commerce
NL,51.6517602,4.9431514,hofvansgravenmoer.nl,Facility
NL,52.7856787,4.794354,museumvreeburg.nl,Facility
NL,52.3796209,4.8853084,restaurantkoevoet.com,Facility
NL,51.5500804,5.0700654,grillroombosporustilburg.nl,Facility
NL,52.6754331,5.9150492,hetproeflab.nl,Facility
NL,52.1288748,5.4271908,bezoekamersfoort.nl,Commerce
NL,51.525729,4.5443641,campingdeposthoorn.nl,Facility
NL,51.9973696,5.9700268,cjcoiffure.nl,Facility
NL,51.7290167,4.9633838,dekoppelpaarden.nl,Facility
NL,53.23622,5.65985,fryskestrawberries.nl,Facility
NL,51.9992977,5.6758901,marianshobbyshop.nl,Commerce
NL,52.3753372,4.8459578,floryarestaurant.nl,Facility
NL,52.3807701,4.7716939,mijnstadstuin.nl,Unknown
NL,52.9939371,6.5619986,mannenmodederooij.nl,Commerce
NL,51.4708618,5.4766212,dazzlepersonaltraining.nl,Facility
NL,52.3382462,4.6389571,theehuiscruquius.nl,Facility
NL,52.1275737,4.6617168,ponsioenoptiek.nl,Commerce
NL,52.3086677,4.7070451,padelpoints.nl,Facility
NL,51.910763,6.3940083,onspakhuussilvolde.nl,Facility
NL,51.9994596,4.3693708,geothermiedelft.nl,Commerce
NL,52.7860368,6.7183083,pannenkoekboerderij.nl,Facility
NL,52.1563123,6.2083352,rubaservice.nl,Commerce
NL,52.3826558,4.6316641,thegoldenbull.nl,Facility
NL,52.8310372,6.368061,dedrentseliefde.nl,Facility
NL,51.9140927,4.4965003,colouredconsultancy.nl,Commerce
NL,51.6545197,4.8749406,kinderopvangoosterhout.nl,Unknown
NL,12.204883,-68.3112144,bonairecaves.org,Facility
NL,52.3319359,4.8842009,pardijsadvocatuur.nl,Commerce
NL,52.9475115,4.7786501,jachthavenpluto.nl,Facility
NL,52.3690964,4.8705087,karavaanamsterdam.nl,Facility
NL,52.1436659,6.7280244,av-haaksbergen.nl,Facility
NL,52.4288228,4.9131465,vandijkdhz.nl,Commerce
NL,52.6403513,5.0588238,bananamour.nl,Commerce
NL,53.2019401,5.8008544,hotelviavia.nl,Facility
NL,51.7951393,4.7135962,hetparkhuis.nl,Facility
NL,52.3869739,6.0412796,hetheerderfruithuis.nl,Commerce
NL,51.6000461,4.102209,hervormde-gemeente-sint-annaland.nl,Facility
NL,52.4083886,6.8960425,restaurantdepastorie.nl,Facility
NL,52.3429688,4.8663705,spinozalyceum.nl,Facility
NL,51.3620522,5.161671,mooi-groen.nl,Commerce
NL,52.0955408,5.1294621,coffeeshopdirect.com,Commerce
NL,51.9346317,5.5743281,ijsboetiek.nl,Facility
NL,52.1415722,6.1926634,proeflokaaltoer.nl,Facility
NL,51.9856271,5.8432272,kreekoosterbeek.nl,Facility
NL,53.1863673,5.7925987,deprincenhof.nl,Facility
NL,52.2019324,6.1244544,debreuninkhof.nl,Facility
NL,52.2367453,4.7488026,brasserieoevers.nl,Facility
NL,52.6459122,4.7287667,hamiltonbright.nl,Commerce
NL,51.6449599,4.8627201,cafeoudbrabant.nl,Facility
NL,51.4443243,5.3414318,bsdedisselboom.nl,Facility
NL,53.3443799,5.9607052,defoudgumseschool.nl,Facility
NL,52.3651285,4.863536,hazelnoten.net,Commerce
NL,52.1774913,5.9115097,vandervalkapeldoorn.nl,Facility
NL,52.0254537,4.3161537,brederodeschool.nl,Facility
NL,53.1697068,5.8019873,itnijehiem.nl,Commerce
NL,51.9577177,5.5683952,slagerijhermsen.nl,Commerce
NL,51.9746492,4.245031,kleijntweewielers.nl,Commerce
NL,51.9662618,5.8695169,boomgaarddesteenencamer.nl,Facility
NL,52.1443163,4.393433,marcoangenent.nl,Facility
NL,51.7048853,5.3443555,benbdesign.nl,Commerce
NL,51.9912045,5.70816,houthandelwjansen.nl,Commerce
NL,52.5618969,4.7357225,aparthaarstudio.nl,Facility
NL,52.5112502,6.0888718,ncp-assessments.nl,Commerce
NL,52.5144684,6.1214308,looksclinics.nl,Commerce
NL,51.9291128,4.5016363,scooterservicerotterdam.com,Commerce
NL,52.0853647,4.3123701,mammamiadenhaag.nl,Facility
NL,51.5675341,4.5420597,cafestroop.nl,Facility
NL,52.1579114,4.4910082,restaurantcityhall.nl,Facility
NL,52.372653,4.9387547,zeeburgorthodontie.nl,Facility
NL,51.6949885,5.2669916,kollsetenendrinken.nl,Facility
NL,53.1027251,5.8436066,rietreiger.nl,Facility
NL,52.5133389,5.0075973,autobedrijfgarant.nl,Commerce
NL,51.583054,5.1303615,derauwbraken.nl,Facility
NL,51.9352847,4.3778826,sachasstore.nl,Commerce
NL,52.6627438,4.8270937,bijrembrandt.nl,Facility
NL,52.9942136,6.5511924,witterbrug.nl,Facility
NL,52.0046396,5.0951336,thegoodfood-restaurant.nl,Facility
NL,52.7030862,5.1498847,tib-hoffer.nl,Commerce
NL,52.7037373,6.4757462,pol-transport.nl,Unknown
NL,52.3642669,4.8798971,quentinhotels.com,Facility
NL,52.3833242,4.8687884,gwl-terrein.nl,Facility
NL,12.1029801,-68.9241823,thomascuracao.com,Facility
NL,51.9809282,5.905338,kingofindia.nl,Facility
NL,52.1572548,5.3901564,dedikkekoning.nl,Facility
NL,51.8479957,5.8640575,kruidentuin.com,Commerce
NL,52.0856767,4.3729187,kapsalonessesteijn.nl,Facility
NL,51.9158009,4.4862605,speelfabriek.net,Facility
NL,50.9260665,5.7823984,vivantdecorations.com,Unknown
NL,52.5632677,5.8908736,diertotaal.nl,Commerce
NL,52.0259505,5.5534257,oudekerkveenendaal.nl,Facility
NL,52.5896093,6.2833672,slijterijdommerdiek.nl,Commerce
NL,52.6019441,6.4583053,dekalkwieke.nl,Facility
NL,52.1604814,4.538622,pcboregenboog.nl,Facility
NL,52.6943326,6.1908417,koezen-architecten.nl,Unknown
NL,52.3642489,4.8982485,restaurant-dejuwelier.nl,Facility
NL,52.4823132,6.1084797,grandcafezuijdt.com,Facility
NL,51.5088834,3.5530389,hoogelande.com,Facility
NL,52.4222991,4.8961629,friethuystien.nl,Facility
NL,51.3995421,5.4753632,dierenkliniekwaalre.nl,Commerce
NL,52.2247549,6.8798933,boxspringslaapcomfort.nl,Commerce
NL,52.0826317,4.311523,meinesholla.nl,Commerce
NL,52.974689,5.7974008,haske-joure.nl,Facility
NL,53.039145,7.0436952,modehuisheijewubs.nl,Commerce
NL,52.417657,4.6530799,dedolfijnhaarlem.nl,Facility
NL,52.3838023,4.6426614,molenadriaan.nl,Facility
NL,51.8647843,5.8531165,albanijmegen.nl,Facility
NL,52.2000507,5.9650237,haarhuisapeldoorn.nl,Facility
NL,52.120295,4.2917676,boomerangbeach.nl,Facility
NL,52.0861559,4.8845492,stadsmuseumwoerden.nl,Facility
NL,52.0012401,4.7786626,kanocentrum-haastrecht.nl,Commerce
NL,52.1599962,4.4822373,rembrandtroast.nl,Facility
NL,52.4826451,6.0311743,kwekerijsouman.nl,Commerce
NL,51.7354756,3.8562845,campingziltbijzee.nl,Facility
NL,51.558364,5.682181,maxbarbershop.nl,Facility
NL,52.0223547,4.8717731,pardoesoudewater.nl,Commerce
NL,52.2299473,6.8578484,apotheek-enschede.nl,Commerce
NL,52.2935917,4.5803775,hotel-flora.nl,Facility
NL,51.84128,5.863672,bijleveldvitaal.nl,Facility
NL,52.1609484,5.3808312,overmorgen.nl,Commerce
NL,12.1061321,-68.9015055,autobedrijfwillemstad.com,Commerce
NL,52.49708,6.42314,natuurlijkommen.nl,Facility
NL,52.142091,6.1940933,erfgoedcentrumzutphen.nl,Facility
NL,52.2631438,4.632603,vleeschhouwerijdescharrelaer.nl,Commerce
NL,52.0617638,4.3532366,kcdetelescoop.nl,Facility
NL,51.9646061,5.6620286,cafebijroos.nl,Facility
NL,52.0825957,4.3173459,raadopenbaarbestuur.nl,Facility
NL,51.5070758,5.3921662,osteopathievaneijck.nl,Facility
NL,51.3706157,5.2516504,sanitairdekempen.nl,Commerce
NL,52.225701,6.8901907,cafecoberco.nl,Facility
NL,52.2006488,5.9308241,devischmarkt.nl,Commerce
NL,53.0968536,5.8415476,hermanserveert.nl,Facility
NL,52.1413949,6.1951939,wijnhuistoren.nl,Facility
NL,52.99415,6.5657786,wierdavermogensbeheer.nl,Commerce
NL,51.2275959,3.7957579,bsdestatie.nl,Facility
NL,52.3651128,6.4623851,baltesmakelaars.nl,Commerce
NL,53.2800425,6.1502889,kroeze-optiek.nl,Commerce
NL,53.1291274,5.938974,bootverhuurwester.nl,Commerce
NL,52.5101842,6.0855198,chiropractorelzerman.nl,Facility
NL,53.2180901,6.5931695,bandenmanvanderveen.nl,Commerce
NL,52.2000464,4.3930713,kleenedelmetalen.nl,Commerce
NL,52.1512255,4.6605663,deheerenvanalphen.nl,Commerce
NL,52.4556061,5.6928981,bodrumbiddinghuizen.nl,Facility
NL,52.3732878,4.5301043,bluezoneespresso.nl,Facility
NL,52.3547524,4.8872973,restaurantmonteverde.nl,Facility
NL,52.3725169,4.8761195,bar-brandstof.nl,Facility
NL,52.3720321,4.8992627,debekeerdesuster.nl,Facility
NL,52.404283,6.8880376,zwembadootmarsum.nl,Facility
NL,52.7378786,6.234367,acker-lodges.nl,Facility
NL,51.9053401,4.4964721,hogeschoolrotterdam.nl,Facility
NL,52.1407496,6.1914551,limeflower.com,Commerce
NL,51.9989487,5.6752762,cafededorpsherberg.nl,Facility
NL,51.5878472,4.7773909,buhne-breda.nl,Facility
NL,51.861196,4.6598199,dejagerwonenenslapen.nl,Commerce
NL,52.4797498,4.6551971,gebakislekker.nl,Commerce
NL,51.8267335,5.5398862,wscmaasbommel.nl,Facility
NL,52.1651557,4.4990048,hendomarnixstraat.nl,Facility
NL,52.0874579,5.1346237,yingbin-utrecht.nl,Facility
NL,51.6462208,5.2832639,brasserieonderons.nl,Facility
NL,51.8115156,5.8015053,tandartspraktijkdukenburg.nl,Facility
NL,52.3761659,4.899591,hotelinternationaal.com,Facility
NL,51.9849447,5.7412,tijoreuvers.nl,Facility
NL,52.3903572,5.7711118,bijsselseenk.nl,Facility
NL,51.8727974,4.5919458,mountainspring-sushiking.nl,Facility
NL,52.2021277,4.3933837,stuivertjeantiek.nl,Commerce
NL,53.258345,6.4574341,herbergonderdelinden.com,Facility
NL,52.057399,5.2773798,kraaybeekerhof.nl,Facility
NL,51.8846078,5.1950273,witgoedhuis.nl,Commerce
NL,52.0213186,4.6605123,dt-hydraulics.nl,Commerce
NL,52.3789544,4.6541592,krijnenrijwielen.nl,Commerce
NL,53.486285,6.1554678,vvvschiermonnikoog.nl,Facility
NL,52.5031851,6.0839006,fit20hanzeland.nl,Facility
NL,52.0952695,5.1285192,restaurantheimat.nl,Facility
NL,51.9430132,5.9856343,dierenpensiondebongerd.nl,Facility
NL,51.4871599,3.9569914,stolbergschool.nl,Facility
NL,53.1617798,6.3907147,heysschoenmode.nl,Commerce
NL,52.3855801,6.2764564,barbershopachie.nl,Facility
NL,51.9970979,5.969875,tapasbarlacasita.nl,Facility
NL,51.7991586,4.9325633,fortaltena.nl,Facility
NL,52.2142235,5.9506657,rogertrading.nl,Unknown
NL,51.7252642,5.3518975,rodenborch.nl,Facility
NL,51.9653188,6.2881305,grandcafedebank.nl,Facility
NL,53.2043915,5.766702,vanderhorstautogroep.nl,Commerce
NL,51.5684755,5.0345157,zevengeitjes.nl,Facility
NL,53.2080706,5.7679076,kapsalonkingma.nl,Facility
NL,51.4320734,4.3776138,lps-stemarie.nl,Facility
NL,52.0768001,4.316122,pavlov-denhaag.nl,Facility
NL,52.863399,6.4953439,opslagbeilen.nl,Commerce
NL,51.5819026,4.778057,qprintbreda.nl,Commerce
NL,52.3859803,4.871489,pacificamsterdam.nl,Facility
NL,52.176117,4.4177378,obsdeverrekijker.nl,Facility
NL,51.4999002,3.6219863,waterscoutingpk.nl,Facility
NL,52.0188479,4.3900864,cafedumidi.nl,Facility
NL,52.0833709,5.1258805,centraalmuseum.nl,Facility
NL,51.5956377,5.083969,familiewok.nl,Facility
NL,52.054684,5.28903,bergenberg-driebergen.nl,Commerce
NL,52.2647299,4.6313327,hair-force1.nl,Facility
NL,50.8710152,5.7971453,deholleeik.nl,Facility
NL,51.5717542,4.805714,vishavenzicht.nl,Commerce
NL,51.8654562,4.6590027,philipdekoning.nl,Commerce
NL,52.2070576,5.2831813,degeneraal.nl,Facility
NL,51.3924862,6.1502592,wsvdemaasvenlo.nl,Facility
NL,52.0816609,4.7460995,hetkookstation.nl,Facility
NL,52.0876326,6.1576372,vangalenfotografie.nl,Commerce
NL,51.292582,5.5608719,hetzuyderblad.nl,Commerce
NL,52.2796746,5.1585554,pharosadvocaten.nl,Commerce
NL,51.8625953,4.605352,cbsdewingerd-ridderkerk.nl,Facility
NL,53.3846371,5.2849263,onderdepannen.eu,Facility
NL,51.327394,5.3132998,hoeveboordven.nl,Facility
NL,51.5716473,5.1804315,desportarena.nl,Facility
NL,52.6357378,4.7371904,regionaalarchiefalkmaar.nl,Facility
NL,52.7842226,6.0907086,vanvossentenders.nl,Commerce
NL,51.9463304,4.8559098,cafekuijfie.nl,Facility
NL,52.0804867,4.3969236,eflatundoner.nl,Facility
NL,52.3618245,4.9004947,utrechtsedwarstafel.com,Facility
NL,52.3389326,4.9622963,vroomoptiek.nl,Commerce
NL,52.0956046,6.5853027,vakantieboerderij-campanula.nl,Facility
NL,52.1035799,6.3156342,salonmarianne.nl,Facility
NL,52.295035,4.9769686,luckygarden.nl,Facility
NL,51.1939378,6.0263003,response-instituut.nl,Facility
NL,53.2036973,7.0416236,hervormdoostwold.nl,Facility
NL,51.6186355,5.4360787,voustenautos.nl,Commerce
NL,52.703798,6.3160936,debrouwmeester.nl,Facility
NL,52.0132268,4.358994,westcoastbarbershop.nl,Facility
NL,51.521345,5.0689355,bakkerijgoirle.nl,Commerce
NL,52.0949076,5.1205743,overdevloer.nl,Commerce
NL,52.3513321,4.6217516,broodje-bram.nl,Facility
NL,52.1565658,5.3883018,restauranthabibi.nl,Facility
NL,51.4716042,3.5364445,minicampingwesterwijk.nl,Facility
NL,51.8141819,4.895121,lachende-gans.nl,Facility
NL,51.6048939,4.9852902,capi-europe.com,Commerce
NL,52.2996091,6.7918169,villavital.nl,Facility
NL,53.1727689,5.4376422,autocentrumharlingen.nl,Commerce
NL,52.371074,4.617984,sanlorenzohaarlem.nl,Facility
NL,52.376845,4.7472975,broersoptiek.nl,Commerce
NL,51.3294328,5.9793974,belle-coiffure.nl,Facility
NL,51.5895,4.5288687,bernardusparochie.nl,Facility
NL,50.7777972,5.7552576,rivarekreatie.nl,Facility
NL,51.4707164,5.4753265,italiaanshuis.nl,Facility
NL,52.8740296,7.0675531,voetcentrumwelling.nl,Commerce
NL,52.2939521,6.0619043,tenholtenserve-pcbovoorst.nl,Facility
NL,51.6056252,5.6664367,flyingkiwi.nl,Commerce
NL,52.8078137,7.0235821,vanleeuwenautoschade.nl,Commerce
NL,52.5331886,6.0560878,mijnoptiekkale.nl,Commerce
NL,51.8606068,4.5422765,bvvbarendrecht.nl,Facility
NL,52.0247185,5.556274,toetjuniorstore.nl,Commerce
NL,51.3059615,3.8528672,wisseautomotive.nl,Commerce
NL,52.6800551,5.969138,kringloopwinkelvollenhove.nl,Commerce
NL,52.287277,6.7846716,stichtingdekapberg.nl,Facility
NL,52.5146634,6.0980699,19hetatelier.nl,Unknown
NL,52.1182598,4.4959235,kinderopvangzoeterwoude.nl,Facility
NL,52.5372984,6.0643294,desprankel.org,Facility
NL,51.6083297,5.1707793,desteenfabriekudenhout.nl,Facility
NL,51.93561,6.78928,landschapskudde.nl,Facility
NL,52.4565142,4.5923144,gerardvanes.nl,Facility
NL,52.1878961,5.9893847,stockbusters.nl,Commerce
NL,52.0759434,4.3569626,sterhaarmode.nl,Facility
NL,52.5708363,4.9925316,grotekerk-oosthuizen.nl,Facility
NL,52.2192168,6.8934123,bibliotheekenschede.nl,Facility
NL,52.5148632,4.9931559,baansteeautos.nl,Commerce
NL,52.3948987,6.0454819,kinderdagverblijfolli.nl,Facility
NL,51.8031397,5.7558761,binxxhairstyling.nl,Facility
NL,53.4079723,6.6728204,ngkuithuizen.nl,Facility
NL,52.9698448,5.6003284,campingoanepoel.nl,Facility
NL,52.1118984,5.1364077,speeltuindepan.nl,Facility
NL,52.3809356,4.8838655,mamaskoelkast.nl,Commerce
NL,51.6446498,4.8619191,cafedeapotheek.nl,Facility
NL,52.0927718,5.0129525,vishandelvleuten.nl,Commerce
NL,52.1393327,5.5871027,boekhandelromijn.nl,Commerce
NL,51.9301401,4.478305,rehobothkerk.nl,Facility
NL,52.2099267,5.9932984,wsv-apeldoorn.nl,Facility
NL,52.385949,6.0367875,rebornenergy.nl,Facility
NL,51.8491429,5.8385783,riverlandhealthcentre.nl,Facility
NL,52.1998141,5.9652906,schoenmakerijapeldoorn.nl,Unknown
NL,52.2218724,4.4865252,kinderboerderijvoorhout.nl,Facility
NL,51.9191072,5.8452391,bonteveren.nl,Facility
NL,52.2794325,6.4465284,kdvdevossebelt.nl,Facility
NL,51.5771602,4.7293928,vandervalkbreda.com,Facility
NL,51.3444966,5.4569254,berrybikes.nl,Commerce
NL,53.1721624,6.0399546,krobbehiem.nl,Facility
NL,52.0872562,4.2815267,planetjump.nl,Facility
NL,52.9590637,5.9239756,lederwarenhuispasveer.nl,Commerce
NL,52.8763997,7.0480987,camping-kloosterhoeve.nl,Facility
NL,51.3776996,3.3871244,terencezahn.nl,Commerce
NL,52.3190484,5.1061951,hakkelaars.com,Facility
NL,51.5107518,4.3707088,bradford-space.com,Commerce
NL,52.2054341,4.8723602,smitdorlas.nl,Commerce
NL,51.3081727,5.6067199,parochiemaarheeze.nl,Facility
NL,52.1630549,4.4844292,sultanalsham-leiden.nl,Facility
NL,52.3266636,4.8683738,sunfitbeautycare.nl,Facility
NL,52.1554354,5.3882471,lievevrouw.nl,Facility
NL,52.0142283,4.7232717,kringloop-gouda.nl,Commerce
NL,52.3497424,5.6198508,yamskoffiebar.nl,Facility
NL,52.4099684,6.7841136,terbeekreizen.nl,Unknown
NL,52.929609,5.710795,zeilschoolneptunus.nl,Facility
NL,52.3786268,4.6400568,dekloosterkeuken.nl,Facility
NL,51.7529339,5.500587,alaturqaoss.nl,Facility
NL,51.8224311,5.8372116,nec-nijmegen.nl,Facility
NL,52.0764962,5.1168683,salonjohanna.nl,Facility
NL,52.6603148,5.0643559,pchulphoorn.com,Commerce
NL,53.0001698,6.5633437,feniks-engineering.com,Commerce
NL,52.1408107,6.1966583,derevolutiezutphen.nl,Facility
NL,52.2283063,4.5243377,pizzeriaprontoitalia.nl,Facility
NL,51.5260767,5.0523196,obsdenbongerd.nl,Facility
NL,52.0026481,5.4467067,lorijnzuylestein.nl,Facility
NL,53.0575148,6.7251016,espresso-company.nl,Facility
NL,51.9287716,4.3446252,fysiotherapievlaardingen.nl,Unknown
NL,52.0634032,5.1910517,vandijkheating.com,Commerce
NL,52.0915464,5.2627198,huisartsenspoedpost-zeist.nl,Facility
NL,51.9497994,5.875242,woonboulevardarnhem.nl,Commerce
NL,52.0753833,4.3123649,wahnamhong.com,Commerce
NL,51.9282223,6.0779936,theooptiek.nl,Commerce
NL,52.0059344,4.3367418,delftse-tb.nl,Facility
NL,52.0179408,5.0422651,ijssalonluigi.nl,Commerce
NL,52.3516358,4.8911783,indianspicesandvibes.nl,Facility
NL,52.1459669,4.3944699,brama-poelier.nl,Commerce
NL,52.0265262,5.346963,econovision.nl,Commerce
NL,51.3319298,6.0969325,pizzeriamilanobaarlo.nl,Facility
NL,51.5466121,5.0893501,gezondintilburg.nl,Commerce
NL,53.1624253,4.8205759,strandpaal28.com,Commerce
NL,52.4072559,6.9601393,boerderijcampus.nl,Facility
NL,52.5100802,5.003167,robbenautoservice.nl,Commerce
NL,52.5142983,6.0959537,hetoversticht.nl,Commerce
NL,52.2712302,6.8154572,dierenwinkelxl.nl,Commerce
NL,52.0875813,6.1554913,ijsselborghendriks.nl,Commerce
NL,51.5133878,3.7293453,restaurantmiddenzeeland.nl,Facility
NL,52.4589416,6.1724982,cbsdelinde.nl,Facility
NL,51.3674151,6.1707541,vangelderenwijn.nl,Commerce
NL,51.5588735,3.5221599,dedankbare.nl,Facility
NL,51.5136335,4.4387059,peetsbloemenshop.nl,Commerce
NL,51.6955411,4.4417148,bunkerservicewillemstad.com,Commerce
NL,51.8985613,4.4147473,rdmtrainingplant.nl,Commerce
NL,52.1408444,5.5866519,hoedenhuisdelinde.nl,Commerce
NL,52.060846,4.5131698,ikcdegaerde.nl,Facility
NL,52.185785,5.2950981,toetanchamon-soest.nl,Facility
NL,52.0511771,6.3107175,memelink-bergervoet.nl,Commerce
NL,52.3213726,4.5952367,sparrenbosschool.nl,Facility
NL,53.055321,6.7586578,breelandrecreatie.nl,Commerce
NL,52.2119877,5.9525165,stedendriehoek.net,Unknown
NL,12.164518,-68.2863488,elisabettamaccari.com,Facility
NL,52.7724139,5.1049739,juwelierbethlehem.nl,Commerce
NL,53.2370618,6.5893968,podotherapiehenl.nl,Facility
NL,52.32896,6.6860208,henderikshoeve.nl,Facility
NL,51.4220064,5.561483,lacafetera.nl,Facility
NL,52.0835906,4.2775674,clubhousefitness.nl,Facility
NL,52.3943804,5.2804513,vishandelkroon.nl,Commerce
NL,52.1921166,5.4207215,thelakehouse.one,Facility
NL,50.8974128,5.9515259,keukenhuisheerlen.nl,Commerce
NL,52.2934875,4.8605614,rutgerstherapie.nl,Facility
NL,52.2361986,6.8113918,minicampingtwekkelo.nl,Facility
NL,51.5722804,4.8058124,hairhaarmode.nl,Facility
NL,52.2650039,6.7971408,interiorvitamins.com,Commerce
NL,50.9693246,5.8345627,emilioperez.nl,Commerce
NL,52.0813383,4.3430759,lunch-en-grill-kameel-den-haag.nl,Facility
NL,51.5022618,5.411959,coppensrekreatie.nl,Commerce
NL,51.8028671,5.2517254,adrieshairstyling.nl,Facility
NL,51.9351547,4.8714202,cgknieuwpoort.nl,Facility
NL,53.0772184,6.5748091,wereldwinkelvries.nl,Commerce
NL,51.3306495,3.6913104,vvbiervliet.nl,Facility
NL,52.3860407,6.0416144,zonweringput.nl,Unknown
NL,52.1966761,5.3866303,snowcountry.eu,Commerce
NL,51.5409456,5.0498569,yourtravis.com,Commerce
NL,52.5063691,6.101301,bloemenvanblok.nl,Commerce
NL,51.8942471,4.6298732,vonkdiervoeders.nl,Commerce
NL,51.4998152,4.0517882,oysterduinen.nl,Commerce
NL,51.44256,3.5770043,rhodosvlissingen.com,Facility
NL,51.5989627,5.5206509,bastruckcenter.com,Unknown
NL,52.2459231,5.2106752,laarenberg.nl,Facility
NL,52.3694644,4.6096759,zuidwester.com,Facility
NL,52.3146381,6.906172,directsushi.nl,Facility
NL,51.4193331,5.2889776,moutenhout.nl,Facility
NL,52.3835891,4.9127267,any-thaim-delivery.nl,Facility
NL,51.4432699,5.4550209,defakkeleindhoven.nl,Commerce
NL,52.1015409,4.3142115,restaurantrunners.nl,Facility
NL,51.6577207,5.6180306,beversvlees.nl,Commerce
NL,51.4999418,4.299815,masjidelfeth.nl,Facility
NL,52.0933707,5.1178426,meneerpotter.nl,Facility
NL,51.9715689,5.6711726,tapijtschuur.nl,Commerce
NL,51.7359254,5.5309964,slagerijvanorsouw.nl,Commerce
NL,52.5034799,6.0909184,eatzbyjake-zwolle.nl,Facility
NL,52.4874768,4.761559,baronautos.nl,Commerce
NL,53.1916995,5.7850411,kinderopvangaurora.nl,Facility
NL,51.4964316,3.6161288,samenrechtvinden.nl,Facility
NL,52.597902,4.7033514,huur-een-steiger.nl,Commerce
NL,52.1049315,6.067057,mensinkmode.nl,Commerce
NL,52.1993138,5.965285,cadeauvariant.nl,Commerce
NL,51.9812148,5.9113585,koffieprut.nl,Facility
NL,51.8524994,4.3234141,kammeraadstrijk.nl,Commerce
NL,52.8573879,6.2135752,museumvalsekunst.nl,Facility
NL,52.2208337,6.0000761,hpdeparelvisser.nl,Facility
NL,52.1283926,4.6790441,mountainlifestyle.nl,Commerce
NL,51.2304818,3.8292066,bsdekreeke.nl,Facility
NL,51.9650454,4.6172753,fitforfoodies.nl,Facility
NL,52.3784526,4.8944519,sandrasavelli.nl,Commerce
NL,52.5084596,6.0926957,ijsselvliet.nl,Commerce
NL,51.7591514,5.5298553,cliteurtandartsen.nl,Facility
NL,50.9231092,5.9340476,coiffeurheunen.nl,Facility
NL,51.9357224,4.4295944,albertschweitzer.net,Facility
NL,52.1604211,5.3670367,obsdemagneet.nl,Facility
NL,52.1338171,4.5996347,rijnschans.nl,Facility
NL,52.5065561,6.1014341,schoenmakerpotjes.nl,Unknown
NL,52.258528,5.6079157,restaurantdewaag.nl,Facility
NL,52.1439305,4.3929626,wereldwinkelwassenaar.nl,Commerce
NL,52.4556039,4.6274036,visvankaatje.nl,Commerce
NL,51.6314675,5.4153084,bouwbedrijfhobbelen.nl,Commerce
NL,52.1223972,5.1796002,irenebeach.nl,Facility
NL,52.3770253,5.7869432,fietsspecialistnunspeet.nl,Commerce
NL,51.9838784,5.6662404,unipartners.nl,Commerce
NL,52.4505651,4.8187602,geboortecentrumzaanstad.nl,Unknown
NL,53.2536043,6.6061798,buurtenrondhetvuur.nl,Unknown
NL,53.0767505,4.7491133,dezilvermeeuw.nl,Facility
NL,51.5202023,3.5991302,klein-leliendale.com,Facility
NL,52.6432647,6.2028397,waanders-staphorst.nl,Facility
NL,52.0226801,5.1709113,rvdhautoservice.nl,Commerce
NL,51.913784,4.9887629,autobedrijfjaspers.nl,Unknown
NL,52.3557472,4.8924763,thrillgrill.nl,Facility
NL,52.6960265,4.7669004,speelparkdeswaan.nl,Facility
NL,52.0136736,4.5802846,chickenandmeatgrillhouse.nl,Facility
NL,52.0962344,4.5844763,st-michaelschool.nl,Facility
NL,51.9314502,4.3562366,tpvlaardingen.nl,Facility
NL,53.178559,5.7963371,bodyshapeleeuwarden.nl,Facility
NL,51.6062204,4.8179684,restaurant-de-chinese-muur.nl,Facility
NL,51.6198213,5.4342316,restaurantsimpel.com,Facility
NL,52.4621266,4.5999914,klipper-atlant.nl,Facility
NL,52.0936143,5.1172092,deoaseboomutrecht.nl,Facility
NL,52.101849,5.0985209,moos-utrecht.nl,Facility
NL,52.6623701,4.83095,middenwaard.nl,Facility
NL,51.814351,4.6657505,musicdepartment.nl,Commerce
NL,52.1769394,4.4738412,momentsforhair.nl,Facility
NL,53.2296435,6.5436331,quicknsimpel.nl,Commerce
NL,52.1411228,6.1971844,collectiekranenborg.com,Commerce
NL,12.5522141,-70.0500605,sasaki-apartments.com,Facility
NL,52.5126402,6.0968433,hostelhetarchief.nl,Facility
NL,51.9571373,5.2383246,trimsaloncontessa.nl,Commerce
NL,12.1288027,-68.2856861,bellafontebonaire.com,Facility
NL,52.2955379,4.8612238,thepubamstelveen.nl,Facility
NL,52.1028722,5.1231673,badhuisutrecht.nl,Facility
NL,52.446833,4.629245,bc-westerveld.nl,Facility
NL,52.2889457,4.6757633,mastertotaalinrichting.nl,Commerce
NL,52.2225468,4.4844135,fietsenwarenhuis.nl,Commerce
NL,52.1259157,4.4480412,millefleurs-voorschoten.nl,Commerce
NL,52.0794325,5.1225398,koffieleute.nl,Facility
NL,52.0770912,5.1553388,utvkrommerijn.nl,Facility
NL,52.6323225,4.7497195,echtalkmaar.nl,Facility
NL,52.698923,6.1961633,hessels2wielers.nl,Commerce
NL,53.1019839,4.7565118,strandhotelnoordzee.nl,Facility
NL,51.5307186,3.8195111,hetsamenspelwolphaartsdijk.nl,Facility
NL,52.5496702,4.6737786,cateringdetoren.nl,Facility
NL,52.9664018,5.9183918,dokterswacht.nl,Facility
NL,51.6012417,5.226866,passioncuisine.nl,Facility
NL,53.1363865,6.4310233,kommaarbinnen.com,Facility
NL,51.9533221,4.5324209,bike4travel.nl,Commerce
NL,52.0496347,6.1071964,sloopbedrijf-arnhem.nl,Unknown
NL,52.2775377,4.8369019,bistronice.nl,Facility
NL,52.6418904,5.0555369,kellyjeans.nl,Commerce
NL,52.0208866,5.0988693,dedoorslag.nl,Facility
NL,51.9157235,4.4677785,odilehemmen.nl,Commerce
NL,52.1311925,5.3733613,restaurantzuiver.nl,Facility
NL,52.3667588,4.9091187,hotelhortus.com,Facility
NL,51.7623748,5.1791791,amadeuswellseind.nl,Facility
NL,52.9715186,6.1077271,dekoppenjan.nl,Facility
NL,52.079784,5.486518,sushisensations.nl,Facility
NL,52.6562269,5.0660394,whm-advocaten.nl,Commerce
NL,51.9003114,5.4490314,tapijtkoning.nl,Commerce
NL,52.2532973,6.2882995,gertvankeulen.nl,Commerce
NL,51.27068,5.9620685,campingneer.nl,Facility
NL,51.8836901,6.5198265,hetwestendorp.nl,Facility
NL,52.2230321,5.4875395,vergeetmijnietbloemen.nl,Commerce
NL,53.3050211,6.4904154,pastoriegarnwerd.nl,Facility
NL,52.2299153,5.0342893,mevrdaalder.nl,Facility
NL,51.672681,5.2884955,hetfortvught.nl,Facility
NL,53.1980346,6.5559191,gergemgroningen.nl,Facility
NL,51.3832715,5.6598613,parkdeheihorsten.nl,Facility
NL,52.2923341,4.8542695,gerritjanheemskerk.nl,Commerce
NL,52.3513607,4.8892136,rechtswinkelamsterdam.nl,Facility
NL,52.09159,5.1174541,steaksandribs.nl,Facility
NL,51.3290922,5.9700793,autohendriks.nl,Commerce
NL,51.4922816,4.2749481,belevingbergenopzoom.nl,Facility
NL,52.6243173,6.0403364,hvamakelaardij.nl,Commerce
NL,51.9764717,5.6889045,pluktuinbloemrijk.nl,Facility
NL,52.0891893,4.3825206,fabiennechapot.nl,Commerce
NL,52.0098543,4.3673856,chiropractieingelse.nl,Facility
NL,52.3418546,4.9637426,skinsclinique.nl,Facility
NL,51.6171952,5.4376076,verhoevenverzekeringen.nl,Commerce
NL,51.526302,5.9742811,edaspecialiteiten.nl,Facility
NL,52.0134271,4.6978839,hollandscherm.nl,Commerce
NL,52.3791965,4.6591911,daquitaine.nl,Commerce
NL,53.0106876,6.5787481,dekoningkeukens.nl,Commerce
NL,52.0347257,5.3459753,gasterijdekluis.nl,Facility
NL,52.3729258,4.8962914,papierenhelden.nl,Commerce
NL,51.9891912,5.1034289,fit2go-vianen.nl,Facility
NL,52.3568581,4.8743402,classicoamsterdam.nl,Facility
NL,53.1832417,5.6030441,fietspontkeimpetille.nl,Facility
NL,51.992895,5.0931354,inkstationvianen.nl,Commerce
NL,52.2541751,7.0097757,shalom-losser.nl,Facility
NL,51.8019419,5.2400106,ngkzaltbommel.nl,Facility
NL,51.9378088,6.128387,niekjansenmode.nl,Commerce
NL,52.0984261,5.1143625,stockholmcafe.nl,Facility
NL,50.906583,5.7842767,boerenbondulestraten.nl,Commerce
NL,51.7363759,5.358058,nextbikeparts.com,Commerce
NL,51.9397354,5.571193,vvkesteren.nl,Facility
NL,52.1287557,5.4273634,cherielingerie.nl,Commerce
NL,52.6972172,6.1913122,ristorantelagioia.nl,Facility
NL,51.8827376,4.6166161,hhgridderkerk.nl,Facility
NL,51.8855598,5.1046232,cafe-dewiel.nl,Facility
NL,52.1653015,5.5174312,bsdezaaier.nl,Facility
NL,52.2345736,6.8493823,cafetaria-mercurius-enschede.nl,Facility
NL,51.5801361,5.1918445,smaeckoisterwijk.nl,Commerce
NL,51.9163954,4.2463195,hotelmaassluis.nl,Facility
NL,51.7303814,3.770957,pension4seizoenen.nl,Facility
NL,53.4451819,5.7711317,slijterijdejong.nl,Commerce
NL,52.3659335,4.8733376,dashatattoo.com,Commerce
NL,51.9093922,5.6570216,beterlopen.net,Facility
NL,52.6664305,6.4270441,mangotravel.nl,Commerce
NL,51.709866,6.0228595,minicamping-de-niers.nl,Facility
NL,12.5436733,-70.0270137,arubaviarentals.com,Commerce
NL,51.8556825,5.0093768,lindehofspijk.nl,Facility
NL,52.9195944,4.723549,duinzoomhoeve.nl,Facility
NL,52.3859737,6.2727058,notariaatsalland.nl,Commerce
NL,52.2269834,5.9572217,ergolinesuncenter.nl,Facility
NL,52.0950522,6.6858044,campingontmoeten.com,Facility
NL,51.9657133,5.6629472,barbershopgentsonly.nl,Facility
NL,51.991316,4.3792514,tudelftcampus.nl,Commerce
NL,52.09819,4.3304237,imkersdenhaag.nl,Commerce
NL,51.1169591,5.8985262,bsmariagoretti.nl,Facility
NL,51.5206032,5.0719356,dejongwonenenslapen.nl,Commerce
NL,51.5604152,5.0922151,blewscreen.com,Commerce
NL,51.9577088,5.5671092,trendyhairconcept.nl,Facility
NL,50.9731126,5.8255871,sportieffietsen.nl,Commerce
NL,51.9997205,4.3555983,aramhairchitects.nl,Facility
NL,52.4403973,6.2835687,campingheino.nl,Facility
NL,52.2312553,4.4583518,klaverweideschool.nl,Facility
NL,51.8137237,4.6674626,no33basicluxury.nl,Commerce
NL,52.0142614,6.1371394,gildecafedoesburg.nl,Facility
NL,52.2578743,4.5700081,hetoudedykhuys.nl,Facility
NL,52.0953561,5.1296713,biologischeslagerijgerrittakke.nl,Commerce
NL,52.1729384,6.7417995,techmaghaaksbergen.nl,Unknown
NL,50.8918776,5.8523208,tpvdedassenburcht.nl,Facility
NL,52.3589953,4.9901846,bikesandboards.nl,Commerce
NL,52.1371442,6.0024854,veluwe-plaza.nl,Facility
NL,52.2526075,6.1584847,prittywoman.com,Commerce
NL,52.7207625,6.4823113,bakkerij-faber.nl,Commerce
NL,52.359826,4.8642077,addisababa.nl,Facility
NL,52.5114176,6.0867234,rondvaartzwolle.nl,Facility
NL,51.6533385,5.824031,handboogschutterijwanroij.nl,Facility
NL,53.2171841,6.5699716,olijfboomgroningen.nl,Facility
NL,52.1541879,6.2003585,hofvanzutphen.nl,Unknown
NL,52.094629,5.1359856,cornelis-utrecht.nl,Facility
NL,52.0096311,4.3627444,ifixfastdelft.nl,Unknown
NL,52.2341984,5.9460192,paleishetloo.nl,Facility
NL,51.5314648,4.4800961,jtc-roosendaal.nl,Facility
NL,52.5099164,5.4552434,obsdegrundel.nl,Facility
NL,51.9652348,5.6619963,vlaamschereus.nl,Facility
NL,53.2018844,5.7975607,delachendekoeleeuwarden.nl,Facility
NL,51.4410188,3.5760601,michielderuijterhaven.nl,Facility
NL,52.8445225,5.7117879,museumlemmer.nl,Facility
NL,51.1941249,5.7192722,bs-defirtel.nl,Facility
NL,53.2157698,6.5675343,cleopatra-groningen.nl,Facility
NL,52.0584712,5.1676224,fortvechten.nl,Facility
NL,52.3025346,6.7580503,bibliotheekborne.nl,Facility
NL,52.425308,7.008612,debergvennen.nl,Facility
NL,52.1149605,6.2207075,dutch-diagnostics.com,Commerce
NL,52.273086,4.6268219,verloskundigenpraktijkhaarlemmermeerenbollenstreek.nl,Unknown
NL,52.0274493,4.3616167,wereldrestaurantsamen.nl,Facility
NL,52.1523169,4.4892692,snackbarleiden.nl,Facility
NL,51.9109275,4.4369014,shrisaraswatie.nl,Facility
NL,52.3776693,4.6301128,restaurantaantplein.nl,Facility
NL,52.5263252,5.42562,campensurfmarkermeer.nl,Facility
NL,52.7864253,6.1170823,deherenvanderechter.nl,Facility
NL,51.7251544,5.3607037,brasseriepastis.nl,Facility
NL,53.0358351,5.6292716,veenstrabanden.nl,Commerce
NL,51.8897427,4.8137101,hervormdbrandwijk.nl,Facility
NL,51.9372674,4.5476365,berninirotterdam.nl,Commerce
NL,51.8132185,4.6659752,ristorante-danina.nl,Facility
NL,51.956828,5.5652001,stadsmuseumrhenen.nl,Facility
NL,53.1151397,5.4406321,pizzeria-pingjum.nl,Facility
NL,51.8490057,5.867345,viefnijmegen.nl,Facility
NL,52.4587737,4.6158388,lindasfashion.nl,Commerce
NL,51.8061536,5.8453619,landgoedgrootstal.nl,Facility
NL,52.7157253,4.9284852,ninemotors.nl,Commerce
NL,52.381998,4.8560072,impulskinderopvang.nl,Facility
NL,51.5914547,4.5468401,bsklinkert.nl,Facility
NL,52.5144358,6.0498261,crossfit-zwolle.nl,Facility
NL,52.6769639,5.0898307,schollaardt.nl,Commerce
NL,51.8560291,4.3338238,autoservicevp.nl,Commerce
NL,12.1210643,-68.9046474,trupialinn.com,Facility
NL,12.1481778,-68.2763817,capricciobonaire.com,Facility
NL,52.1870015,5.6043933,bellatotti.nl,Facility
NL,52.7654281,6.8853599,kardinaalalfrink.nl,Facility
NL,53.3763752,5.9222209,oeritfjild.nl,Facility
NL,51.5047054,3.616536,schouwburgmiddelburg.nl,Facility
NL,52.6719141,4.7001786,zustersbergen.nl,Facility
NL,52.2959241,6.9230403,woonboulevardoldenzaal.nl,Commerce
NL,52.087475,4.7392387,paardenburgh.nl,Facility
NL,51.5399457,5.5700553,openluchttheatermariahout.nl,Facility
NL,52.5190292,5.0746173,strandbadedam.nl,Facility
NL,52.0898801,4.3167994,janvannassau.nl,Facility
NL,51.5814437,5.0143183,emmausparochie.nl,Facility
NL,52.0477322,4.2928745,mozartpizzapasta.nl,Facility
NL,52.1570143,5.3906231,cafepitchers.nl,Facility
NL,51.5328902,4.4572263,drogisterijhetgeheim.nl,Commerce
NL,52.2556327,4.6280123,digilockeurope.com,Commerce
NL,51.5660554,5.7860114,pkn-gemertboekel.nl,Facility
NL,52.3555456,4.873511,schotsheuvel.nl,Facility
NL,53.1634217,5.5878081,campingdeslypstien.frl,Facility
NL,51.93177,5.5670917,kompaskesteren.nl,Facility
NL,52.0263336,4.6530524,doosopmaat.nl,Commerce
NL,52.9734315,5.8863055,bosma-logistiek.nl,Commerce
NL,52.1381337,6.1999344,devonkzutphen.nl,Commerce
NL,52.7981479,6.8948511,acaciafleureninterieur.nl,Commerce
NL,53.2156991,6.5449286,pizzerialabbraccio.nl,Facility
NL,51.830949,4.1313925,vvhellevoetsluis.nl,Facility
NL,52.8508455,6.7464991,deoudedrentseboerenherberg.nl,Facility
NL,52.6377624,4.9673405,koggehoeven.nl,Facility
NL,52.5091348,6.0648846,voiperator.eu,Unknown
NL,52.8116007,6.6501903,hotelwitteveen.eu,Facility
NL,52.1320831,5.2288086,midgetgolfbilthoven.nl,Facility
NL,51.57926,5.1908026,schepenstweewielers.nl,Commerce
NL,51.6726698,5.9422675,cornerstonecollege.eu,Facility
NL,52.4557709,4.6278082,g-omakelaars.nl,Commerce
NL,51.9303395,6.0764028,tpleinsuperkebab.nl,Facility
NL,51.6493541,4.8300891,nationalebomenbank.nl,Facility
NL,52.1765122,4.4698952,villa-beukenhof.nl,Facility
NL,52.6027657,4.7649694,slapenbijprinshendrik.nl,Facility
NL,52.0906959,4.9631992,bloemharmelen.nl,Commerce
NL,51.3118488,5.985837,maassenaanhangwagens.nl,Commerce
NL,52.1489322,5.9768408,kinderdagverblijfpommetje.nl,Facility
NL,51.3444103,5.8849597,oppekoffie.nl,Facility
NL,52.155302,5.3883049,hetkannetje.nl,Facility
NL,51.5719909,4.8060715,slagerijpieterkling.nl,Commerce
NL,52.5156183,6.1073924,jojosbarbershop.nl,Facility
NL,52.205895,6.8791196,ledue-isole.nl,Facility
NL,51.9746531,4.3152324,caeciliaschipluiden.nl,Commerce
NL,52.1419261,5.4211143,afastheater.nl,Facility
NL,52.3832726,4.6303138,cafedezwaanhaarlem.nl,Facility
NL,52.0559829,5.276128,bttf-vintage.nl,Commerce
NL,52.3035296,4.6974918,tokopandora.nl,Facility
NL,52.3360428,5.2197038,baxschoenen.nl,Commerce
NL,52.9233218,6.791333,deslijterijborger.nl,Commerce
NL,53.3313422,6.7506804,ngkloppersum.nl,Facility
NL,52.4344338,4.6598919,volendammerviscenter.nl,Commerce
NL,51.6725664,5.6441551,kartbaanuden.nl,Unknown
NL,52.3837626,4.9301104,hoteldegoudfazant.nl,Facility
NL,52.3729905,4.9126958,museumhavenamsterdam.nl,Facility
NL,52.1542074,4.5056731,happyschoolcoaching.nl,Commerce
NL,53.332248,6.5146955,goudenkarper.nl,Facility
NL,52.0620153,4.3157217,apotheekcalandria.nl,Commerce
NL,52.3993353,5.2929519,het-kristal.nl,Facility
NL,52.3706192,4.9213573,alanturingschool.nl,Facility
NL,51.7849737,5.3223491,restaurant-flicka.nl,Facility
NL,52.0641947,5.371871,jolicadeau.nl,Commerce
NL,51.9282295,6.0769404,slagerijgerritschen.nl,Commerce
NL,52.0277402,5.6668354,detandheelkundehoek.nl,Facility
NL,50.8814764,5.9869689,planmolenberg.nl,Commerce
NL,52.7030423,6.3160109,kuiper-koekange.nl,Commerce
NL,52.4511919,4.6353815,vvwaterloo.nl,Facility
NL,51.737173,3.8325619,destrandloper.nl,Facility
NL,51.5073076,5.0520782,valkdegroot.nl,Commerce
NL,51.8184161,3.9757818,torenmuseum.nl,Facility
NL,52.2268961,5.9571881,raadoptiek.nl,Commerce
NL,52.1585905,5.3875081,xaveriusamersfoort.nl,Facility
NL,51.8557044,5.0099558,cbsdehoeksteen.nl,Facility
NL,52.0139015,4.3586078,fontanella.nl,Facility
NL,52.3607834,4.8929519,studioannamora.com,Facility
NL,52.212245,4.6460633,pgoudewetering.nl,Facility
NL,52.1619642,4.4858215,indendoofpot.nl,Facility
NL,51.6510291,4.0028888,smdbnieuwerkerk.nl,Facility
NL,52.383553,4.8854493,kookboekhandel.com,Commerce
NL,52.2594198,5.6063033,skinbalanceputten.nl,Facility
NL,50.7716244,6.0241711,hotelvallis.nl,Facility
NL,51.6309335,5.4172983,lammersmotorsport.com,Commerce
NL,52.4752018,4.6580837,ijmondtimmerfabriek.nl,Commerce
NL,52.1567749,4.4920213,stomerijvanaalst.nl,Facility
NL,52.3062266,4.6929356,sportscompany.nl,Facility
NL,52.2079842,4.9333773,hetspoorhuis.nl,Facility
NL,52.4967018,6.0931634,cosmetique-totale.be,Facility
NL,53.0315613,6.2776866,groengoedmenken.nl,Commerce
NL,51.8329656,4.6816566,deviermaster.nl,Facility
NL,52.2016052,5.9940381,ibsderoosapeldoorn.nl,Facility
NL,51.4853248,3.8827012,dekoffieboer.nl,Commerce
NL,52.1969187,6.4441205,oosterbrookzuivel.nl,Unknown
NL,52.1955282,6.5754776,watermolendenhaller.nl,Unknown
NL,51.5204369,4.4736284,cafetariaramses.nl,Facility
NL,52.2542449,6.2074018,restaurantchinacity.com,Facility
NL,53.2156362,6.571509,boeddhaeye.nl,Unknown
NL,51.9972705,4.3526305,duimelandspeciaal.nl,Commerce
NL,52.5129049,4.9595869,vishandelsierpurmerend.nl,Facility
NL,53.0615111,6.0812174,debuorskip.nl,Facility
NL,52.2087158,4.6240047,webshop-kringloopalkemade.nl,Commerce
NL,52.2007954,5.3922907,nexxtlighting.com,Commerce
NL,51.89403,4.4969511,komagene-rotterdam-putsebocht.nl,Facility
NL,53.1933239,6.5716429,tandartspraktijkvankempen.nl,Facility
NL,52.2001295,4.3917897,paultweewielers.nl,Commerce
NL,52.7270363,6.4967194,escaperoomthebasement.nl,Facility
NL,52.0683309,4.3928201,slobbemeattrading.nl,Commerce
NL,52.6222872,6.041131,jbverzekeringen.nl,Commerce
NL,52.1993259,6.7675092,campingonderdesterren.nl,Facility
NL,52.0191199,4.4300837,optiekpijnacker.nl,Unknown
NL,52.3856053,6.2755038,bluessdenim.nl,Commerce
NL,51.5704495,5.9477708,restarialoon.nl,Facility
NL,51.7457754,5.715995,motelkoolen.nl,Facility
NL,52.2591251,4.8727106,cantinadelcorazon.nl,Facility
NL,52.0678659,5.2022116,lutsebikestorebunnik.nl,Commerce
NL,51.8364139,4.6853206,slagerijwestpolder.nl,Commerce
NL,51.8135464,4.6609705,zomooisamenwerken.nl,Commerce
NL,52.0515155,6.3096489,snackbarhoogstraat.nl,Facility
NL,52.3844987,4.6262303,hairlemkappers.nl,Facility
NL,51.9273963,6.5816861,restaurantkrul.nl,Facility
NL,52.1875466,5.6926096,derotterdammer.nl,Facility
NL,52.4346248,4.6589359,dierenspeciaalzaak-bormann.nl,Commerce
NL,52.1580205,5.3892214,jet-setters.nl,Facility
NL,51.8539226,5.8464296,demeesterproefnijmegen.nl,Facility
NL,51.6439527,4.8620789,proeflokaalmoolenaar.nl,Facility
NL,52.1088317,5.1819342,schoenmakerijvandermeyden.nl,Unknown
NL,52.1092099,5.0890742,dekleinebaron.nl,Facility
NL,52.8747792,5.9968247,bakkerijvliegendehond.nl,Commerce
NL,52.1131896,4.280789,hetpannekoekenhuisje.nl,Facility
NL,52.2952811,4.5809164,t-alternatief.nl,Facility
NL,52.452882,6.4151216,ichthuskerk-lemele.nl,Facility
NL,52.1550766,5.383267,hydrologic.nl,Commerce
NL,53.1024534,4.7558478,dikkezeehond.nl,Facility
NL,52.1319919,4.6812576,scoutingalphen.nl,Facility
NL,53.4018813,5.2504376,westaanzee.nl,Facility
NL,51.4035089,5.7335325,museumklokenpeel.nl,Facility
NL,51.5807664,5.1979734,etiennegallery.nl,Facility
NL,52.5168088,4.9951248,gijsenpoedercoating.nl,Unknown
NL,52.1217733,4.496779,rijnstaete.nl,Commerce
NL,52.3574048,5.1960285,forza-almere.nl,Facility
NL,52.2142299,5.9592875,nieuwsvanapeldoorn.nl,Facility
NL,51.9014044,4.4841413,bistrotdubac.nl,Facility
NL,51.9589767,5.3561996,dewiekslag-rijswijk.nl,Facility
NL,51.9255925,4.3381139,marnixvansintaldegonde.nl,Facility
NL,52.053329,4.4922403,ikcdevijverburgh.nl,Facility
NL,51.4761208,5.1746717,slagerijvugts.nl,Commerce
NL,53.0532178,4.7476651,bosenduin-texel.nl,Facility
NL,52.1101788,6.5086172,campingkleinhaneveld.nl,Facility
NL,52.3617012,5.3086786,fourlittledreams.nl,Unknown
NL,51.9897329,5.9112993,trivio-arnhem.nl,Facility
NL,52.2370789,6.1028698,stoffenboetiektwello.nl,Commerce
NL,52.6975665,5.2215863,kledingreparatiegrootebroek.nl,Commerce
NL,51.7685978,5.5271493,orientgardenoss.nl,Facility
NL,52.7409338,4.8371141,campingderietkraag.nl,Facility
NL,51.6891836,6.0065343,oldinnottersum.nl,Facility
NL,52.3734433,4.902377,marionettentheater.nl,Facility
NL,52.1818233,6.6876181,weegbruglima.nl,Facility
NL,52.3928356,4.6001443,dehemelsepannenkoek.nl,Facility
NL,51.9399926,4.4223484,wowhairstyling.nl,Facility
NL,52.1002712,5.1004557,bestariastraatweg.nl,Facility
NL,53.050315,5.8328782,dekletskous.nl,Commerce
NL,53.4466463,5.7688649,derentmeester-ameland.nl,Commerce
NL,52.9447375,5.6279447,dorpshuiswoudsend.nl,Facility
NL,52.497857,4.8113811,renrflowers.com,Commerce
NL,52.3642062,4.8783553,theedhotelamsterdam.com,Facility
NL,52.0066396,4.3808571,henkkoster.nl,Unknown
NL,51.9505645,4.5528911,schoenmakerijhakzo.nl,Commerce
NL,53.0871119,6.6942896,tandartszuidlaren.nl,Facility
NL,51.5102152,3.8777849,tandzorggoes.nl,Facility
NL,53.2308594,6.5737109,trimshophappydog.nl,Commerce
NL,53.0283658,6.7052565,pinetumanloo.nl,Facility
NL,51.6158338,5.5471579,berrys-haarmode.nl,Facility
NL,52.3085035,4.9350377,shivatemple.nl,Facility
NL,52.0894374,5.039271,kerkaanhetlint.nl,Facility
NL,52.1406863,6.197281,vanderboomadvies.nl,Facility
NL,51.6483202,5.9485533,tavoloquattro.nl,Facility
NL,52.1424434,4.5228867,rkbernardusschool.nl,Facility
NL,51.8922157,6.3843495,zaaldemulderije.nl,Facility
NL,53.0337659,5.6580816,kretasneek.nl,Facility
NL,52.042901,6.6180337,hotelpotgroenlo.nl,Facility
NL,51.4874937,3.8726348,kwakkenbosbewindvoeringen.nl,Commerce
NL,52.056355,4.3343467,trattoriamaximo.nl,Facility
NL,52.2608741,6.7750422,lotus-hengelo.nl,Facility
NL,52.6215637,6.0411659,lenmworkwear.nl,Commerce
NL,53.2722155,5.5575202,thefriezinn.nl,Facility
NL,51.7343445,5.5238953,bakkerij-lamers.nl,Commerce
NL,52.9711858,7.0190497,hoveniersbedrijfveldhuis.nl,Unknown
NL,52.120801,6.6491525,fceibergen.nl,Facility
NL,52.4888708,6.1096226,bartdefietsenmaker.nl,Commerce
NL,51.9810761,5.9067011,go-britain.nl,Commerce
NL,52.0772732,4.8965342,kdv-despeelweide.nl,Facility
NL,52.1257663,6.2432655,fysiotherapiewh.nl,Facility
NL,53.2033682,6.6551686,dehelleborus.nl,Facility
NL,52.1408974,6.1990923,zuivergeluk.nl,Unknown
NL,52.061446,4.5007913,motionbeweegcollege.nl,Facility
NL,52.7854156,6.1124794,hildokropmuseum.nl,Facility
NL,52.6408479,5.0599199,vdbergbanket.nl,Commerce
NL,51.5266475,5.0767788,horizon-it.nl,Commerce
NL,52.6596347,4.7850064,dorpshuisdegeist.nl,Facility
NL,52.2250427,6.8811057,lampenpaleis.nl,Unknown
NL,52.3731621,4.9034695,hemelsemodder.nl,Facility
NL,52.0097043,4.3669946,borstvoedingscentrumdelft.nl,Facility
NL,51.852452,4.3260029,puurhuidhaar.nl,Facility
NL,51.5644302,5.0920116,zijnhaarmode.nl,Facility
NL,51.9937551,5.9743887,marcpluimfotografie.nl,Commerce
NL,51.6176504,4.7607073,clubsandwiches.nl,Facility
NL,52.2869666,6.1461228,turnarounddiepenveen.nl,Facility
NL,52.3985265,5.2657325,dekidsloods.nl,Facility
NL,52.3688736,4.8909131,tlievertje.nl,Commerce
NL,52.0891522,5.1226359,courthotel.nl,Facility
NL,52.2032023,6.2831074,struintuin.com,Unknown
NL,52.0766074,4.8635838,hairstudioigor.nl,Facility
NL,51.4398603,5.8598338,natuurpoortdepeel.nl,Facility
NL,52.2425427,6.2008689,autobedrijfdoornink.nl,Commerce
NL,53.0775041,6.8607456,protestants-wildervank.nl,Facility
NL,52.3915589,4.6206867,kennemerlyceum.nl,Facility
NL,51.5842852,3.6991392,hoevehofwijk.nl,Facility
NL,50.7772946,5.7109016,fysiowillems.nl,Facility
NL,52.1440699,5.3879022,cafetariadesmond.nl,Facility
NL,51.3275299,5.9038318,frerichsoord.nl,Facility
NL,52.0169857,5.1157108,pack-parcel.com,Commerce
NL,51.9021242,4.449869,buurmanrotterdam.nl,Commerce
NL,52.3649243,4.9403221,elapalermo.nl,Facility
NL,53.1996715,5.7945135,sliekerfilm.nl,Facility
NL,51.4334465,5.4716438,rozenknopje.nl,Facility
NL,52.3735628,5.7765232,franciscus-nunspeet.nl,Facility
NL,51.6835297,5.3888824,changewonen.nl,Commerce
NL,51.7286664,4.437886,kate-fashion.nl,Commerce
NL,51.5060962,5.4919323,parapetto-grillroom.nl,Facility
NL,52.0813489,5.2374381,hernhutterhuis.nl,Facility
NL,52.1934212,5.9660601,tandartsvanheijst.nl,Facility
NL,51.5614336,5.0600753,cobbencampus.nl,Commerce
NL,51.9810929,5.9072284,koffiehuishethemelrijk.nl,Facility
NL,52.0787126,4.3179863,athenepalace.nl,Facility
NL,50.7964651,5.9243651,deheerenhof.nl,Facility
NL,52.1146749,4.36337,bloemcampschool.nl,Facility
NL,53.1926802,5.9907968,restariahetluifeltje.nl,Facility
NL,52.0134397,5.4375992,vv-hds-leersum.nl,Facility
NL,53.4031978,6.6740558,yvonnehollander.nl,Unknown
NL,52.3706535,4.5245445,pensiondewatertoren.com,Facility
NL,51.5706672,5.9482902,china-overloon.nl,Facility
NL,51.818876,4.7738116,brandweersliedrecht.nl,Facility
NL,53.2262708,6.5972915,newsinguang.nl,Facility
NL,52.101729,4.6177447,kleingiethoorn.nl,Facility
NL,52.3595287,4.8629852,gymbase-amsterdam.nl,Facility
NL,52.629675,4.749483,homeopathie-alkmaar.nl,Facility
NL,51.3477959,5.8827093,mathpeeters.nl,Commerce
NL,53.2227065,6.5647227,helenbeautysalon.nl,Commerce
NL,52.3152336,6.6707941,tennisbornerbroek.nl,Facility
NL,51.8225934,5.851105,piethuisman.nl,Facility
NL,52.7073278,4.8175259,webascooters.nl,Commerce
NL,51.466455,5.7001752,obsdestroom.nl,Facility
NL,53.2139095,6.2786523,akokkrijthe.nl,Commerce
NL,51.3271016,3.8193419,nieuwesluisterneuzen.eu,Unknown
NL,52.3575584,4.9305162,q-factory-hotel.nl,Facility
NL,51.4746792,5.7058947,speeltuinrijpelroets.nl,Facility
NL,51.6983959,5.3000124,moskeearrahma.nl,Facility
NL,52.0494295,4.417968,museum-webshop.com,Commerce
NL,53.0864637,6.9590826,erikdevriesautos.nl,Commerce
NL,52.6436971,5.0544952,hoekstraenvaneck.nl,Commerce
NL,51.4949471,4.051481,vegyerseke.nl,Facility
NL,52.1038749,5.0874078,hofvancartesius.nl,Commerce
NL,52.3512957,5.0043355,ijburgcollege.nl,Facility
NL,53.1902418,5.4415908,pensionharlingen.nl,Facility
NL,51.401989,5.3975978,rhodosdegriek.nl,Facility
NL,51.5119248,5.0541762,stokkermans-goirle.nl,Commerce
NL,52.3806823,4.6370676,restauranttoujours.nl,Facility
NL,51.6383093,4.3736341,eetcafehavenzicht.nl,Facility
NL,52.0202798,6.0620782,lamaisondusteeg.nl,Facility
NL,52.0879509,6.1533066,bakkerijteeselink.nl,Commerce
NL,52.5218308,6.1116892,kdvdezeester.nl,Facility
NL,51.5731357,4.783079,salondeprovence.nl,Facility
NL,51.8647171,4.6637765,kinderboerderij-alblasserdam.nl,Facility
NL,52.3121934,6.9258142,wineandbite.nl,Facility
NL,51.913123,4.075817,biberbunker.nl,Facility
NL,52.569769,6.643061,waterinkkeukenmakerij.nl,Commerce
NL,51.9532392,5.2440492,rk-depalster.nl,Facility
NL,51.6158032,5.4346317,antiekdeschootsehoek.nl,Commerce
NL,51.6567696,5.6149397,onscaffeej.nl,Facility
NL,52.0790931,4.3193981,debibliotheken.nl,Commerce
NL,50.9398888,5.97162,dierenartsencentrum-gardeniers.nl,Commerce
NL,52.3704185,4.8894207,bonbonboutique.nl,Commerce
NL,52.3789061,4.6345371,addicthaarlem.nl,Facility
NL,52.6875781,5.2543232,dewoestehoogte.com,Facility
NL,50.803481,5.8672127,restaurantthedill.com,Facility
NL,52.3128891,4.8744627,barrygroenteman.nl,Facility
NL,51.9840176,6.5624356,st-switbertus.nl,Facility
NL,52.5240715,4.7033841,fabouitgeest.nl,Facility
NL,52.0642256,4.2766594,hbcwooncomfort.nl,Unknown
NL,51.6169255,5.4376506,debeddenwinkel.nl,Commerce
NL,52.4757835,6.1218815,wonenenbouwen.nl,Commerce
NL,53.2055391,5.7630926,onderdeluifel.nl,Commerce
NL,52.1067629,6.3142866,schildersbedrijf-bargeman-vorden.nl,Unknown
NL,51.9465196,4.8500023,barbershopknippenz.nl,Facility
NL,52.4203549,4.6473293,gorijwielhandel.nl,Commerce
NL,52.007481,4.3606425,letsbakeastory.nl,Commerce
NL,52.3041405,4.6913108,kdmakelaars.nl,Commerce
NL,52.1231457,5.0461925,joostmotoren.nl,Commerce
NL,51.9578019,5.5701184,snuffelcornerrhenen.nl,Facility
NL,51.9576835,5.5645508,zonnenbergmakelaardij.nl,Commerce
NL,52.2125872,5.1966694,hltcgooiland.nl,Facility
NL,52.0825076,4.305426,restaurantelea.nl,Facility
NL,52.5104476,6.0953541,tijsoogmode.nl,Commerce
NL,51.9190582,4.5429,blauwtrustgroep.com,Commerce
NL,52.4186914,6.8658362,deroezeberg.nl,Facility
NL,52.6018508,4.7458308,interbosch.nl,Commerce
NL,52.0758757,4.309188,zwarteruiter.nl,Facility
NL,52.0939453,5.0129518,stomerijcitycleaning.nl,Facility
NL,51.9089921,4.5630541,oliehandel-terlouw.nl,Commerce
NL,52.086951,5.239462,sirtakizeist.nl,Facility
NL,51.9497218,5.2485526,cvv-vriendenschaar.nl,Facility
NL,52.3766762,4.7470669,susannebloemen.nl,Commerce
NL,52.35246,6.065481,dromenophetplatteland.nl,Facility
NL,51.6122455,5.9957128,camperplekdemaasheggen.nl,Facility
NL,51.8107362,4.618322,agro-delta.nl,Commerce
NL,52.1861675,4.4701161,gsmshopoegstgeest.nl,Unknown
NL,51.4829129,5.0852973,vplandbouw.eu,Commerce
NL,51.6892527,5.3153952,hoteldeblauwepauw.nl,Facility
NL,52.3706811,5.2180789,ohmypancakes.nl,Facility
NL,52.0612518,4.3199712,laakhavens.nl,Facility
NL,53.4774176,6.1615236,np-schiermonnikoog.nl,Facility
NL,52.7267563,5.1501294,cafevanrooijen.nl,Facility
NL,52.0803207,4.3173529,willembouman.eu,Commerce
NL,51.7933106,5.5417921,deoudemaas.nl,Facility
NL,52.3494444,4.8480002,amsterdambedandbreakfast.org,Facility
NL,51.7295978,5.8685477,hofmansathome.nl,Commerce
NL,51.4633239,5.7934978,cafeindensleutel.nl,Facility
NL,51.520531,5.0685611,vangilsgoirle.nl,Commerce
NL,51.9557162,5.226408,brenkmanculemborg.nl,Commerce
NL,51.2815459,5.7688273,brandweernederweert.nl,Facility
NL,52.3345655,5.2168326,bruidsshop.nl,Commerce
NL,53.1749761,4.8683512,strandpaviljoenkaapnoord.nl,Facility
NL,51.5721853,5.300253,dekempsehoeve.nl,Facility
NL,51.812524,5.8394056,crossfit-nijmegen.com,Facility
NL,51.4545938,5.4557644,degrotewolf.com,Commerce
NL,53.2573054,6.8598696,freekvanderwal.nl,Commerce
NL,52.5203947,4.9996796,rijnders-reizen.nl,Commerce
NL,52.1009589,5.13961,dewissel-levwn.nl,Facility
NL,51.8578017,4.5329646,cafedenpimpelaer.nl,Facility
NL,53.1942739,5.7900711,hollanderwijk.com,Facility
NL,52.1176665,6.2121161,debronsbergen.nl,Unknown
NL,52.0099408,4.4518251,debontetol.nl,Facility
NL,52.317651,4.8164825,pelikaan-badhoevedorp.nl,Facility
NL,52.4217122,4.8298459,fritesuitzuyd.nl,Commerce
NL,52.0266124,4.7105953,rafaelgouda.nl,Facility
NL,52.1200788,6.4901212,groothagenbeek.nl,Facility
NL,51.8960337,4.6276352,ijsclubthialfkrimpen.nl,Facility
NL,52.1417027,5.0398365,dedorpsgek.nl,Facility
NL,51.7414275,5.4950562,de-waterman.nl,Facility
NL,52.3653228,4.8756803,littleplantpantry.com,Commerce
NL,51.9333466,5.5703912,bestelflorence.nl,Facility
NL,52.2151674,5.9657401,verzantvoort.com,Unknown
NL,52.0575499,4.4924197,verlaanmakelaardij.nl,Commerce
NL,52.7161359,6.8434014,ijsbaanveenoord.nl,Facility
NL,52.6083547,6.666762,corgisnest.nl,Facility
NL,51.8177699,5.8495551,bakkerij-holland.nl,Commerce
NL,52.4843419,6.0298206,temaprocess.com,Commerce
NL,51.7089925,5.3037442,hvblauwwit.nl,Unknown
NL,51.9505738,4.8376845,csgwillemdezwijger.nl,Facility
NL,53.1113977,6.8853099,koffieplein.nl,Facility
NL,51.8906898,4.9055597,aantjesgoudriaan.nl,Unknown
NL,51.8099766,4.6683672,lindenhorstedelstenen.nl,Commerce
NL,52.0758952,4.3082676,hosteldenhaag.nl,Facility
NL,52.4766416,6.114796,obs-ijsselhof.nl,Facility
NL,52.2209854,6.9655346,glanerbrug-noord.nl,Facility
NL,52.0261478,4.3144899,sterrenwachtrijswijk.nl,Unknown
NL,51.4577409,6.0472832,slenderyoufit.nl,Facility
NL,52.0969752,5.1267365,cultureboat.nl,Commerce
NL,52.1059811,6.3539915,meulenbrugge-vorden.nl,Facility
NL,52.0800107,4.3224122,perronxcoffee.nl,Facility
NL,52.0814746,4.7417877,toonvaneijk.nl,Commerce
NL,52.5026404,6.1209318,blankertshortlease.nl,Commerce
NL,52.2511416,6.7613009,trvtubantia.nl,Facility
NL,52.1645572,5.0109498,patrickdegenkamp.nl,Unknown
NL,53.219582,6.5710092,uitgeverijpassage.nl,Commerce
NL,52.0792125,5.3133355,buurtsuper-austerlitz.nl,Commerce
NL,52.1382967,5.5876711,klokschoenreparatie.nl,Unknown
NL,52.1556128,4.4975252,hairstudio-milano.nl,Facility
NL,51.5433589,4.44787,dgdroosendaal.nl,Commerce
NL,51.98626,4.6708723,hair-saloon.nl,Facility
NL,52.4064705,6.7846211,ellenkleineschaars.nl,Facility
NL,52.2383797,6.8610895,nieuwbouw-cube.nl,Commerce
NL,52.2528628,7.0157415,cafeheijdemann.nl,Facility
NL,52.6397151,5.0593777,thebambooroom.nl,Facility
NL,52.004817,6.0377099,dorpskerkrheden.nl,Facility
NL,51.6761524,3.8727156,doutepoppe.nl,Facility
NL,50.8643785,5.8322024,wijzijnvalkenburg.nl,Unknown
NL,53.0537918,5.8374965,abcverspreiding.nl,Unknown
NL,52.5203476,6.0649231,klomptransport.nl,Commerce
NL,52.0905857,4.3877829,obs-demargriet.nl,Facility
NL,52.3322876,4.7300807,veldema-automotive.nl,Commerce
NL,51.9384446,4.8994755,ngklangerak.nl,Facility
NL,52.0058809,5.0955042,bloemenshop4roses.nl,Commerce
NL,52.3654973,4.8802527,backstagehotel.com,Facility
NL,53.1384188,7.140717,vestingoudeschans.com,Facility
NL,52.2745621,4.7953457,bahamaszonnestudio.nl,Facility
NL,51.5945364,4.7791545,trattoriaperron.nl,Facility
NL,53.2133817,6.2755817,bakkerhamersma.nl,Commerce
NL,52.1066208,5.0746897,ruudkuijer.nl,Facility
NL,51.5520128,5.6737376,scouting-gemert.nl,Facility
NL,51.6478476,3.9068204,odensehuis-sd.nl,Facility
NL,52.4087525,6.7814977,oldschoolbarbershopmichael.nl,Facility
NL,51.5682764,3.5393035,villamagnolia.nl,Facility
NL,52.135021,4.7138658,kaasboerderijluyben.nl,Commerce
NL,12.084563,-68.8972596,olasycopas.net,Facility
NL,52.0864478,5.0437835,plattelandswinkelgoes.nl,Commerce
NL,52.0845174,4.3597202,debinnenbaan.nl,Facility
NL,53.3579884,6.4287399,hoornstertil.nl,Facility
NL,52.0020846,4.3576219,wonenblauwgroep.nl,Commerce
NL,51.53042,4.4639861,praktijkburgerhout.nl,Facility
NL,52.564236,4.738703,palingshop.nl,Commerce
NL,52.737725,6.8833636,zonnestudio-rietlanden.nl,Unknown
NL,51.9353015,4.3785199,cafehethoefijzer.nl,Facility
NL,52.0697494,5.0958063,bsdeolijfboom.nl,Facility
NL,51.5413723,6.0451723,campinglandgoedgeijsteren-den-buizerd.nl,Facility
NL,52.3756794,4.9005981,vattenramen.com,Facility
NL,53.2389892,5.7756138,devriescornjum.nl,Commerce
NL,53.0489889,5.8376445,kaashuysakkrum.nl,Unknown
NL,18.0319742,-63.0910222,simpsonbaysuites.com,Facility
NL,52.0747193,4.3111265,88makelaars.nl,Commerce
NL,51.3560894,5.3321318,de-tinteltuin.nl,Commerce
NL,52.3811521,4.8810033,riokledingreparatie.com,Commerce
NL,51.6637408,5.610305,snijdersmetaal.nl,Commerce
NL,52.0115407,6.5830978,buitengewoonlievelde.nl,Facility
NL,52.0239171,4.3461764,dedrassigedriehoek.nl,Facility
NL,53.1708698,6.9795136,ijsverenigingoldambt.nl,Facility
NL,52.5107783,5.005983,old-barbers.nl,Commerce
NL,52.0129618,4.3559575,slagerijleovanvliet.nl,Commerce
NL,52.2257583,5.3727721,vrieshuisbaas.nl,Commerce
NL,52.6788817,5.1384236,svdrechterland.nl,Facility
NL,52.3746913,4.89544,lockerpoint.com,Unknown
NL,52.1693648,5.356251,paniniitaliani.nl,Facility
NL,52.0799267,5.0948305,zaharastyling.com,Commerce
NL,51.4544263,3.8807349,trekkermuseum-otmmz.nl,Facility
NL,50.8490307,5.66327,bonnefantencollege.nl,Facility
NL,51.4132716,5.3992228,rollthedice.nl,Unknown
NL,52.2948758,6.0011396,baltusholland.com,Commerce
NL,52.3074293,6.7379511,detambourijn.nl,Commerce
NL,51.3255481,6.0117975,ondereneindt.nl,Facility
NL,51.6875198,5.0774372,miriamoremans.nl,Commerce
NL,51.6429722,4.8530233,kapsalonyoussef.nl,Facility
NL,52.7198541,6.0980498,kraggehuis.nl,Facility
NL,51.505472,5.4005005,dierenartsverstappen.nl,Commerce
NL,52.9533382,4.766129,deschieman.nl,Commerce
NL,51.4276044,5.3789496,bijenberkt.nl,Commerce
NL,52.0123887,4.347374,dierenkliniekwestland.nl,Commerce
NL,52.1382239,5.5878232,vonktweewielers.nl,Commerce
NL,52.3686532,4.8874466,amsterdamvintagewatches.com,Commerce
NL,52.0470937,5.2978297,landgoeddehorst.nl,Facility
NL,51.9792557,6.3002173,tennisparkdesprong.nl,Facility
NL,51.9986181,4.4835743,haarstudio-yvonne.nl,Facility
NL,52.390933,4.6532772,draaiorgelmuseum.org,Facility
NL,52.0004341,6.3537779,takkenkampgroep.nl,Commerce
NL,53.1996769,5.7962463,themeatroom.nl,Facility
NL,51.7824283,4.553111,jonastweewielers.nl,Commerce
NL,53.213076,6.5891141,aedoplossing.nl,Commerce
NL,51.9975937,6.3514376,dutchprocesstechnology.eu,Commerce
NL,52.1605404,4.4890805,platoleiden.nl,Commerce
NL,51.5328789,4.4663342,barbershopadriaansen.nl,Facility
NL,52.2851218,6.9248336,avadologistics.nl,Commerce
NL,52.1561626,6.7317906,fysiotherapiewerfheegde.nl,Facility
NL,52.021631,4.1704958,vanderlugttweewielerservice.nl,Commerce
NL,52.1983452,5.3911447,projectvloerenspecialist.nl,Commerce
NL,12.1291447,-68.2454077,redpalmvillage.com,Unknown
NL,51.5210852,5.0690106,debloemenkamer.nl,Commerce
NL,51.8025297,5.2510454,brilleninbommel.nl,Commerce
NL,51.6230686,5.4275624,alkemalijstenmakerij.nl,Commerce
NL,53.3315084,6.7460869,bloombinderij.nl,Commerce
NL,52.2273133,5.1772372,mouthilversum.nl,Facility
NL,53.2729117,5.6033826,groatekerk.nl,Facility
NL,51.7177148,5.2651517,tennis-engelen.nl,Facility
NL,51.9877231,5.9269657,dansenbijversteegh.nl,Facility
NL,52.2410021,6.5147803,vakantieparkhessenheem.nl,Facility
NL,51.5526633,5.0940366,burgemeesterjansen.nl,Facility
NL,53.1747823,5.4155807,levels-harlingen.nl,Facility
NL,53.3576731,5.2143996,behouden-huys.nl,Facility
NL,53.3587065,5.2133863,lichttechniekterschelling.nl,Unknown
NL,52.3491097,5.6478024,obshettalent.nl,Facility
NL,52.2800734,6.8072654,webwinkelvisie.nl,Commerce
NL,52.3144907,4.8802102,nmedichtbij.nl,Facility
NL,52.3037948,4.6907267,barbistrojoseph.nl,Facility
NL,51.6471983,5.6461827,compumatica.com,Commerce
NL,52.3635382,4.8844451,grillsteakhousemaya.com,Facility
NL,52.2080315,4.4001275,rutgersschool.nl,Facility
NL,52.1335804,5.364991,schuilplaatsverleners.nl,Commerce
NL,52.2187057,6.9624885,ijsclubglanerbrug.nl,Facility
NL,52.0931125,5.1250945,kunstliefde.nl,Facility
NL,51.8987319,4.5001653,wijkcooperatie.org,Commerce
NL,52.8374454,6.3639775,overentinghe.nl,Facility
NL,52.1898038,5.9650682,bijzonderebonen.nl,Facility
NL,52.6597156,6.7412372,nazar-coevorden.nl,Facility
NL,52.0794459,4.9098686,ei-woerden.nl,Commerce
NL,52.1622643,4.4852656,rederijrembrandt.nl,Facility
NL,51.5921671,5.350354,classicpark.nl,Facility
NL,53.0053151,6.5668792,franketweewielers.nl,Commerce
NL,52.3721041,4.8914035,abraxasshop.com,Commerce
NL,52.1936106,5.67825,jacobus-hoeve.nl,Facility
NL,51.4982352,3.6083494,despotmiddelburg.nl,Facility
NL,51.8603721,5.8640176,restaurant-lentplaza.nl,Facility
NL,51.5773389,5.4540586,verbakeltuinen.nl,Commerce
NL,51.9726585,6.2663771,avo-doetinchem.nl,Commerce
NL,52.4463854,4.8191758,kissbakery.nl,Commerce
NL,52.4371133,4.9929521,broekerhuis.nl,Facility
