country,lat,lon,website,place_type
FI,65.1842736,25.3656217,haukiputaanheitto.fi,Facility
FI,62.6238391,22.4038131,autohuoltomakela.fi,Facility
FI,60.1904763,24.973944,siemenliikesiren.fi,Commerce
FI,60.1634079,24.9332074,aleksanterinteatteri.fi,Facility
FI,68.3856782,23.6425144,korulaakso.com,Facility
FI,60.2503115,25.0130591,ravintolamakalu.fi,Facility
FI,60.2002644,24.5958879,michaelsgarage.fi,Commerce
FI,62.6268008,29.7971435,elektroshemeikka.com,Commerce
FI,62.3016408,27.1532035,pieksamakiseura.fi,Facility
FI,62.2397544,25.7326852,fysiokirsikka.fi,Facility
FI,66.0134018,29.0007411,ruskalaukka.fi,Facility
FI,63.6851341,25.9747694,pyhajarvenhelluntaiseurakunta.fi,Facility
FI,60.2464887,24.8612058,willihanhi.fi,Facility
FI,63.0660339,28.3285166,likilounas.fi,Commerce
FI,60.1306337,19.9336101,clasohlson.ax,Commerce
FI,60.4506592,22.259518,mikkominna.fi,Facility
FI,60.4520192,22.3024687,bouldertehdas.fi,Facility
FI,68.3845968,23.6094511,hetanlomakyla.fi,Facility
FI,62.5395433,24.1473416,hiusihanuus.fi,Facility
FI,60.2161035,24.9850075,koskenranta.net,Facility
FI,63.343936,22.5633411,tonttumuseo.fi,Facility
FI,61.3492882,22.892478,tyrvaansahkotyo.fi,Unknown
FI,60.3777978,25.2821643,soderblompuutarha.com,Commerce
FI,62.6277215,29.7512343,katsastuskovalainen.fi,Commerce
FI,64.1268838,29.5258296,kuhmonpizzeria.fi,Facility
FI,60.1514321,24.9471605,helsinkisailing.com,Facility
FI,65.0012078,25.4683257,huovisenleipomo.fi,Commerce
FI,63.5481815,23.6953519,kaustisenhelluntaiseurakunta.com,Facility
FI,64.244744,24.8107932,wanhawoima.fi,Facility
FI,61.2217499,25.775689,suomenmuinaistaideseura.fi,Facility
FI,62.5820327,22.7487515,luopajarvensaha.fi,Commerce
FI,60.4481851,22.2712536,televisioon.fi,Commerce
FI,65.0117239,25.4687423,kauppakorttelipekuri.fi,Commerce
FI,62.9797859,27.732017,puijonromu.fi,Commerce
FI,60.5205754,26.9282075,karhulanhelluntaisrk.fi,Facility
FI,61.3393637,24.2695352,palkaneenkatukappeli.fi,Facility
FI,60.9911981,25.4786521,jalkahoitoa.fi,Facility
FI,60.1597151,24.9464381,kaivopuistonapteekki.fi,Commerce
FI,60.1978531,24.9289271,ardenrestaurants.fi,Facility
FI,62.9690935,23.0053074,hantulankukka.fi,Commerce
FI,60.6246503,21.9066721,mietoistenvpk.fi,Facility
FI,60.2248023,24.9064016,toimistoristikko.fi,Commerce
FI,64.3526967,26.2883736,siikalatva.fi,Facility
FI,60.79209,21.1431956,visituusikaupunki.fi,Facility
FI,60.1927978,24.9542426,hasanpartners.fi,Commerce
FI,60.4639459,26.9327446,cleanshieldgroup.com,Commerce
FI,62.900058,29.4049634,koskipirtti.com,Unknown
FI,60.8816314,21.6962653,laakaripalvelut.fi,Facility
FI,63.1784124,26.3352111,keiteleenhelluntaiseurakunta.fi,Facility
FI,59.852645,22.9988485,silversand.fi,Facility
FI,60.4544825,22.2874636,proffankellari.fi,Facility
FI,62.2992046,27.1531686,taloustalopieksamaki.fi,Commerce
FI,61.1543514,25.5963865,vesivehmaanlihapalvi.com,Commerce
FI,61.8997655,27.8077723,juvanautohuolto.fi,Commerce
FI,61.449407,23.8509843,beautybytwin.fi,Facility
FI,61.5367248,23.624099,iloisenpojan.com,Facility
FI,62.2890272,26.2399251,isautomotive.fi,Commerce
FI,60.2638218,24.8707797,onnijaihanuus.fi,Facility
FI,59.9755151,23.4363954,floatingspa.fi,Facility
FI,60.3172026,24.0757617,lohjanmaamiesseura.fi,Facility
FI,60.1526788,24.6615678,tempputemmellys.fi,Facility
FI,60.5116417,21.9774327,hoitotyonakatemia.fi,Commerce
FI,61.4976233,23.7727712,tampereennakokeskus.fi,Commerce
FI,61.1714495,28.7675195,royalgurkha.fi,Facility
FI,64.9983146,25.4594442,oulunautomaalit.fi,Commerce
FI,60.4461384,22.2293624,nuortentyotuki.fi,Facility
FI,62.2474321,26.9538232,mahlaforest.com,Commerce
FI,60.3805273,25.0358009,sulantienautokatsastus.fi,Facility
FI,62.8351085,22.9169349,nurmoo-seura.fi,Facility
FI,61.1303424,22.1379976,eurankuntis.fi,Facility
FI,62.896087,27.6790022,savonauto-opisto.fi,Facility
FI,61.4904433,23.8210966,suutarihoglund.fi,Unknown
FI,61.4322769,23.8095569,hiusbellissimo.fi,Facility
FI,64.0473391,29.5483903,tulijarventuvat.fi,Facility
FI,60.2484422,24.0614277,trattoriagusto.fi,Facility
FI,60.1857745,24.6108949,ravintolakoivunoksa.com,Facility
FI,65.9342688,29.3128152,wanharaatesalmi.fi,Facility
FI,60.4461148,22.3439427,turunfillarihuolto.fi,Commerce
FI,61.1304442,22.1378088,euranasuntopalvelu.fi,Commerce
FI,64.2167937,27.7129473,opiskelijakuntakamo.fi,Facility
FI,61.0590465,28.1903775,ravintolalalo.fi,Facility
FI,60.4582691,26.2271363,ravintolasaino.fi,Facility
FI,60.449351,22.2666063,cafechingon.com,Facility
FI,60.9128524,26.772608,leipomokoppanen.fi,Commerce
FI,60.4179759,21.895532,pohjakulma.fi,Facility
FI,61.4974827,23.7663042,champagnebarsante.fi,Facility
FI,60.5213265,24.2393304,lihamestarivaske.fi,Commerce
FI,60.2470566,24.7471204,pitkajarvenvaeltajat.fi,Facility
FI,63.6747662,22.706045,sportmagasinetmattsson.fi,Commerce
FI,62.6783724,21.9876001,jurvanteatteri.fi,Facility
FI,60.8369433,25.341616,mansikkatilapekkala.fi,Commerce
FI,60.2038106,24.6526754,kennelliitto.fi,Facility
FI,62.5483916,24.0757695,remixkirppis.com,Commerce
FI,62.1567893,30.2599102,erakuningas.fi,Commerce
FI,60.4720563,22.233821,lansikeskuksenapteekki.fi,Commerce
FI,59.9901445,23.2289966,prastkulla.fi,Unknown
FI,60.8252427,27.4539723,palvaanjarvi.com,Facility
FI,63.0952539,21.6120362,vaasankaupunginmuseot.fi,Facility
FI,65.0402602,24.5614105,luotsihotelli.fi,Facility
FI,62.4124824,25.9584828,laukaanyrityspalvelut.fi,Commerce
FI,60.4498417,22.2577411,hoitohuonekivuton.fi,Facility
FI,60.1875447,24.9781901,vapaakaupunki.fi,Facility
FI,61.0596854,28.1949402,saimaan-tietokone.fi,Commerce
FI,60.1683527,24.9555542,korkeinoikeus.fi,Facility
FI,62.3008778,27.1581683,elcentropizzeria.fi,Facility
FI,60.9382814,25.9550301,kebabistro.fi,Facility
FI,60.1666969,24.929714,matchacrew.com,Commerce
FI,60.2080972,25.1442198,onniravintolat.fi,Facility
FI,64.4876692,24.9890816,vihanninapteekki.fi,Commerce
FI,62.6020498,29.7593071,ekokirppis.fi,Commerce
FI,61.1319223,25.6578236,antinautomuseo.fi,Facility
FI,60.1616639,24.9398243,helsinginmetodistiseurakunta.fi,Facility
FI,60.2049369,21.8694714,gammelgard.fi,Facility
FI,65.5239316,25.258484,camping-merihelmi.fi,Facility
FI,60.4532007,22.271088,centrohotel.com,Facility
FI,60.9967892,24.467762,barskogster.fi,Facility
FI,61.5049085,23.7882396,justclipit.fi,Facility
FI,60.084749,24.3980579,turva-askel.fi,Commerce
FI,64.9123836,25.5067833,elainlaakariasemanemo.fi,Commerce
FI,65.0775887,25.4739499,ratsukangas.fi,Unknown
FI,60.2005686,24.9020356,dralathang.com,Facility
FI,61.4944969,23.7712081,putkatattoos.com,Facility
FI,60.982277,25.6630007,kellokeskus.fi,Commerce
FI,60.8532106,23.0560999,loimaanseurahuone.fi,Facility
FI,63.3605832,27.3922788,lapinlahdenautomaalaus.com,Commerce
FI,60.1620463,24.9376636,classicaudio.fi,Commerce
FI,60.6169813,21.9971164,teijahelin.fi,Commerce
FI,60.278178,24.8539556,martinlaaksonkirppis.com,Commerce
FI,60.2977784,25.1039736,salonjenifer.com,Facility
FI,60.3160494,22.2717044,archipelagiagolf.fi,Facility
FI,63.6542907,27.5318362,sonkajarvenhelluntaiseurakunta.fi,Facility
FI,64.8092802,25.4117849,parkhotelliminka.fi,Facility
FI,61.4841788,23.7629751,pakokaasuanalyysi.fi,Commerce
FI,65.0075479,25.467006,lekker61oulu.com,Facility
FI,60.4458932,22.2539873,pullapuoti.fi,Facility
FI,61.0605946,28.1928988,gasthauslappeenranta.com,Facility
FI,63.9270526,24.9591441,kalliomuseo.fi,Facility
FI,62.2607137,25.7796645,ravintolafatboy.fi,Facility
FI,60.4812765,22.3134422,kununpyora.fi,Commerce
FI,60.2838014,25.0263376,peltikorjaamoparviainen.fi,Commerce
FI,60.1670569,24.9442122,kiskahelsinki.fi,Facility
FI,60.9907614,24.4615309,southbeachwake.fi,Facility
FI,62.2652096,25.7965968,jyvaskylankeilahalli.fi,Unknown
FI,61.6015131,23.9845549,kintulammi.fi,Facility
FI,60.2186215,24.811195,ravintolayummy.fi,Facility
FI,61.0802714,21.7810339,kauklainen.fi,Facility
FI,62.5985108,29.7623898,kotileipurinherkkupaja.fi,Facility
FI,62.8931874,27.6669356,enkkukuopio.fi,Facility
FI,66.7160813,27.4316376,mestarinkievari.fi,Facility
FI,60.2084991,24.9664618,frangipani.fi,Facility
FI,62.241662,23.7688539,virratkirja.fi,Commerce
FI,61.4897138,21.7975265,vidadesign.fi,Commerce
FI,64.2316223,23.8117145,ravintolapihvitupa.fi,Facility
FI,61.5032627,23.7484458,tamperethaiboxing.com,Facility
FI,60.9947339,24.4665435,pekolanliikenne.fi,Commerce
FI,60.1566064,24.9483035,tilitoimistomint.fi,Commerce
FI,60.3926418,23.1324997,herkkumurena.fi,Facility
FI,62.6254688,22.0168637,botniaring.fi,Facility
FI,61.0451757,28.1448372,lppairport.fi,Facility
FI,61.501065,23.7606442,finlaysonmeetings.fi,Facility
FI,60.1647166,24.9253744,tietonikkari.fi,Commerce
FI,62.4437533,23.9514133,alastaipale.fi,Facility
FI,60.4574751,25.0570704,jarvenpaantaidemuseo.fi,Facility
FI,62.1403026,25.7694403,scriptorium.fi,Commerce
FI,60.7702196,26.7849171,joogasalihuili.fi,Facility
FI,60.1602665,24.7381467,meromarket.fi,Commerce
FI,62.095501,30.1479596,sisustuslaukkanen.fi,Commerce
FI,63.6745629,22.7055369,taxijakobstad.fi,Commerce
FI,60.735253,24.7679381,teatterihotelli.fi,Facility
FI,60.9690362,25.4136663,ratsastuskeskus.net,Facility
FI,60.6355227,25.3198658,lukkoluket.fi,Commerce
FI,60.1531404,24.9316692,skybreakers.com,Facility
FI,64.6585612,24.4111973,raahensatama.fi,Commerce
FI,60.6363138,25.3158835,ravintolakalash.fi,Facility
FI,60.1719627,24.9566654,manuelabosco.com,Facility
FI,62.3318002,29.6324264,paksuniemi.com,Facility
FI,63.1037965,21.5974964,fitnesstukku.fi,Commerce
FI,61.4979984,23.7621349,princehamlet.fi,Facility
FI,62.8961237,27.6815479,hostellimatkustajakoti.fi,Facility
FI,60.1653366,24.951168,kuluttajariita.fi,Facility
FI,61.6973305,27.2837779,hiirolanjuhlapalvelut.fi,Facility
FI,61.4506956,23.8497289,hervannanapteekki.fi,Commerce
FI,60.9603985,27.8039999,hotellisalpa.fi,Facility
FI,60.975809,25.6622812,littletundra.fi,Facility
FI,62.1404058,22.5647987,karvianhelluntaisrk.fi,Facility
FI,62.2415914,23.7689367,fotoriitta.fi,Commerce
FI,60.1811325,25.0470673,huvilateatteri.fi,Facility
FI,63.6788042,28.8148316,valtimonapteekki.fi,Commerce
FI,60.9837493,25.6587813,bistropopot.fi,Facility
FI,61.4971325,23.7684909,hyvantuulenpuoti.fi,Commerce
FI,65.0136029,25.4738913,oulunkirjailijaseura.fi,Commerce
FI,61.8392406,22.4687604,sotilaskoti.com,Facility
FI,60.9373674,25.9590205,nastolafys.fi,Facility
FI,64.1316279,28.3838619,oksasenliike.com,Unknown
FI,60.2560214,24.4414996,veikkolankartanoteatteri.fi,Facility
FI,66.3240476,23.6758308,ylitornionapteekki.fi,Commerce
FI,60.5652773,22.0957729,vs-hoitopalvelut.fi,Facility
FI,61.5573555,29.4995889,parikkalanapteekki.fi,Commerce
FI,60.2099313,25.1452624,vuosaarenvapis.fi,Facility
FI,60.3058045,26.0814876,kabbolemarina.fi,Facility
FI,60.6113374,22.1191149,heikkilatimber.com,Commerce
FI,62.6027091,23.7321652,keskisenkauppa.fi,Facility
FI,65.5859816,25.1954161,nelosparkki.fi,Facility
FI,60.2784547,24.8538687,martinlaaksonostari.fi,Commerce
FI,60.4499924,22.2658732,bohemiakukka.fi,Commerce
FI,60.9874456,25.5370163,pulla-pojat.fi,Commerce
FI,60.1715967,24.9230906,ravintola-toolo.fi,Facility
FI,60.1759327,24.8033975,beefandgrill.fi,Facility
FI,62.4341385,22.1859361,topeekankaluste.fi,Commerce
FI,60.1569997,24.9525767,puistokatu4.fi,Unknown
FI,60.2480349,24.705002,premiumcatering.fi,Facility
FI,60.2891103,24.7146807,punametsanratsastuskoulu.fi,Facility
FI,60.2081673,24.8751623,kultainenruusuristi.fi,Facility
FI,61.4991994,23.7762521,restaurant-whatever.fi,Facility
FI,60.9878109,25.531666,autohuoltojarvinen.fi,Commerce
FI,62.5559366,24.0950257,ahtariseura.fi,Facility
FI,60.1622005,24.9147982,konservatorio.fi,Facility
FI,62.5434593,30.5402985,koveronnuorisoseura.com,Facility
FI,61.4157666,26.8781404,bistromuru.fi,Facility
FI,63.0918041,21.6047537,kottdisken.fi,Facility
FI,61.0068842,25.6777019,holmanapteekki.fi,Commerce
FI,60.170066,24.9353755,cafekasarmi.fi,Facility
FI,60.4617866,22.3255491,nestehameentie.fi,Commerce
FI,62.3000997,27.158292,ravintolataica.com,Facility
FI,60.3873349,24.3328722,nummelanfrisbeeseura.com,Facility
FI,60.4668687,22.0227797,aurinko-optiikka.fi,Commerce
FI,60.1697396,24.9367976,haikusushi.fi,Facility
FI,60.815287,23.6248078,tyykilyyli.fi,Facility
FI,60.4624813,24.8093855,seitsemanveljesta.fi,Commerce
FI,62.8390883,27.6414579,tukikohtasrk.fi,Facility
FI,60.3825237,24.6059031,verhoomolehtinen.fi,Commerce
FI,61.495863,23.8831855,kaakonsuutari.fi,Unknown
FI,60.2516209,24.8577922,tamestetica.fi,Facility
FI,62.7258599,29.016521,elokuvateatterimarita.fi,Facility
FI,66.5426966,25.8475133,laplandrestaurant.fi,Facility
FI,60.3863469,23.1237184,kauppakeskusplaza.fi,Commerce
FI,61.1305885,22.1380266,alusvaatteetihollasi.fi,Commerce
FI,62.41209,25.9582455,huonekaluliikevehvilainen.fi,Commerce
FI,64.1263507,29.5168054,kuhmonlouhi.fi,Commerce
FI,60.1679182,24.9473194,brasseriekamp.fi,Facility
FI,64.1299904,28.3806655,nestesotkamo.fi,Facility
FI,60.1680013,24.9361285,yeastieboi.fi,Facility
FI,65.3112088,25.3400723,kartanonvaki.fi,Unknown
FI,59.976904,23.443662,karistelefon.fi,Unknown
FI,68.6546885,27.5403039,tarvikecenter.com,Commerce
FI,60.198862,24.8779423,huoltoliikeberghall.fi,Unknown
FI,62.9021827,28.4901087,makijarvenmetsamiehet.fi,Facility
FI,61.0661511,27.7999247,sarapirtti.fi,Facility
FI,61.3319721,23.7331608,makelankauppapuutarha.fi,Commerce
FI,60.9817594,25.6576029,kahvilaoskari.fi,Facility
FI,61.4232383,26.87883,kurkiniemi.fi,Facility
FI,61.4926896,23.7508202,kirpputorikodinkakkonen.com,Commerce
FI,61.5227424,23.6902163,studiosuviroiko.com,Commerce
FI,60.4641455,26.9387057,kotkanvapaaseurakunta.fi,Facility
FI,64.2592975,23.9495777,sunsugaring.com,Facility
FI,59.9784074,23.4415216,ekenas1apotek.fi,Commerce
FI,64.2446408,23.8917321,kuljetusrahkola.fi,Commerce
FI,60.2420007,24.0515985,rengasjavannemyynti.fi,Commerce
FI,62.8644055,27.6123519,kolmisoppi.fi,Commerce
FI,60.1915419,24.9519941,houston-inc.com,Commerce
FI,60.3166277,24.8470054,helmisalongit.fi,Facility
FI,60.1767632,24.8031016,kittycatbeautycenter.com,Facility
FI,62.6024649,25.7362019,aanekoskenkiinteistonhoito.fi,Commerce
FI,60.3364618,25.2309051,armonvirta.net,Facility
FI,61.4988841,23.7460003,jaanakekki.fi,Commerce
FI,65.3011848,25.4157394,ilmailukerho.fi,Facility
FI,60.8021803,25.7088574,bbneulomotie.fi,Facility
FI,60.164093,24.9451199,irmelidesign.com,Commerce
FI,60.2423436,24.9442938,automaalaamohaverinen.fi,Commerce
FI,60.2873173,24.9009945,pikavuokraus.fi,Commerce
FI,63.1056729,21.5952975,restaurangw33.com,Facility
FI,60.9823467,25.6547604,amkiinteistopalvelut.fi,Commerce
FI,60.4499146,22.3069802,sherifcars.fi,Commerce
FI,61.0718539,28.2653141,st1lauritsala.fi,Facility
FI,61.2759537,24.0168154,valkeakoskenhelluntaiseurakunta.fi,Facility
FI,60.2016319,23.0651951,finnparttia.fi,Commerce
FI,60.4479046,22.2990504,opiskelijakunta.net,Commerce
FI,60.1979702,24.9278572,ravintolapiano.fi,Facility
FI,61.0363371,25.0188833,tervaskannon.fi,Facility
FI,64.0217823,23.5040743,helluntaiseurakuntalohtaja.fi,Facility
FI,60.1892587,24.9736979,delhilounasravintola.com,Facility
FI,60.395629,25.6739437,filadelfiakyrkan.fi,Facility
FI,62.5327387,29.3870373,timonrautakauppa.fi,Commerce
FI,60.4308955,22.2495004,lounaskahvilalahtinen.fi,Facility
FI,60.9804578,25.6477638,paivakotipaaskynpesa.fi,Facility
FI,62.9598732,23.0403194,lapuanlatosaari.fi,Facility
FI,60.2182048,25.1023745,htkiinteistopalvelu.fi,Commerce
FI,60.1742425,24.9219737,dromhelsinki.fi,Facility
FI,60.0991115,19.9426068,sittkoffska.ax,Facility
FI,60.2216664,25.1409805,ompelimoclassic.fi,Unknown
FI,68.9076568,27.0127903,duodjishop.fi,Commerce
FI,59.9771428,23.8803987,ravintola-scola.fi,Facility
FI,61.0887257,27.059527,tuohikotinhelluntaiseurakunta.com,Facility
FI,60.5047987,22.4571734,liedonoptiikka.fi,Commerce
FI,62.6033529,25.7279259,koskenhelmi.fi,Facility
FI,61.5483203,23.6287954,ylojarvenkoirametsa.fi,Facility
FI,61.5701099,21.517094,virkistyshotelli.fi,Facility
FI,62.9307553,26.4106976,vesannonapteekki.fi,Commerce
FI,60.2502668,25.0107532,korispiste.fi,Commerce
FI,60.2281386,24.8822375,paulijokinen.fi,Facility
FI,60.9954146,24.4661356,hameenlinnanvpk.fi,Facility
FI,60.4033498,25.104405,keravanmusiikkiopisto.fi,Facility
FI,60.4422804,22.2896339,rajupajaareena.fi,Facility
FI,60.1838739,24.951349,cafedelmar.fi,Facility
FI,61.7022533,22.0080181,pomarkunhelluntaisrk.fi,Facility
FI,60.7926548,22.9040862,kulkurinkievari.fi,Facility
FI,60.4722856,25.090132,pubartturi.fi,Facility
FI,61.6951083,21.9978505,kayttomuovi.fi,Commerce
FI,62.7420923,25.1761028,puuhapuistoveijari.fi,Facility
FI,62.2406831,25.7204036,multipaino.fi,Unknown
FI,60.2218201,25.0175786,viikinloytoelaintalo.fi,Facility
FI,63.1418074,22.8162804,lakeudentyovaate.fi,Commerce
FI,64.3966882,24.3191443,visitpyhajoki.fi,Facility
FI,62.3065625,29.6681914,polarshiitake.com,Commerce
FI,60.4617412,26.9499705,wanhafiskari.fi,Facility
FI,60.5452116,22.1412023,maskunpyorahuolto.fi,Commerce
FI,60.1913636,24.945149,ravintolayarsa.fi,Facility
FI,64.1260111,29.5186946,kuhmofestival.fi,Facility
FI,60.1690568,24.9613973,merimieselakekassa.fi,Commerce
FI,61.4950434,21.8027216,erkanpizzakebab.fi,Facility
FI,62.4857503,21.7453854,majoitushermanni.fi,Facility
FI,61.5005394,23.7912321,aukijoogakoulu.fi,Facility
FI,60.2615304,22.1190611,venekeskus.fi,Facility
FI,60.4677458,22.3884459,powder-trans.fi,Unknown
FI,61.0391147,28.0403737,salpalinjanhovi.com,Facility
FI,61.4863874,23.5120097,nokianlukio.fi,Facility
FI,60.2772354,24.8050573,ilmapallokeskus.fi,Commerce
FI,62.4801702,21.7373848,museiportalosterbotten.fi,Facility
FI,60.184836,24.9532716,salpimienta.fi,Facility
FI,65.014648,25.4741231,hagiasofia.fi,Facility
FI,61.1750778,25.5261557,joogasalonki.fi,Facility
FI,64.2553247,23.9492337,kalajoenkukkatalo.fi,Commerce
FI,60.132046,21.9690034,kirjaismarina.fi,Commerce
FI,60.5114895,26.9199926,hotellijokipuisto.fi,Facility
FI,60.4804048,26.592781,helsinkieast.aero,Facility
FI,62.2481528,25.8838214,jklkarting.fi,Facility
FI,62.5813445,30.1314479,exelcomposites.com,Commerce
FI,61.2031973,26.032287,heinolankodit.fi,Commerce
FI,61.4984113,23.7678406,rymyeetutampere.fi,Facility
FI,60.7812479,23.3255468,aseverstas.fi,Unknown
FI,65.442485,29.5561441,camp-norwide.com,Facility
FI,60.1870752,24.9675625,puutarhurinverstas.com,Commerce
FI,60.8966502,26.3388626,iitinmaatilatori.fi,Commerce
FI,61.4517753,23.8477732,pubkultainenapina.fi,Facility
FI,60.1584874,24.9340139,kaffaroastery.fi,Facility
FI,60.4487539,22.2672814,cafeqwensel.fi,Facility
FI,63.8385735,23.1345561,korvgorans.fi,Facility
FI,60.1685123,24.9412839,paristopalvelu.com,Unknown
FI,60.2380984,24.9279024,pakilanapteekki.fi,Commerce
FI,60.4834469,22.0607239,naantalinautomyynti.fi,Commerce
FI,61.1183627,24.8294572,ruuttanayttamo.net,Facility
FI,60.2493279,25.0599613,tuontiyhtio.com,Commerce
FI,62.8914215,27.677511,optikkopoca.fi,Commerce
FI,60.6225908,21.8504681,helmenhohde.fi,Commerce
FI,60.1788713,24.7968763,museoleikki.fi,Facility
FI,60.2152408,24.6492072,liukuovicenter.fi,Commerce
FI,62.4129334,22.1186418,rantalanliha.fi,Commerce
FI,63.5438873,29.1341636,nettihotelli.fi,Facility
FI,60.4825003,22.3288434,suvantotrucks.com,Commerce
FI,61.4965313,23.7608818,pormestarisauna.fi,Unknown
FI,64.1268504,29.480054,peura-trans.com,Commerce
FI,60.2623039,24.8041433,pizzadrive.fi,Facility
FI,62.2378031,25.742863,readysetpole.fi,Facility
FI,62.2577339,24.7050499,vanhakeuruu.fi,Facility
FI,60.9283356,27.6320621,satunmakiat.fi,Facility
FI,61.0693275,24.3282116,elmemetall.fi,Commerce
FI,61.8267974,22.5169351,assapaintball.fi,Facility
FI,60.4527949,26.2075753,loviisanapteekki.fi,Commerce
FI,60.2660026,24.8093798,riverchurch.fi,Facility
FI,61.4781569,23.5129628,parturikampaamonome.fi,Facility
FI,60.2039838,25.1200763,ankkuriseurakunta.fi,Facility
FI,64.1196556,29.5015635,kuljetuspolar.fi,Commerce
FI,60.2368412,24.861491,happyorange.fi,Commerce
FI,61.4959608,23.7582094,kampaamofade.fi,Facility
FI,62.1298009,25.6709023,kauneushoitolazenna.fi,Facility
FI,60.2201303,22.9039541,mathildedal.fi,Facility
FI,60.6038867,21.9843299,timanttileikkaus.fi,Commerce
FI,66.760862,28.7720985,keloravintola.fi,Facility
FI,61.5014573,23.8007345,realbeauty.fi,Facility
FI,60.9911137,25.5036117,hollolanavantouimarit.net,Unknown
FI,63.8313488,28.1469083,korpikorsu.fi,Facility
FI,64.8431896,26.0096222,montta-activecamping.fi,Facility
FI,66.4879258,25.7031462,rovaniemenkristillinenkoulu.fi,Facility
FI,62.7044426,23.8760895,mikkoraiski.fi,Commerce
FI,62.2397806,25.7325591,kampaamoliiteri.fi,Facility
FI,60.3058168,24.9597118,nordicchoicehotels.fi,Facility
FI,60.992846,24.4338246,taidekasarmi.com,Facility
FI,62.5525289,24.0973218,karilainen.fi,Commerce
FI,60.2591364,24.9967085,hierontajahuokaus.fi,Facility
FI,60.169044,24.9604029,ilmajoogastudio.fi,Facility
FI,61.129192,21.4943916,kapteeninhuone.fi,Facility
FI,63.0940214,21.6169932,cinemabowling.com,Facility
FI,62.1541587,24.1466678,pohjaslahti.fi,Facility
FI,62.7320531,28.9966209,kyykerinkartano.fi,Facility
FI,60.2226938,25.1161005,ostetaanautoja.fi,Commerce
FI,62.3794294,26.0656414,mustakorppi.fi,Facility
FI,64.9356825,25.4014766,kalakaveri.fi,Commerce
FI,61.8685741,28.8698048,savonlinnanuusiapteekki.fi,Commerce
FI,61.4985928,23.7437527,tampereentaidemuseo.fi,Facility
FI,60.1527603,24.6311978,kellohuoltoloppela.com,Unknown
FI,62.1386969,29.9260312,karjalanhelmi.fi,Facility
FI,60.4079529,25.0861672,taidepaivakotikonsti.fi,Facility
FI,60.4454082,22.2721876,turunbaptistiseurakunta.fi,Facility
FI,60.1812143,24.9542209,kansanarkisto.fi,Commerce
FI,66.5431561,25.8434002,christmashousesanta.fi,Facility
FI,61.4780451,23.7912914,sorinsirkus.fi,Facility
FI,61.0567963,28.1927432,isokristiina.fi,Commerce
FI,64.1270128,29.5238542,jk-fysioterapia.fi,Facility
FI,62.2440375,25.7548118,rakennus-kaseva.fi,Commerce
FI,60.2210947,22.9125559,meri-ruukki.fi,Facility
FI,61.4502568,23.7516981,pupukahvila.fi,Facility
FI,60.6544815,21.9599071,ratasjaruuvi.fi,Commerce
FI,62.5697691,25.8559387,keitelemuseo.fi,Facility
FI,60.2407838,24.9405194,metropolitanpuppets.org,Facility
FI,60.4463234,22.3221771,tukkahyvin.fi,Facility
FI,60.2381526,24.8573745,ravintolamisteli.fi,Commerce
FI,62.4279397,22.1774152,metsakeskus.fi,Unknown
FI,65.7371936,24.5647764,järjestötieto.fi,Facility
FI,61.4786227,23.8251498,tampereensteinerkoulu.fi,Facility
FI,60.1685097,24.9314157,meruhealth.com,Facility
FI,60.2101949,24.9762694,pyorienpyora.fi,Commerce
FI,60.4161495,25.0796336,aitopaivakodit.fi,Facility
FI,60.8159539,23.621614,forssankeilahalli.net,Facility
FI,60.215393,24.8985804,haaganpyorahuolto.fi,Commerce
FI,63.2908375,28.0225079,tahkomountain.fi,Facility
FI,62.8902975,27.6851867,vb-valokuvakeskus.fi,Facility
FI,60.4396952,22.2268072,aurigacenter.fi,Commerce
FI,61.3153159,23.7571952,tietokettu.net,Commerce
FI,60.4543978,22.2676581,jaskamerakauppa.fi,Commerce
FI,61.4498071,23.8571347,tietoteekkarikilta.fi,Facility
FI,60.1940976,24.9569826,sturejazzbar.fi,Facility
FI,60.5633093,21.9768773,vannemaailma.fi,Commerce
FI,61.6888072,27.2756011,kelloliikepylvanainen.fi,Commerce
FI,62.6028526,29.7654973,joensuunpyorahuolto.com,Commerce
FI,60.2910129,24.9652339,suutarikeskus.com,Unknown
FI,65.0144155,25.4747239,tilitkarppinen.fi,Commerce
FI,65.5753932,28.2433204,taivalkoskenapteekki.fi,Commerce
FI,68.1531613,24.1244957,raattamanreitit.fi,Facility
FI,60.1557997,24.6246257,ravintolamarine.fi,Facility
FI,60.4451242,22.2087741,turunvapaavarasto.fi,Commerce
FI,60.1667357,24.9293987,thaivegankitchen.fi,Facility
FI,62.209109,23.178572,kihnionhelluntaiseurakunta.net,Facility
FI,60.4930156,25.0658324,jarvenpaansonaattiapteekki.fi,Commerce
FI,60.1883487,24.9459855,setlementti.fi,Facility
FI,60.1653544,24.9326687,pelagobicycles.com,Commerce
FI,60.2400963,24.7416696,hiusjakauneuslahde.fi,Facility
FI,60.3517622,25.0818281,korsonhelluntaisrk.fi,Facility
FI,60.2140399,24.7595603,masisbrewery.com,Commerce
FI,65.0277334,25.4609561,hiushuonesp.fi,Facility
FI,60.1690388,24.926589,pilateshelsinki.fi,Facility
FI,60.1843419,24.9524935,karhupuistonoptiikka.fi,Commerce
FI,60.3435303,24.828686,puutarharosmariini.fi,Commerce
FI,61.2162036,25.4847193,asikkalanmuseo.fi,Facility
FI,63.0992914,23.0389834,hopea-puro.com,Commerce
FI,60.4574977,22.2337859,korucorona.fi,Commerce
FI,61.4732525,23.8719148,pihkantaika.fi,Facility
FI,61.4988126,23.7807756,sammakkapop.com,Commerce
FI,65.0245694,25.4827496,elokuvateatteristar.fi,Facility
FI,60.1620589,24.9406815,fashionmodel.fi,Commerce
FI,60.4706196,22.021826,penttikoivikko.fi,Facility
FI,60.2593323,25.2353164,portsidetrattoria.fi,Facility
FI,60.4554504,22.3033694,nummispizzeria.fi,Facility
FI,60.1798269,25.051711,laajasalonapteekki.fi,Commerce
FI,60.982596,25.6520199,kauppahotelli.fi,Facility
FI,60.2477875,25.0094227,kuntoutus-karppinen.net,Facility
FI,61.0866599,24.3830777,wesundadressage.fi,Facility
FI,60.182443,24.6001561,edvinpizza.fi,Facility
FI,60.2417571,24.9280253,namikaareena.fi,Facility
FI,65.1821146,25.3578215,rantapohja.fi,Commerce
FI,67.6043131,24.1686609,yllaslodge.com,Facility
FI,64.0604132,23.6510298,himanganapteekki.fi,Commerce
FI,60.2184328,24.8205296,terrasolid.com,Commerce
FI,63.8615549,23.4538587,kalvianverkkoapteekki.fi,Commerce
FI,60.4949347,22.2995659,lounaskahvilatipitii.com,Facility
FI,60.2697564,24.4426275,mariannensalonki.com,Facility
FI,60.1647743,24.9413567,restaurantdemo.fi,Facility
FI,61.1689248,25.5500004,vaaksynhelluntaisrk.fi,Facility
FI,60.5023438,24.6714728,haukilampi.fi,Facility
FI,67.6550231,24.1795196,luxurylodge.fi,Facility
FI,61.8982736,27.8502356,vesiliikuntakeskussampola.fi,Facility
FI,60.1862726,24.9573734,piraattipuolue.fi,Facility
FI,60.2214687,24.8471086,autohuoltolahtinen.fi,Commerce
FI,67.6024837,24.1664026,pohjolankiinteistopalvelu.fi,Commerce
FI,60.4544842,22.2671781,puutorinkirppis.fi,Commerce
FI,60.2424308,24.9440336,talohoitosarkkinen.fi,Unknown
FI,61.4979895,23.762092,kulttuurimyymalaaplodi.fi,Facility
FI,62.7899142,22.8421399,laukkutalo.fi,Unknown
FI,60.2440694,25.0598131,helsinginktk.fi,Commerce
FI,60.2396274,24.7416803,ravintolathamel.com,Facility
FI,60.1882459,24.9571399,kustaavaasa.fi,Facility
FI,60.9821103,25.6548343,studiosyzana.fi,Facility
FI,63.1125391,21.6783647,laserakupunktio.fi,Facility
FI,60.8130463,23.6217664,janskunlanka.fi,Commerce
FI,60.866777,26.7061334,asemanhammaslaakarit.fi,Facility
FI,61.4499866,23.8601769,into-tampere.org,Facility
FI,60.9693483,25.5218026,ridesalpaus.fi,Unknown
FI,61.4902236,21.796851,cafeporijazz.fi,Facility
FI,60.3355746,24.3214549,blackandblond.net,Facility
FI,62.2747299,21.3758316,eleonorabb.fi,Facility
FI,60.3337533,25.6558131,krakobryggeri.com,Facility
FI,60.5761776,22.4370817,koirakoulu.net,Unknown
FI,60.986111,25.7182742,kotigastronomi.fi,Commerce
FI,62.0955778,26.0826194,toivakanhelluntaisrk.fi,Facility
FI,60.1940274,24.984918,sompasauna.fi,Facility
FI,61.0771843,23.5300663,urjalanmakeistukku.fi,Commerce
FI,61.4945822,23.8109654,glambeautybar.fi,Facility
FI,63.097844,21.6271516,combokirppis.fi,Commerce
FI,60.308208,25.0208554,ravintolaelpaso.fi,Facility
FI,60.9025866,23.5947872,forssanseudunjuhlatalot.fi,Facility
FI,61.4975879,23.7549448,pirkanmaankeskusta.fi,Facility
FI,61.1718099,23.8597553,yhdistykset-akaa.fi,Facility
FI,60.44396,22.2755762,itaisenkadunkehystamo.fi,Commerce
FI,64.2582443,23.9470423,hierontastudio-ommi.com,Facility
FI,61.4941251,23.7724185,studiosamihelenius.fi,Commerce
FI,61.0632925,28.1864516,saimaanristeilyt.fi,Facility
FI,62.1239323,23.9246721,visukaluste.fi,Commerce
FI,60.1235481,24.4399249,kirkkonummenkukka.fi,Unknown
FI,60.8690097,23.0028177,konehuoltohannuonnela.fi,Commerce
FI,65.0933992,28.904685,niittykahvila.fi,Facility
FI,60.1743126,24.8163837,tapiolanvenekerho.fi,Facility
FI,60.1601195,24.9389724,ateljeelindell.com,Commerce
FI,63.0012078,23.8162144,torstai-lehti.fi,Unknown
FI,62.2977266,27.1373403,helluntaisrk.fi,Facility
FI,60.9872183,25.5006648,hollolanasuntotalot.fi,Unknown
FI,60.4683147,22.0169905,nostalgiashop.fi,Commerce
FI,60.4344851,22.3259602,herkkupiste.fi,Facility
FI,60.3437182,24.8325983,puutarhakukkamestarit.fi,Commerce
FI,60.1791758,24.8109068,tapiolanlampo.fi,Commerce
FI,60.16011,24.8771586,ravintolacasamare.com,Facility
FI,61.4575411,23.8615563,tampereenvera.fi,Unknown
FI,60.1629998,24.9434464,ihohoitolalupaus.fi,Facility
FI,60.1873382,24.9647677,nikosgyros.fi,Facility
FI,60.1646441,24.9374819,casaitalia.fi,Facility
FI,64.0702704,24.5368908,ylivieskanvapaasrk.com,Facility
FI,65.1908113,25.4168406,kiiminkijoki.fi,Unknown
FI,60.1437382,24.6407673,laurinlahdenvenekerho.fi,Unknown
FI,60.3013107,24.8562233,kenguruvarastot.fi,Commerce
FI,60.1688511,24.9279694,fysioterapiaklinikka.fi,Facility
FI,60.4491197,22.2646902,nomadfoodandwine.com,Facility
FI,62.4076237,22.1711788,kauhajoenpuutarha.fi,Commerce
FI,61.2101238,23.7662863,akaankebabpizza.com,Facility
FI,60.9955168,25.7607498,ravintolavanhaahtiala.fi,Facility
FI,60.2591196,25.2354703,aimikauneus.fi,Facility
FI,61.1319984,25.6577754,viivinvintage.fi,Commerce
FI,66.4556046,25.9577839,santaparkarcticworld.com,Facility
FI,60.3987413,25.1109475,kruununkirppis.fi,Commerce
FI,59.97706,23.8815112,barosundsboden.fi,Commerce
FI,61.4982904,23.7577389,bistrovenla.com,Facility
FI,60.1757133,24.9511817,teatteriunion.fi,Facility
FI,60.5055097,22.4572633,qkirjakauppalieto.com,Commerce
FI,61.4964522,23.75967,foryoutampere.fi,Facility
FI,60.202432,25.1525878,vilamoravintola.fi,Facility
FI,60.3776895,25.2676689,nikkilanelainlaakarit.fi,Commerce
FI,60.5043065,22.4604033,liedonlihakauppa.fi,Commerce
FI,60.1795058,24.9588916,inntourist.fi,Facility
FI,60.2948514,25.048967,ra-osteopatia.fi,Facility
FI,60.2465709,24.88062,seniorisaatio.fi,Facility
FI,60.1608406,24.9393661,impacttattoo.fi,Facility
FI,59.982821,23.4414208,ekenas-dackmarket.com,Unknown
FI,60.4965383,22.2908117,turunkonekeskus.fi,Commerce
FI,60.4929696,22.25623,runosmaalaus.fi,Commerce
FI,60.193576,24.9565136,clubhousehelsinki.com,Facility
FI,62.6044514,29.7770865,wisaplywood.com,Commerce
FI,64.9822638,25.4726976,oulunravit.fi,Facility
FI,62.2409072,25.7446021,kirkkopuisto.fi,Facility
FI,65.8325111,29.2585109,kuusamonportti.fi,Facility
FI,60.2121378,24.897982,majavantila.fi,Facility
FI,61.4958413,23.7696894,thespotlight.fi,Facility
FI,60.1539296,24.6390097,vaatekorjaus.fi,Commerce
FI,62.5541304,24.1033447,carilainensport.fi,Commerce
FI,62.3735179,27.7448506,keskisavonjatehuolto.fi,Commerce
FI,62.1696571,29.9803071,anninkartano.fi,Facility
FI,63.1361323,30.0150385,vuonislahti.fi,Facility
FI,60.2464855,24.8677754,auroranlinna.fi,Commerce
FI,61.5005667,23.7692353,viitasenhautaustoimisto.fi,Commerce
FI,60.4498926,22.265835,juustopuoti.com,Commerce
FI,63.2565611,22.8451064,harmanliikenne.fi,Unknown
FI,62.9753547,23.0221121,cellravintolat.fi,Facility
FI,62.2398244,25.7323376,kauneudenilo.fi,Facility
FI,60.3025314,22.3011813,dumdumfilm.fi,Facility
FI,63.5438222,25.8105236,marjoniemi.com,Facility
FI,60.1912038,24.9783761,kalasatama.net,Commerce
FI,61.2020495,21.7293702,selenkebab.fi,Facility
FI,60.1729165,24.7888492,kukkatalomaritta.fi,Commerce
FI,60.3291761,24.9197726,kylmastiparas.fi,Commerce
FI,60.5708887,22.0959993,maskunleipomo.fi,Commerce
FI,60.4271555,22.1826932,ruissalonkansanpuisto.fi,Facility
FI,64.2588468,23.9490246,kannykkakauppa.fi,Unknown
FI,64.6920778,24.5754632,pattijoenapteekki.fi,Commerce
FI,61.0410256,28.1410569,karjalanilmailumuseo.fi,Facility
FI,61.1840102,28.743427,nytkatsastamaan.fi,Facility
FI,60.2129959,24.8988189,kallesport.fi,Commerce
FI,62.3861774,26.4327244,hankasalmenkotiseutuyhdistys.fi,Facility
FI,65.0113354,25.4684141,magnoliacafe.fi,Facility
FI,60.2768939,24.8094378,vaihtoautomaa.com,Commerce
FI,60.3973171,25.6596568,onniporvoo.fi,Facility
FI,60.4850911,22.1658818,hotelliloimu.fi,Facility
FI,60.3976488,25.0477988,hiusstudiofaded.com,Facility
FI,62.3891109,26.4366316,melli-elli.fi,Facility
FI,61.1763877,25.5333668,apteekinmajoitus.fi,Facility
FI,60.2053945,24.7626635,happyfriends.fi,Facility
FI,64.0624343,24.5630878,freshburger.fi,Facility
FI,64.126369,29.5250669,kiantakaluste.fi,Commerce
FI,61.478488,23.5086018,abepizzeria.fi,Facility
FI,61.5037612,23.6357798,urheilutesoma.fi,Commerce
FI,64.7629939,26.4056297,kinnusenmylly.fi,Commerce
FI,60.2882378,25.0363912,tuomioistuinvirasto.fi,Facility
FI,60.1779454,24.8318317,blueprintgenetics.com,Commerce
FI,60.0951539,24.4282297,foxstables.fi,Facility
FI,60.2044127,24.9932279,kuusiluoto.info,Commerce
FI,60.2695635,24.4431852,jalkojenhoitoaskel.fi,Facility
FI,60.1596308,24.9368365,suomalainenpursiseura.fi,Facility
FI,60.4497644,22.2644604,panimoravintolakoulu.fi,Facility
FI,60.1581828,24.9422565,eiraestetica.fi,Facility
FI,67.6674398,24.8820882,sibakow-mansikka.fi,Facility
FI,62.2480935,25.7495326,keisarinkebab.fi,Facility
FI,60.0428582,24.0039214,cafewilhelmsdal.com,Facility
FI,60.4463964,22.2369182,finnfightersgym.fi,Facility
FI,60.176087,24.929761,helsinginraamattukoulu.fi,Facility
FI,61.4949078,29.4814932,laatokanportti.com,Facility
FI,63.9235724,24.0743256,pohjantaimi.fi,Facility
FI,60.981696,25.6594961,torostexmex.com,Facility
FI,60.3875401,23.1570125,salonkatsastus.fi,Facility
FI,60.2843607,25.1357245,sottungsbyfbk.fi,Facility
FI,60.2476104,24.8351539,lehtovuori.net,Facility
FI,61.5014761,23.7756069,pinballunion.fi,Facility
FI,60.1652585,24.7360246,thaimarketolari.fi,Commerce
FI,62.277491,25.7808823,hiomokantanen.fi,Commerce
FI,61.1132897,24.8391361,tuulosrieva.fi,Commerce
FI,60.1578965,24.8806749,ravintolapersilja.fi,Facility
FI,66.2472106,24.9023634,katkavaara.com,Facility
FI,60.1800196,24.9510782,soupandmore.fi,Facility
FI,62.4758175,30.2313907,ajj-konepaja.fi,Commerce
FI,60.1655945,24.935932,destinystore.fi,Commerce
FI,60.9914495,25.6634043,vasemmisto.fi,Facility
FI,60.4063476,25.0979882,keravanlaakintavoimistelu.fi,Commerce
FI,61.5685099,25.1820375,nestekuhmoinen.fi,Facility
FI,60.987993,25.5315158,hollolanautopesu.fi,Commerce
FI,64.5594151,26.8368014,vaalankuva.fi,Commerce
FI,62.2423808,23.7698558,suomenselansanomat.net,Unknown
FI,62.2441333,25.7492332,sakuragawa.fi,Facility
FI,60.3051591,24.5502795,nuuksioreindeerpark.fi,Facility
FI,62.602127,29.7588287,pizzaexpresscafe.fi,Facility
FI,61.3405695,22.9079239,antikvariaatti.net,Commerce
FI,60.4459913,22.250117,kahvilaoksi.fi,Facility
FI,67.596673,24.1467635,ravintolaporo.fi,Facility
FI,61.222899,28.8353119,konecranes.fi,Commerce
FI,62.333159,27.8286431,warkaudenportti.fi,Facility
FI,62.2418461,25.7455219,ellinkirjajaputiikki.fi,Commerce
FI,60.1608364,24.9266079,merimakasiini.fi,Facility
FI,61.0811845,25.0125329,papassmokery.fi,Facility
FI,63.0996696,21.5818083,vaasanmerenkyntajat.fi,Facility
FI,63.5461471,23.6942217,pelimannitalo.fi,Unknown
FI,61.5166888,23.6633767,kruunukaluste.fi,Commerce
FI,62.4300603,22.1795789,egekebabpizzeria.fi,Facility
FI,61.5060572,23.6483487,mediapolis.fi,Commerce
FI,60.9869969,25.6564757,musiikkimarakatti.fi,Facility
FI,60.1633046,24.9177663,kauneuskeidasheidik.fi,Facility
FI,68.9062165,27.0066049,restaurantaanaar.fi,Facility
FI,62.7790822,22.8154845,omaspstadion.fi,Facility
FI,61.7571999,29.3811264,metsagroup.com,Commerce
FI,62.6032365,29.7628248,ravintolamarsi.fi,Facility
FI,66.2730596,29.3777499,juumanleirintaalue.fi,Facility
FI,61.2027556,26.0303051,kenka-jenni.com,Commerce
FI,61.0568207,28.1860079,aleksandra-konditoria.fi,Facility
FI,60.186635,24.9680425,navigointi.fi,Commerce
FI,60.8055545,23.6266084,forssanasejaretkeily.fi,Commerce
FI,61.4992219,23.7558979,suomenkultaporssi.fi,Commerce
FI,60.2937669,25.0308497,ravintolamississippi.fi,Facility
FI,60.2119252,24.85992,ravintolatali.fi,Facility
FI,60.9947918,24.4605366,hammashuippu.fi,Facility
FI,60.1752987,24.9210752,glamourbridal.fi,Commerce
FI,61.4993909,23.7793543,amadeusbar.fi,Facility
FI,61.4975127,23.755137,arkkitehditlsv.fi,Unknown
FI,60.4769834,25.0884204,bysatuhart.com,Commerce
FI,60.1196474,19.9430527,strandnashotell.ax,Facility
FI,68.4649289,27.4900894,joikukotsamo.fi,Facility
FI,60.4577763,22.6856202,nakokerttu.fi,Commerce
FI,67.6057909,24.1882381,kruununmaja.fi,Facility
FI,61.4638124,23.6453695,pirkkalanyhteislukio.fi,Facility
FI,60.9830834,25.6585359,winecafeolavi.com,Facility
FI,63.9309233,24.9629855,puustelliravintolat.fi,Facility
FI,61.8692141,21.6342208,konetuorila.fi,Commerce
FI,60.1607618,24.9414486,vaatekorjaamo.fi,Commerce
FI,60.1840539,24.9611762,tekstintalo.fi,Commerce
FI,61.6574406,23.1832945,viitalankotileipomo.fi,Facility
FI,63.0971226,21.6203786,karismavaasa.fi,Commerce
FI,60.4525217,22.2567449,muotitalomarilyn.fi,Commerce
FI,62.2874229,25.7126861,palokankauppakeskus.fi,Commerce
FI,60.1991092,24.9001617,nightingalehealth.com,Commerce
FI,63.2516591,22.8449724,alaharmansahko.fi,Unknown
FI,63.8317729,23.1252108,kokkolankeskusapteekki.fi,Commerce
FI,63.8686843,27.4391896,nestelinnanportti.fi,Commerce
FI,60.1927067,24.9475404,konepajabiergarten.com,Facility
FI,60.9843315,25.6752927,gaudialahti.fi,Facility
FI,60.4557573,22.2633571,turunkatulahetys.fi,Facility
FI,67.6639355,24.7767672,allhuskies.fi,Commerce
FI,60.2577998,23.7363206,laiskanlinna.fi,Facility
FI,60.2492007,25.0097676,juliliving.com,Commerce
FI,61.0685033,28.1818311,arjamartikainen.net,Commerce
FI,60.1671127,24.6175554,crispypizza.fi,Facility
FI,60.2072793,24.9772622,hdhairdesign.fi,Facility
FI,60.2204408,24.9434463,atriagroup.com,Commerce
FI,60.9804798,25.9353913,sfckeravaanari.fi,Facility
FI,61.1826364,25.4016744,toukolanvihannestila.fi,Commerce
FI,60.4919454,22.2556849,metallityosuhonen.fi,Commerce
FI,60.2811069,24.8100846,rahtikeskus.fi,Commerce
FI,61.5419974,23.9707481,tammervoima.fi,Commerce
FI,60.4704559,25.085935,camerashop.fi,Commerce
FI,60.2891746,25.0370343,minttiravintolat.fi,Facility
FI,64.8098103,25.4137601,adorapizzeria.com,Facility
FI,60.2466142,24.7451166,laaksolahdentenniskeskus.fi,Facility
FI,62.2555781,25.1824961,keuruunautokoulu.fi,Facility
FI,61.4852095,21.7969703,ravintolaborg.fi,Facility
FI,64.4881718,24.982811,vihanninkotiseutuyhdistys.fi,Facility
FI,60.3153108,24.8474705,kaunisodotus.fi,Facility
FI,62.5423167,29.8408013,reijolanapteekki.fi,Commerce
FI,60.2658888,24.8687167,kaivokselandelfiinit.com,Facility
FI,60.2192166,24.8296829,gimrobotics.fi,Commerce
FI,61.4204326,26.4324304,kuortinrautakauppa.fi,Commerce
FI,62.6117089,29.7729063,pakotarinat.fi,Facility
FI,60.3102369,24.2473289,procaravan.fi,Commerce
FI,61.42202,26.6692667,miekankoskenkahvila.com,Facility
FI,60.1788838,24.8110285,kinotapiola.fi,Facility
FI,60.1979244,24.7118551,yhtraining.fi,Commerce
FI,60.3508638,25.0732738,sch-hieronta.fi,Facility
FI,62.4600515,22.2014944,ossinmetalli.fi,Commerce
FI,60.4402214,22.2453773,turunvierasvenesatama.fi,Facility
FI,62.2418109,25.7495759,wilhelmiinankonditoria.fi,Facility
FI,61.4159846,26.8782858,kaluste-kippari.fi,Commerce
FI,61.6891226,27.2714777,kauppakeskusakseli.fi,Commerce
FI,62.5984135,29.7421914,binderholznordic.fi,Commerce
FI,61.4928253,23.8172105,vedoturkkilainenparturi.fi,Facility
FI,62.239021,25.7588843,paviljonki.fi,Facility
FI,60.2614604,24.8747324,aurinkotehoa.fi,Commerce
FI,60.263574,24.8727807,agora-networks.com,Facility
FI,60.1688181,24.9293577,factorykamppi.com,Facility
FI,60.9988642,25.7575367,lahiapteekkisyke.fi,Commerce
FI,61.4958051,23.7718476,valokuvaamoklik.fi,Commerce
FI,62.2494,25.761478,crossfit40100.com,Facility
FI,60.853775,23.0559005,loimaanpyorahuolto.fi,Commerce
FI,60.2453793,24.063958,lohjankeilailuliitto.fi,Facility
FI,68.9066174,27.0267837,hotelliinari.fi,Facility
FI,62.7306827,29.0049058,vanhakaivos.com,Facility
FI,61.8076244,29.2765616,caferantakivi.fi,Facility
FI,66.0040772,29.1672716,petajalampi.fi,Facility
FI,60.2927906,25.0437606,ravintolahaoking.fi,Facility
FI,60.2059713,25.0536211,autonavaimet.fi,Unknown
FI,63.039577,29.4407953,martonvaara.fi,Facility
FI,62.8909794,27.6909444,snellmaninkotimuseo.fi,Facility
FI,60.1646408,24.9368542,nomennescio.fi,Commerce
FI,60.2194241,22.9044697,visitmathildedal.fi,Commerce
FI,60.446239,22.2643895,teatteriravintolakivi.fi,Facility
FI,60.4342245,22.3511943,sateenkaarikoto.fi,Facility
FI,64.2312478,23.8182692,aitodesignshop.fi,Commerce
FI,60.9793546,25.6487401,lahdenmastola.fi,Facility
FI,62.8225776,25.8025705,kskaravaanarit.fi,Facility
FI,62.7257973,29.016888,hiushuoneverna.fi,Facility
FI,60.6791962,21.5506442,pala-betonikalusteet.fi,Commerce
FI,61.4730641,23.9895962,laattamyymala.fi,Unknown
FI,61.1439082,21.5441298,raumanrengaspalvelu.fi,Commerce
FI,60.6875604,26.7985642,anjalanelainlaakariasema.fi,Commerce
FI,62.4332302,22.185571,kauhajoenapteekki.fi,Commerce
FI,60.1816513,24.9265552,trattoriasogno.fi,Facility
FI,64.2311591,27.724792,oulujarviristeilyt.fi,Facility
FI,62.2408114,25.742046,kauneushoitolapulmuset.fi,Facility
FI,60.1669462,24.9493247,columbiaroad.com,Commerce
FI,61.5171087,23.6614838,lmautopesu.fi,Commerce
FI,62.2443349,24.8935054,suomenkeraystuote.fi,Facility
FI,61.5162215,27.245738,metsalinna.com,Facility
FI,61.4836622,23.7773804,pahisgrilli.fi,Facility
FI,64.9347407,25.4015581,oulunsalolittledragon.fi,Facility
FI,61.0452201,28.1081485,rikkilanleipa.fi,Commerce
FI,62.4282206,22.1775216,katjanvohvelikahvila.fi,Facility
FI,60.1829919,24.9573661,veikkokahkonen.com,Commerce
FI,60.3155503,24.9598646,plazapremiumlounge.com,Facility
FI,60.2391494,24.8584916,konepajamakelin.fi,Commerce
FI,60.3493082,24.3381269,vihtibowling.fi,Facility
FI,60.9960665,24.4614464,blommadayspa.fi,Facility
FI,61.5000994,23.7526784,ravintolaaama.fi,Facility
FI,62.7890985,22.8384313,kriisikeskussjk.fi,Commerce
FI,60.4587484,25.0926346,herkkupaja.fi,Facility
FI,60.5822533,24.0750524,vahavedentila.fi,Facility
FI,61.2022024,26.0296672,helinravintola.fi,Facility
FI,61.4874185,21.7888002,porinyhasunnot.fi,Commerce
FI,60.4378629,22.3530616,lvi-eristysmurto.fi,Unknown
FI,60.1614509,24.7403509,ravintolakosi.fi,Facility
FI,60.1883863,24.9769172,citykirkko.fi,Facility
FI,60.1276441,23.5411748,kuparipaja.fi,Facility
FI,61.1801533,22.6961821,tilitoimistohaapala.fi,Commerce
FI,60.4744695,22.0392043,ravinteliarmas.fi,Facility
FI,60.4489956,22.2648616,ravintolaaune.fi,Facility
FI,60.391586,23.1092799,exitgamessalo.fi,Facility
FI,60.2039477,24.656809,espoontorinsuutari.fi,Commerce
FI,60.2096224,25.0543806,kultafeeniks.com,Facility
FI,60.2371621,24.8925981,teejakahvikauppa.fi,Facility
FI,60.3993362,25.0216493,hiushuonevalo.fi,Facility
FI,60.1750677,24.8012934,toinenkierros.fi,Commerce
FI,60.9820876,25.6551194,hautaustoimistokallioinen.fi,Commerce
FI,60.293356,24.9926732,suomilammi.fi,Facility
FI,60.5345024,24.6174524,haaganeraveikot.fi,Unknown
FI,60.1904492,24.7398219,espoonvapaaseurakunta.fi,Facility
FI,60.6774521,21.9934594,mynamaenapteekki.fi,Commerce
FI,62.8384356,27.649288,niiralankulma.fi,Facility
FI,60.4562678,26.2256379,merittabra.fi,Commerce
FI,60.9969997,24.4522238,huoneistohotelli.fi,Facility
FI,61.4901041,21.7941336,poriartmuseum.fi,Facility
FI,60.9895014,24.4772263,kantolanniemenspy.fi,Commerce
FI,60.6476714,21.8601797,onzonbangkok.fi,Facility
FI,62.6006767,29.7602281,mihailintaverna.com,Facility
FI,62.6021259,23.7375472,motoparkmetsala.fi,Commerce
FI,60.1698441,24.9562501,riddarhuset.fi,Facility
FI,60.9925251,24.429544,hameenlinnantenniskeskus.fi,Facility
FI,62.3269786,27.8906077,kommilanapteekki.fi,Commerce
FI,60.2892318,25.067194,lukitusturva.fi,Commerce
FI,64.6944303,28.4920452,campingvonkka.fi,Facility
FI,61.5028006,23.7657847,lapintiennorpizzeria.fi,Facility
FI,60.8007641,21.4110604,kuvaamoerja.com,Commerce
FI,61.5000008,23.7673534,thebestonebarbershop.fi,Facility
FI,60.1943247,24.9562304,addiskitchen.fi,Commerce
FI,60.1639832,24.7362989,stepupschool.fi,Facility
FI,61.4956039,23.7595282,ravintolaliv.fi,Facility
FI,60.1989085,24.9643923,friskissvettis.fi,Facility
FI,60.4565892,26.1933654,loviisapadel.fi,Facility
FI,60.2231677,24.8039207,kelloseppakoulu.fi,Facility
FI,60.4812917,22.3087583,traktorikone.fi,Commerce
FI,60.2751504,24.0009168,kannelopisto.fi,Facility
FI,60.2483142,24.0635705,ninkifinland.com,Facility
FI,60.3530618,24.3411214,vihdinteatteri.fi,Commerce
FI,60.1923434,24.9448075,maltainenriekko.fi,Facility
FI,63.8473053,25.8517126,motellinuttulinna.com,Facility
FI,60.8668294,26.6664402,kantolanrengas.fi,Commerce
FI,60.2086838,24.9391518,kahvilasiili.com,Facility
FI,62.8535445,27.6262692,laatuautocenter.fi,Commerce
FI,62.6703613,30.9341362,pogostankaluste.fi,Commerce
FI,60.1710459,24.9406111,hhravintolat.fi,Facility
FI,60.2991891,25.0875335,hobbyfactory.fi,Commerce
FI,60.2185281,24.8055227,glamstyling.fi,Facility
FI,62.5858972,23.6154342,visitalavus.fi,Facility
FI,60.1623758,24.7222532,detaljiboutique.com,Commerce
FI,60.985399,25.6372076,lahdenmessut.fi,Facility
FI,61.4981358,24.6365813,pilatesjapolku.fi,Commerce
FI,60.7379573,24.7753675,riihimaenvapaaseurakunta.fi,Facility
FI,63.1132349,29.776909,kolinkotiseutuyhdistys.fi,Facility
FI,62.2898825,25.7236117,hsvautohuolto.fi,Commerce
FI,61.507076,23.8255247,pirkanmaanhoitokoti.fi,Unknown
FI,60.1568471,24.6306336,hypeareena.fi,Commerce
FI,60.1861545,24.9530209,mekkomania.fi,Commerce
FI,61.5001084,23.7602787,visittampere.fi,Unknown
FI,60.1737023,24.9079335,hietsunpaviljonki.fi,Facility
FI,62.8919217,27.6785263,kuopionkauppahalli.fi,Commerce
FI,62.3116721,27.8878322,warkaus-seura.fi,Facility
FI,60.345772,21.9555274,ravintolaroola.fi,Facility
FI,60.2855991,24.1751213,ecoautocare.fi,Commerce
FI,60.4348792,25.0232678,lassilantila.fi,Commerce
FI,60.1594127,24.9462199,kaivarinkanuuna.fi,Commerce
FI,60.1877165,24.9584256,khmusiikki.fi,Facility
FI,63.6686687,27.5220707,elamajavalo.fi,Commerce
FI,60.1637052,24.9380894,nidekauppa.fi,Commerce
FI,61.1754963,25.5310957,vaaksynolkkari.fi,Facility
FI,62.2392637,25.7588126,jklpaviljonki.fi,Unknown
FI,62.6033902,29.7603602,mansikka-paikka.fi,Facility
FI,60.3235343,24.8558818,puutarhasuunnitelma.fi,Commerce
FI,60.170698,24.9542836,muutoksentekijat.com,Facility
FI,63.0969886,21.6210089,astorvaasa.fi,Facility
FI,65.0815334,25.5472029,kuivasjarvenaura.fi,Facility
FI,62.1468207,25.6753773,il-machinery.com,Commerce
FI,64.2670566,24.8154407,hiitolankukkatalo.fi,Commerce
FI,61.2023885,26.0283376,heinolantanssikerho.fi,Facility
FI,60.5042208,22.3108162,metsamaenrakennus.fi,Commerce
FI,61.213415,28.7967861,papinniemi.com,Facility
FI,60.3338677,22.3937654,mansikkakoskinen.fi,Commerce
FI,63.1459043,22.8215104,lounasherkku.fi,Facility
FI,62.9366431,27.6634332,kestopelti.fi,Unknown
FI,61.5172442,23.6696022,motokeidas.com,Commerce
FI,61.4223428,23.7548793,ilonaleipomo.fi,Commerce
FI,64.4094109,24.3115485,pirttikoskenkyla.fi,Facility
FI,61.4725964,21.7990584,patakirppis.com,Commerce
FI,63.1200876,22.6554796,tapiopirttinen.fi,Commerce
FI,60.295172,25.0431753,nicehearts.com,Commerce
FI,61.140821,22.1837684,vaihtomatto.com,Commerce
FI,60.1831483,24.9577399,kuvittajat.fi,Facility
FI,61.4977283,23.7669171,colossalorder.fi,Commerce
FI,59.9413449,23.7267697,sandisbutik.fi,Facility
FI,60.1612042,22.7272977,tavaratalohurrikaani.fi,Commerce
FI,60.9815278,25.6605239,keskusmusiikki.fi,Commerce
FI,61.147365,25.6394825,verstashuone.fi,Commerce
FI,60.2411553,24.844768,punttisali.com,Facility
FI,59.9746441,23.4349697,vastranyland.fi,Unknown
FI,61.5088904,23.8453118,tampereentenniskeskus.fi,Facility
FI,61.7396976,26.1131333,joutsanhelluntaiseurakunta.fi,Facility
FI,61.487548,21.7964871,royalmustang.fi,Facility
FI,60.981394,25.6546577,labellalahti.com,Facility
FI,61.5793702,26.0210761,hartolanapteekki.fi,Commerce
FI,62.5889934,29.7891524,kukkaniitty.fi,Commerce
FI,60.2783547,24.8662918,autoahonen.fi,Commerce
FI,63.1095393,22.8916803,jaakkomakinen.fi,Commerce
FI,60.4598429,22.2474321,sannansiivouspalvelu.fi,Commerce
FI,60.2181942,24.9876389,padelviikinranta.fi,Facility
FI,61.5034083,23.7168534,pispalanpulteri.fi,Facility
FI,67.8049896,24.8006041,eatshootdrive.com,Commerce
FI,60.1851673,24.9532284,goosebumbsrecords.com,Commerce
FI,65.0132492,25.471815,kirpparilla.fi,Commerce
FI,65.0655707,25.4164282,parturikampaamosirena.fi,Facility
FI,60.473302,22.4121931,broadwaylieto.fi,Facility
FI,61.4728315,23.8757871,asuntopalvelukarjalainen.com,Commerce
FI,60.2096387,24.8952994,kuvamuisto.fi,Commerce
FI,60.7983099,22.8575103,pappistenlava.fi,Facility
FI,60.1661606,24.9465374,taidelainaamo.fi,Commerce
FI,60.1665195,24.9372192,regeringen.ax,Facility
FI,60.199097,24.9337478,barpikajuna.fi,Facility
FI,60.1838006,25.0458669,laajasalonopisto.fi,Facility
FI,66.5439508,25.8479397,valleyshop.fi,Commerce
FI,62.2420844,25.7539463,suomenhierojakoulut.fi,Commerce
FI,65.8442283,24.144129,karkiainen.fi,Facility
FI,60.1848357,24.9517632,helsingbar.fi,Facility
FI,60.3442804,22.3232605,teollisuus49.fi,Unknown
FI,59.9204172,20.9065358,skargardsbutik.fi,Commerce
FI,60.5696827,27.1966129,konditoriahuovila.com,Facility
FI,60.0197788,22.5097637,apoteketidalsbruk.fi,Commerce
FI,60.267612,24.120368,lohjanmatilda.com,Facility
FI,60.8032064,23.2950463,hevosurheilumuseo.fi,Facility
FI,60.1926599,24.9452585,restaurantalbina.fi,Facility
FI,61.8798411,25.2985412,himosmajoitus.fi,Facility
FI,61.0386468,25.4464005,urheiluseurahollolantoverit.com,Unknown
FI,66.1679656,29.1754126,rukanolkkari.fi,Facility
FI,64.1369447,25.3649993,haapavesi-lehti.fi,Unknown
FI,60.1599678,24.9467747,nomadinteriordesign.com,Commerce
FI,67.5248878,24.3060222,tunturiflow.fi,Commerce
FI,61.4977812,23.7485214,hiekantaidemuseo.fi,Facility
FI,60.9806065,25.6711067,maustemesta.com,Commerce
FI,64.6223954,24.4224339,sarkanperennataimisto.fi,Commerce
FI,61.4551807,23.7839519,kiinnikekeskus.fi,Commerce
FI,62.7334127,29.0381949,hojo-matkat.fi,Commerce
FI,60.9854846,25.6628376,jalkahoitolavivial.fi,Facility
FI,65.0213671,25.485669,oulunenergia.fi,Commerce
FI,61.4873867,23.7722498,creativemonkey.fi,Facility
FI,67.6055034,24.1546315,lomarengas-yllas.fi,Commerce
FI,60.4558142,22.2690733,enigmahair.fi,Facility
FI,61.4975583,23.7768338,east-asia-mart.com,Commerce
FI,61.4972314,23.7697074,uhanadesign.com,Commerce
FI,60.1748918,24.9258029,kultaus-kehys.fi,Commerce
FI,61.5290005,23.6370604,fantomstudio.fi,Facility
FI,61.200964,26.0264196,rantacasino.fi,Facility
FI,61.4958573,23.7606545,pispalaclothing.com,Commerce
FI,60.2609623,24.9839084,vainiopiano1.fi,Facility
FI,61.5616053,21.6142269,kuntosalitiimi.fi,Facility
FI,60.2107169,25.0791628,itakeskuksenapteekki.fi,Commerce
FI,60.4480294,22.2708057,groovehair.fi,Facility
FI,62.0978211,30.138415,kiteenkellojakulta.fi,Commerce
FI,61.0494198,26.4871997,krm-paavolainen.com,Commerce
FI,61.4682015,23.7759929,koivuapteekki.fi,Commerce
FI,60.4513088,22.2236254,gee-voimaa.fi,Commerce
FI,61.4951932,23.7768624,fiiliksella.fi,Facility
FI,61.4701309,23.7224056,partolanpizzeria.fi,Facility
FI,61.1344899,21.4928579,gymppikunto.fi,Facility
FI,61.5708292,26.0372748,linnahotelli.fi,Facility
FI,62.8011415,27.5585754,ajoharjoittelunpaikka.fi,Facility
FI,60.1986843,24.9297182,apteekki51.fi,Commerce
FI,62.7910176,22.8300178,fysioketela.fi,Facility
FI,63.0395201,23.9959724,millespakka.fi,Commerce
FI,60.4524205,22.2832158,nurmidao-orientalfood.com,Commerce
FI,61.1952596,28.6958864,saimaagardens.com,Facility
FI,61.1780609,25.5362251,studiomatti.fi,Commerce
FI,60.2803888,24.1573772,autohuoltoteho.fi,Commerce
FI,60.4748296,22.2262055,tarkattalot.fi,Commerce
FI,60.6777089,21.9850886,nestemynamaki.fi,Commerce
FI,64.2529431,23.9293011,kalajoenvapaaseurakunta.fi,Facility
FI,60.1872133,24.9197647,hockeycorner.net,Commerce
FI,60.5418122,22.8773788,laurilanlava.fi,Facility
FI,60.189958,25.033054,hiltusenpyora.fi,Commerce
FI,62.7647416,23.4993415,soileyli-mayry.com,Facility
FI,61.4983008,23.7710941,tampereenkauneushoitola.fi,Facility
FI,60.2219616,24.8495581,pitskunautopaint.com,Commerce
FI,60.1837293,24.9586224,kalliosecondhand.fi,Commerce
FI,65.0133935,25.4736799,cocktailcompany.fi,Facility
FI,60.4598983,26.9395945,katariinaautogrilli.fi,Facility
FI,60.1840086,24.8364318,ravintolaranta.fi,Facility
FI,68.451379,22.4847101,davvihotel.com,Facility
FI,60.5090251,21.4488215,kustavinsavipaja.fi,Facility
FI,62.6284275,29.7721626,autoaatamila.fi,Commerce
FI,60.299494,24.9955577,ilmastotyokalut.fi,Facility
FI,61.4993519,23.7138983,hirvikatu10.net,Facility
FI,59.9761734,23.4433705,salonmarina.fi,Facility
FI,60.4508924,22.2532837,turunkotikirkko.net,Facility
FI,60.7181798,22.603253,poytyanhautaus.fi,Commerce
FI,60.8305306,21.3549166,tuulenhauki.fi,Facility
FI,61.0556948,28.1933477,ihonhoitokeskushurmos.fi,Facility
FI,60.3875947,23.1225312,salonakvaario.fi,Commerce
FI,62.6046451,23.7248274,peltikeskus.fi,Unknown
FI,63.8389632,23.1302494,ekokampaamokaisa.com,Facility
FI,65.9556294,29.1584588,hannuhautala.fi,Facility
FI,61.000624,25.537246,ovihollola.fi,Commerce
FI,62.2671388,25.578183,vesangankylakauppa.fi,Commerce
FI,60.239352,25.172078,wilhelmtell.fi,Facility
FI,60.2150637,24.7622682,frisbeegolfvalmennus.fi,Facility
FI,60.1672131,24.9362154,salonpacifique.fi,Facility
FI,62.6657,25.3401261,visitsaarijarvi.fi,Facility
FI,60.3511179,24.9091706,purkukeinanen.fi,Commerce
FI,60.159947,24.8809948,lauttasaarenapteekki.fi,Commerce
FI,60.2393781,24.8552011,kylttikeskus.fi,Commerce
FI,60.5696595,22.0987985,maskunapteekki.fi,Commerce
FI,61.4856056,23.8773857,autohuoltotampere.fi,Commerce
FI,60.9890677,25.6663087,megazone-lahti.com,Unknown
FI,61.1978639,26.0329744,heinolansiltasaari.fi,Facility
FI,60.4512815,22.2463327,rtj-siivous.fi,Commerce
FI,62.5363475,24.1846868,visitahtari.fi,Facility
FI,60.3858048,25.108171,sininauhakoti.fi,Facility
FI,63.1004825,21.625443,crossfitsixtyfive100.com,Facility
FI,64.8677713,27.6719813,puolanganapteekki.fi,Commerce
FI,60.3363846,25.5864983,tolkistalo.fi,Commerce
FI,62.8005809,23.9300312,fagerkullanpappila.fi,Commerce
FI,60.22089,24.8120207,espoonlukkohuolto.fi,Commerce
FI,60.6233183,26.1984837,lapinjarvenapteekki.fi,Commerce
FI,65.1271172,25.7747569,kiimingingrilli.fi,Facility
FI,60.4079989,22.3603603,kotikirkko.org,Facility
FI,61.4973572,23.7718943,ravintola-c.fi,Facility
FI,60.1293026,23.5433874,lavanderia.fi,Facility
FI,63.3487752,27.4165269,lapinlahdenau.net,Facility
FI,60.2013641,24.6654969,masjidalnuur.com,Facility
FI,61.1291804,21.4945886,kalliohovi.fi,Facility
FI,61.9988873,28.7576622,willanuttu.fi,Facility
FI,60.184162,24.9624933,adoptioperheet.fi,Facility
FI,60.3492026,24.3071876,paivolanvirkistyskoti.fi,Facility
FI,64.9021347,25.5381476,kauppakeskuszeppelin.fi,Commerce
FI,60.2164414,24.8940267,hemochskola.fi,Facility
FI,60.5135495,26.9324506,kontioapteekki.fi,Commerce
FI,62.8739899,24.802494,suojanelokuvat.fi,Facility
FI,62.4386792,28.2527158,tulenliekki.fi,Facility
FI,60.8426078,23.0064151,laakeedeli.fi,Facility
FI,60.1786901,24.9496195,patisserieteemuaura.fi,Commerce
FI,63.5746036,27.2096246,rtv-huolto.net,Commerce
FI,60.1746188,24.7566311,remedygames.com,Commerce
FI,61.503418,25.6856375,sysmanhelluntaisrk.com,Facility
FI,60.205056,24.7789925,ajtuotteet.fi,Commerce
FI,60.2401148,24.9789969,pukinmaenpuutarha.fi,Commerce
FI,60.3689192,24.7527182,klaukkalanpesula.com,Commerce
FI,60.4809345,22.3074481,firent-turku.fi,Commerce
FI,62.4231348,22.1783427,kauhajoentilikeskus.fi,Commerce
FI,60.0881553,21.9816451,livingarchipelago.fi,Facility
FI,60.9790053,25.6570308,kristosofia.fi,Commerce
FI,60.250282,25.1744229,clp-education.fi,Facility
FI,62.7045895,23.7982636,tohninmaentalo.fi,Commerce
FI,62.2930175,27.3820532,suoramyyntihalli.fi,Facility
FI,60.1859999,24.961531,sushibarwine.com,Facility
FI,60.2157586,24.7614848,isitcooking.fi,Facility
FI,60.2509011,25.0124646,hokkaidosushibuffet.com,Facility
FI,60.1915647,24.9521361,vallilanfunk.fi,Commerce
FI,61.4988534,23.7866181,kavaljeeri.com,Commerce
FI,60.3278737,24.4090932,tervalampi.fi,Facility
FI,61.4781635,23.5124265,kellopistepaukku.fi,Commerce
FI,62.2405363,25.7273141,kristillinenkoulu.com,Facility
FI,60.212162,24.9406077,anttitormanen.com,Facility
FI,60.1965163,25.0362781,paakaupunginturvakoti.fi,Facility
FI,60.0434048,24.0066279,aquariussporting.fi,Facility
FI,59.9760263,23.4375873,halsofabriken.fi,Facility
FI,60.2967289,25.3235639,soderpippuri.fi,Facility
FI,64.5585327,26.8355916,vaalanfysioterapia.fi,Facility
FI,60.8681056,26.7052866,kouvolanuusiapteekki.fi,Commerce
FI,62.2488771,25.7599386,digigamecenter.org,Commerce
FI,60.4854237,22.1654217,raisiokeskus.fi,Commerce
FI,60.2481192,24.8639229,namikaluste.fi,Commerce
FI,60.4572266,26.2048983,artonrengaspalvelu.fi,Commerce
FI,64.2881589,23.9474989,finnmaster.fi,Unknown
FI,60.7718683,26.7842858,anjalankoskenteatteri.fi,Facility
FI,61.6909633,27.2760142,eepingrilli.com,Facility
FI,63.6753096,22.7106621,hotelepoque.fi,Facility
FI,61.4826615,21.8229047,viikinhelmi.fi,Facility
FI,61.7062217,22.0269867,sahkokaluste.fi,Commerce
FI,61.0057006,25.6657162,iskucenter.fi,Commerce
FI,60.5493517,22.1469276,kelopeukalo.fi,Commerce
FI,60.4532426,22.2689943,theoriginals.fi,Facility
FI,60.941716,26.6183581,atlasvoikkaa.fi,Facility
FI,60.2066922,24.7127532,targaarena.fi,Facility
FI,60.2942393,25.0377781,kivistonputkijate.fi,Commerce
FI,60.1865677,24.9574193,kallionaloha.fi,Facility
FI,60.5976369,22.1533196,kalliotasaus.fi,Commerce
FI,61.1629538,23.6932996,akaanrengas.fi,Commerce
FI,60.2113671,25.0811587,vileninrakennushuolto.fi,Commerce
FI,63.8319933,23.1429207,huushollikeittiot.com,Commerce
FI,67.6947332,25.2424557,nulituinen.fi,Facility
FI,60.6267824,21.9353836,kuljetustmikkola.fi,Commerce
FI,60.4532736,22.2658387,sifonkisecondhand.fi,Commerce
FI,60.448976,22.2565783,turunvihreat.fi,Facility
FI,62.3193064,27.8700415,varkaudenhelluntaiseurakunta.fi,Facility
FI,60.3531553,25.1783287,kalliopuro.com,Facility
FI,60.2932518,25.0426915,studiolight.fi,Facility
FI,60.6224854,22.5329232,aurannuortentalo.fi,Facility
FI,61.8488,21.4704242,merrycamping.fi,Facility
FI,62.6178134,29.7492289,joentuontipalvelu.fi,Commerce
FI,61.0590777,23.2462245,sarkanlava.com,Facility
FI,60.5577955,21.8873316,askaistenprannari.fi,Facility
FI,60.1658594,24.9346387,r-collection.fi,Commerce
FI,60.5976052,22.084452,studioferro.fi,Facility
FI,60.1915991,24.9541197,avthelsinki.fi,Facility
FI,60.2941411,25.0353829,ompelimotuplatikki.fi,Unknown
FI,60.9959664,24.4685894,blacklilytattoo.com,Facility
FI,60.215381,24.8765098,raidejokeri.info,Commerce
FI,62.8977619,27.8461217,roinilanhoitokoti.fi,Facility
FI,60.1958674,24.9493284,vallilainterior.fi,Commerce
FI,60.0710824,23.6613798,tryckeriteatern.org,Unknown
FI,62.0297889,24.6236682,mantanapteekki.fi,Commerce
FI,64.2430682,23.8237418,rantakalla.fi,Facility
FI,60.393114,25.6630123,porvoonuusiapteekki.fi,Commerce
FI,62.6030803,23.7260093,keskisenkello.fi,Commerce
FI,62.8913796,27.681485,ravintolapanza.fi,Facility
FI,60.8087947,23.630101,kutomonapteekki.fi,Commerce
FI,61.4961361,23.7792796,dreamhostel.fi,Facility
FI,62.4377156,22.061537,suupohjanlinnut.fi,Unknown
FI,60.9843167,25.6615941,jelenankosmetologipalvelut.fi,Facility
FI,60.4604352,24.8028665,kukkakamarielsi.fi,Commerce
FI,67.6034847,24.1717594,martinmaki.net,Commerce
FI,61.5559519,23.5640934,leppakoski.fi,Facility
FI,60.5258545,26.4696462,stromforsinruukki.com,Unknown
FI,60.4718291,22.0354088,naantalicityapartments.fi,Facility
FI,60.8687731,26.7018697,hansa-apteekki.fi,Commerce
FI,65.0014442,25.4663998,retkitukku.fi,Commerce
FI,62.6158506,23.609437,ravintolawagner.fi,Facility
FI,60.3780215,19.859348,motormuseum.ax,Facility
FI,60.2481586,24.8641056,parturikampaamorivi.fi,Facility
FI,60.4102754,22.1647847,visitturku.fi,Facility
FI,61.4609172,23.7235192,muuttopalvelu.com,Commerce
FI,62.7897609,22.8370973,wegotburgers.fi,Facility
FI,60.1275719,19.932674,traningsverket.fi,Facility
FI,60.4523423,22.2571113,humalistonapteekki.fi,Commerce
FI,61.0884543,27.7016237,villaharmony.net,Unknown
FI,62.2560258,25.7751139,kauppakeskusseppa.fi,Commerce
FI,61.5102514,27.2492818,ristiinanapteekki.fi,Commerce
FI,62.6289918,29.7733646,ravintolatuhti.fi,Facility
FI,61.4974506,23.7663633,kuvatilaukset.fi,Commerce
FI,60.6786941,21.9940431,mynamaenmaahiset.fi,Commerce
FI,60.3867593,23.1270575,salonkukka.net,Commerce
FI,65.0153586,25.4665176,funoulukeskusta.fi,Facility
FI,60.2704666,24.8759968,villenautomyynti.fi,Commerce
FI,60.0198339,22.5029599,strandhotellet.fi,Facility
FI,60.160783,24.9432817,plutofinland.fi,Commerce
FI,60.6775373,21.9933572,kynsihuone.fi,Facility
FI,62.2365253,25.7296186,xn--jyvskylnkiipeilykeskus-24be.fi,Facility
FI,60.4456888,22.2817727,tietokonekauppa.fi,Commerce
FI,64.9124473,25.5047377,kempeleenykkosapteekki.fi,Commerce
FI,62.8916748,27.6808943,feastandfame.fi,Facility
FI,63.0959507,21.6118043,kukka-anemone.fi,Commerce
FI,61.1292338,22.1298245,eurankiinteistonvalitys.fi,Commerce
FI,60.4358881,22.2276762,food-design.fi,Facility
FI,63.0985594,23.0379494,kuntokorjaamo.com,Facility
FI,60.8788527,22.4111973,eijantilitupa.fi,Commerce
FI,62.2886551,25.7166008,palokanapteekki.fi,Commerce
FI,62.6006818,29.7341711,joensuuncurling.fi,Facility
FI,60.1853559,24.7436172,parturikampaamomandala.fi,Facility
FI,62.6140867,29.7299426,medixbiochemica.com,Commerce
FI,60.268709,24.8519068,fillaripaja.fi,Commerce
FI,68.4808643,22.2033762,vikkurikoskenleirinta.fi,Facility
FI,60.1682807,24.9253725,globeartpoint.fi,Facility
FI,60.9636379,24.4398532,vitabalans.fi,Commerce
FI,60.2785077,24.9796615,vanerikulma.fi,Commerce
FI,60.4721063,22.2818903,pizzaperez.fi,Facility
FI,60.208551,24.9754526,bistrobryk.fi,Facility
FI,60.7369443,27.0006322,galleriaantares.fi,Facility
FI,61.096891,24.8906728,kapakanmaki.fi,Facility
FI,63.0728089,27.6659371,ruusuristi.fi,Facility
FI,66.8307455,28.6705967,sallanapteekki.fi,Commerce
FI,61.4163915,23.7592156,fysio-piste.fi,Facility
FI,60.3498027,24.3212734,mp-opastin.fi,Commerce
FI,60.9816082,25.6552925,salonfreimi.fi,Facility
FI,62.7781432,22.8426496,seinajoenvapaaseurakunta.com,Facility
FI,60.5149616,22.4797949,carrusdelta.fi,Commerce
FI,62.4278189,22.1773697,kristinamedi.fi,Facility
FI,60.1757558,24.7349895,somtam-enjoythaifood.fi,Facility
FI,60.9669056,24.4373373,k-hsammutinhuolto.fi,Commerce
FI,60.4500109,22.2655187,porokauppa.fi,Commerce
FI,60.4045435,25.101985,hammasomppu.com,Facility
FI,60.158302,24.9446337,sarihorkko.fi,Commerce
FI,66.3896113,23.7311668,aurinkomajat.fi,Facility
FI,60.4696048,22.2061616,kehystamoturku.fi,Commerce
FI,62.8917065,27.6685411,lounassalonki.fi,Facility
FI,60.5839455,21.3163841,lomavalkama.fi,Facility
FI,62.790268,22.827115,marttilantalli.fi,Facility
FI,60.2068699,24.917142,ravintolavesilinna.fi,Facility
FI,60.9210771,24.6144852,raminautohuolto.fi,Commerce
FI,60.2933667,24.9452217,vantaanmattopesu.fi,Commerce
FI,62.9843519,22.3533972,kyrodistillery.com,Commerce
FI,61.3511635,25.2773617,phr-tuotteet.com,Commerce
FI,61.5028206,23.6249284,raholanliikuntakeskus.com,Facility
FI,60.4482194,22.2713444,hoitolaaura.fi,Facility
FI,62.2873001,25.8113012,sahko-aijat.fi,Commerce
FI,62.2450575,25.7500551,kissanviikset.fi,Facility
FI,63.9023298,24.522045,huoltamonolohuone.fi,Facility
FI,61.4664436,23.8891642,villivyohyke.net,Facility
FI,60.7386678,24.7991036,putkilaser.fi,Commerce
FI,60.3631654,24.1683227,kahvila-ravintola-hiidenpirtti.com,Facility
FI,65.0276996,25.461201,pizzalovers.fi,Facility
FI,60.1706089,24.9297488,evainternationalartgallery.com,Facility
FI,60.0980094,24.6772781,publicistforbundet.fi,Unknown
FI,62.8882685,27.6788735,kuopionmusiikkikeskus.fi,Facility
FI,60.1964498,25.0369565,bistrodelmar.fi,Facility
FI,60.2675714,24.1208391,asemanpizzakebab.fi,Facility
FI,62.7901252,22.8419441,kuulopiste.fi,Commerce
FI,60.2977279,25.040947,pikkuemilia.fi,Facility
FI,60.9854459,25.6628321,ravintolapetra.fi,Facility
FI,64.2337763,27.6880155,renforsinranta.fi,Commerce
FI,61.2042796,26.0390655,pirrenpesula.com,Commerce
FI,60.9861192,25.6588907,malvamuseo.fi,Facility
FI,60.1720705,24.9312434,taidehalli.fi,Facility
FI,63.1124722,23.0413535,jarvilakeus.fi,Facility
FI,60.5749047,27.1742942,haminanenergia.fi,Commerce
FI,61.2099657,28.7720577,vartiaisenpuutarha.fi,Commerce
FI,61.4966001,23.7587312,4vuodenaikaa.fi,Facility
FI,60.2412701,24.8844841,goldencafepizza.fi,Facility
FI,63.0662945,28.3284229,seponurheilujapatruuna.fi,Commerce
FI,60.5186496,24.2414547,askoanttila.fi,Commerce
FI,60.1667119,24.9348205,cafeboardgame.fi,Facility
FI,60.3038624,25.1520703,vantaanlatu.com,Facility
FI,62.4359772,22.1030839,kantoranta.com,Facility
FI,61.4831215,23.7944522,konditoriamari.fi,Facility
FI,60.1796473,25.0514989,laajasalonkukkapalvelu.fi,Commerce
FI,61.4205031,23.7558676,robitgroup.com,Commerce
FI,67.9106008,23.9292605,sarkijarvenmajat.fi,Facility
FI,60.61938,22.1290159,vuokraautot.fi,Commerce
FI,65.8023128,24.5464238,ravintolamori.fi,Facility
FI,60.5104967,22.2659998,peipponenexpress.fi,Unknown
FI,62.364267,25.4796572,nyrolatalo.fi,Facility
FI,62.782954,22.8382961,uppalankartano.fi,Facility
FI,62.6418773,31.2900506,mohkonruukki.fi,Facility
FI,61.5010818,23.7673319,kahvilaruno.fi,Facility
FI,60.3946136,25.6608751,visitporvoo.fi,Facility
FI,60.5349246,22.3061858,maalaisleipomo.fi,Facility
FI,68.7291622,26.3561507,valkeaporo.fi,Facility
FI,60.5706572,22.457214,liedonluja.fi,Facility
FI,62.4545198,25.932483,kanavateatteri.fi,Facility
FI,60.6483093,25.8313171,myrskylanmyrsky.fi,Facility
FI,59.8247223,22.9648042,hangonapteekki.fi,Commerce
FI,60.1852729,24.8564608,didrichsenmuseum.fi,Facility
FI,67.4196068,26.5902306,ravintolaruususuola.fi,Facility
FI,60.5526874,24.9654492,stationjokela.fi,Facility
FI,60.2094904,25.0820348,polakuvaamo.fi,Commerce
FI,60.1541759,24.6681601,tuulilasihjelm.fi,Commerce
FI,62.2383701,25.7391188,videodivari.fi,Unknown
FI,60.9950199,25.6513449,sibeliustalo.fi,Facility
FI,60.8128682,23.62413,elavienkuvienteatteri.fi,Facility
FI,63.0547371,22.8412235,ala-talkkari.fi,Commerce
FI,61.3495157,22.8983438,vammalanhelluntai.net,Facility
FI,60.4684041,22.0244524,naantalinhopeapaja.fi,Commerce
FI,62.6015423,29.752823,galleria62.fi,Facility
FI,60.4668506,22.0262519,harmonikanrestaurointi.net,Commerce
FI,61.4960093,23.7605545,guruskitchen.fi,Facility
FI,60.3162435,24.8501656,ilclassico.fi,Facility
FI,64.24578,23.8807526,kalajoenteras.fi,Commerce
FI,64.0688052,23.6374852,vesikolmio.fi,Commerce
FI,61.1274096,21.5159331,hotelvanharauma.fi,Facility
FI,67.597796,24.1132907,markuskiili.fi,Commerce
FI,59.9727081,23.4313067,cafegamlastan.fi,Facility
FI,60.1660333,24.9371988,chivathaispa.fi,Facility
FI,61.2217186,28.8189033,imatranlampo.fi,Unknown
FI,60.3238571,25.0578617,koivukylanapteekki.fi,Commerce
FI,60.3255613,23.1572933,pukkilankartano.fi,Facility
FI,63.837969,23.1197142,kokkolanteatteri.fi,Facility
FI,60.4936754,22.3491516,turunhippos.fi,Facility
FI,60.376508,24.3682717,visitvihti.fi,Facility
FI,60.5718837,27.4777388,takatalotompuri.com,Commerce
FI,60.3698125,22.3231773,villawolax.fi,Facility
FI,60.0055299,23.5341781,etelavartiointi.fi,Commerce
FI,62.6107598,29.775072,tilijalaskenta.fi,Commerce
FI,62.9760045,21.4942238,siirtolapuutarha.fi,Commerce
FI,67.7800303,24.9425697,sammuntupa.fi,Facility
FI,61.4982123,23.7624583,tampereenteatteri.fi,Facility
FI,61.4940004,23.8134472,teknotaikurit.fi,Commerce
FI,61.4957823,23.7716733,parturikeskus.fi,Facility
FI,61.8778353,21.8233595,visitsatakunta.fi,Facility
FI,63.5097559,29.1249382,mannikkolanpirtti.com,Facility
FI,65.7179892,24.6208227,hotelyopuu.com,Facility
FI,62.6016996,29.7609432,miunpaikka.fi,Facility
FI,60.4763997,25.1074966,kirpputorihelmi.fi,Commerce
FI,60.2353237,25.100331,helsinkibeerfactory.fi,Facility
FI,62.8923294,27.6900224,muikkuravintolasampo.fi,Facility
FI,63.0997759,23.0615076,kauhavannuorisoseura.fi,Facility
FI,60.1654375,24.9476082,blackouthair.fi,Commerce
FI,61.8957517,24.1079018,ruovedenherkku.fi,Commerce
FI,62.6265368,29.7453352,stenarecycling.fi,Unknown
FI,60.1617201,24.738376,elamyslahjat.fi,Commerce
FI,60.1344703,24.5108857,puutarhaliikereiman.fi,Commerce
FI,60.1892898,24.9525176,alppirauta.fi,Commerce
FI,60.8666965,26.7057815,studiodancepit.fi,Unknown
FI,61.4548949,23.8490917,autohuoltomalmi.fi,Commerce
FI,60.4584673,26.225406,kinomarilyn.fi,Facility
FI,60.5786919,25.5967898,hiidenkirnut.fi,Facility
FI,60.1111131,19.9113015,styrkestallet.fi,Facility
FI,63.0746159,27.6588744,hautauspalvelumatero.fi,Commerce
FI,67.5518424,24.2591339,bistrohissi.fi,Facility
FI,60.4592264,22.2749784,tiedekoulu.fi,Facility
FI,61.4481397,23.690476,kenkamatti.fi,Commerce
FI,62.3150108,27.8909035,hoteloscar.fi,Facility
FI,65.0529138,25.5942048,nestorcables.fi,Commerce
FI,64.1284668,29.5188217,matka-kyllonen.fi,Commerce
FI,64.8099379,25.416645,visitliminka.fi,Facility
FI,60.6168009,22.1677087,seesteinen.com,Facility
FI,61.4615891,23.5825392,lammastilatanila.fi,Facility
FI,60.1659657,24.9344721,mattocenter.fi,Commerce
FI,66.4154371,24.6863826,mellajarvi.fi,Facility
FI,61.0578747,28.2290731,visitlappeenranta.fi,Facility
FI,60.1924788,24.9444844,bambusushi.fi,Facility
FI,64.6841995,24.4819299,outikolehmainen.fi,Facility
FI,60.1828064,24.95277,majavabaari.fi,Facility
FI,60.8759758,22.4173462,luontokapinetti.fi,Facility
FI,60.3357584,24.3204027,sporthammer.fi,Commerce
FI,60.1584261,24.9336682,forzahelsinki.fi,Facility
FI,60.1582549,24.9485094,mp-isannointi.fi,Commerce
FI,60.4664706,22.4058618,tuulistarhat.fi,Unknown
FI,60.2103924,25.0805399,itavaylanhammaslaakarit.fi,Facility
FI,60.2390762,24.8738506,omatkoditlkv.fi,Commerce
FI,60.2064612,24.972506,arabianasukastalot.fi,Facility
FI,60.8893092,26.3403859,iitinpyrinto.fi,Commerce
FI,60.2025587,24.967831,arabianrannanapteekki.fi,Commerce
FI,60.4539931,22.2742692,sinikotkat.fi,Facility
FI,60.0921194,24.4011005,jalkahoitolakantvik.com,Facility
FI,60.2788104,24.812792,seitawellness.fi,Facility
FI,60.2833494,24.9736086,scandinavianoutdoor.com,Commerce
FI,66.1262459,29.2198889,kuusamogolf.fi,Facility
FI,60.9902096,25.7177402,erpahvityo.fi,Commerce
FI,60.1674928,24.9296613,wanhakettu.fi,Facility
FI,66.4791364,25.7438973,poykkolanpiste.fi,Facility
FI,61.4914325,23.820505,haka-apteekki.fi,Commerce
FI,65.0132403,25.4746643,salonvirho.com,Facility
FI,60.8787137,22.4105005,ommeljailo.fi,Commerce
FI,61.8325377,25.4283777,jokisenlomat.fi,Facility
FI,60.209095,25.1014445,omakotisaatio.fi,Facility
FI,61.5911003,21.4778957,apartmentsborg.fi,Facility
FI,62.3803588,25.6665244,uudettuulethoiva.fi,Facility
FI,61.3324424,22.9210238,bistro15sastamala.fi,Facility
FI,62.0868012,23.7654526,lomakeskuspukkila.fi,Commerce
FI,62.5625705,23.0612708,peraseinajoenapteekki.fi,Commerce
FI,62.4269823,22.1829268,kauhajoenkeilahalli.fi,Facility
FI,60.4707306,22.2349797,lansikeskuksenautopesu.fi,Commerce
FI,60.3744302,25.0180927,riihipizzeria.fi,Facility
FI,62.8002747,23.523463,autohuoltovesteri.fi,Commerce
FI,63.3435735,21.3251614,fredrikakirjastot.fi,Facility
FI,67.8108938,24.8061116,tokkasafaris.fi,Commerce
FI,61.4969898,23.7528867,popkotikauppa.fi,Commerce
FI,60.2393548,24.8754538,kannel-krouvi.fi,Facility
FI,67.5510326,24.2566615,taigayllas.fi,Facility
FI,61.4301687,23.8043193,vuoreksenkoirametsa.fi,Facility
FI,62.0184275,26.9145298,rockandlake.com,Facility
FI,64.2582885,23.9469133,bossmanbarbershop.fi,Facility
FI,60.4524801,22.2876926,yeshanghai.fi,Facility
FI,63.0962052,21.6192447,kaavyacuisine.com,Facility
FI,60.2006825,24.784986,ravintolavista.fi,Facility
FI,62.9299003,27.6757685,isovalkeinen.com,Facility
FI,60.4471962,25.0811746,kallio-kuninkala.fi,Facility
FI,63.0421718,23.9073006,uusimaenkone.fi,Unknown
FI,61.314958,22.1379683,vilkunautogrilli.fi,Facility
FI,61.4956144,23.7720256,kuulostudio.fi,Commerce
FI,60.6317189,24.8643731,kauppakeskuswilla.fi,Commerce
FI,60.2715987,25.3163921,msjlruneberg.fi,Commerce
FI,60.231679,24.9345559,eleltorito.fi,Facility
FI,65.005274,25.5380839,oulunsuunnuorisoseura.fi,Facility
FI,60.2922775,25.041818,asemaapteekki.fi,Commerce
FI,62.3891083,25.6456543,tikkakoskenapteekki.fi,Commerce
FI,60.481334,24.8367934,xn--nurmijrviseura-bib.fi,Facility
FI,62.6292758,29.7685639,liikuntakeskusenergy.fi,Facility
FI,60.3959569,23.1280954,liikuntakeskusvire.fi,Facility
FI,63.4146768,22.3426132,munsalabaptistforsamling.com,Facility
FI,61.0400169,28.1132271,shootingcenter.fi,Commerce
FI,62.6005354,29.7611298,kunkkukioskit.com,Commerce
FI,60.8012816,21.4228269,hierojatonipalo.fi,Facility
FI,60.1609276,24.7394702,parkkipesu.fi,Commerce
FI,63.8404662,23.1298031,wanhakartano.com,Facility
FI,60.1579754,24.935755,ekofrissan.fi,Facility
FI,61.1286675,24.6904897,kivikontila.fi,Facility
FI,61.493885,23.7740149,kampusklubi.fi,Facility
FI,62.3795515,25.9481434,laukaanrauhanyhdistys.fi,Facility
FI,63.8384333,23.1316599,kultaseppanissi.fi,Commerce
FI,62.6179832,29.5172617,kuukivibetoni.fi,Commerce
FI,60.2947205,25.0106805,vantaanenergiasahkoverkot.fi,Commerce
FI,62.3836865,25.5723329,kuikanlava.fi,Facility
FI,60.4674044,22.0237295,luontaistuotejasmin.com,Commerce
FI,66.4972095,25.7682074,santasport.fi,Facility
FI,64.1243193,29.5126655,varikkosuora.fi,Commerce
FI,67.8047104,24.8080214,cafebarkota.com,Facility
FI,60.457258,22.2583479,trioisannointi.fi,Commerce
FI,63.0650817,28.3230151,vesijohtoliikevartiainen.fi,Unknown
FI,60.2928102,24.8137107,sryuusimaa.com,Facility
FI,60.6228347,22.1240179,markulansementtivalimo.fi,Commerce
FI,60.4479621,22.2708803,titishairandbeauty.com,Facility
FI,62.3421355,25.8952513,jarvilinna.fi,Facility
FI,62.2417736,25.7452131,craftmuseum.fi,Facility
FI,61.1284285,21.5177149,kahvila@tullinkaffe.fi,Facility
FI,60.4703156,25.1194921,kakkutalogilan.fi,Commerce
FI,61.4509739,23.8480851,salonullamaria.fi,Facility
FI,60.1590857,24.9462321,rose-marie.fi,Commerce
FI,62.1653708,25.3975856,yla-muuratjarviseura.fi,Facility
FI,60.1626526,24.9331385,southparkrestaurant.fi,Facility
FI,60.1730559,24.9566335,cafeclehelsinki.com,Facility
FI,63.2321618,26.7585222,savonverkkoapteekki.fi,Commerce
FI,60.7379088,24.7720628,aarreapteekki.fi,Commerce
FI,63.3626728,23.4772483,ilponkatiska.fi,Commerce
FI,67.5507446,24.2557496,jemessport.com,Commerce
FI,63.102258,21.6188544,vaasanvapis.fi,Facility
FI,62.3003301,27.1583017,taitoitasuomi.fi,Commerce
FI,62.2875288,25.7420609,pizzeriapalokka.fi,Facility
FI,59.9533499,22.3610292,farmorscafe.fi,Facility
FI,60.4929652,22.2546909,mobilelift.fi,Commerce
FI,60.6504439,25.069879,kaitaniemi.fi,Facility
FI,60.3863107,22.4509109,lyhdyntila.fi,Facility
FI,61.4492918,23.8592713,koneenrakentajakilta.fi,Facility
FI,61.1674528,21.5282147,tallibaldur.com,Facility
FI,62.5700858,23.6029383,kuudestaan.net,Commerce
FI,60.168589,24.9332034,jaansarkija.fi,Commerce
FI,61.5961291,21.8727558,ahlstrominruukit.fi,Facility
FI,60.7979781,21.412008,bonkcentre.fi,Facility
FI,60.4602869,22.3012059,taloyhtiosivut.fi,Facility
FI,64.1278658,29.519172,kaesankotileipomo.fi,Commerce
FI,65.9438545,26.4670477,paavalniemen.fi,Facility
FI,60.4022102,25.6879319,porvoonwanharautakauppa.fi,Commerce
FI,60.3501973,25.075122,pyorakioski.fi,Commerce
FI,62.8804279,27.6990969,peraniemenkasino.com,Facility
FI,60.2868996,24.7857397,askistontaverna.fi,Facility
FI,62.2354401,25.7193787,monnarinlounaskahvila.com,Facility
FI,60.2595621,25.0509523,helsingindiesel.fi,Commerce
FI,61.1970392,28.8130352,laaninkuljetus.fi,Unknown
FI,60.4777589,22.0440122,nestenaantali.fi,Facility
FI,60.1644101,24.9450677,voimalaitos.fi,Facility
FI,64.1363468,28.2799547,vuokatinseikkailupuisto.com,Facility
FI,60.4598256,22.247571,merakitattoo.com,Facility
FI,61.9860133,24.0704012,ruovedenapteekki.fi,Commerce
FI,61.2114143,28.1125941,karhupirtit.fi,Facility
FI,61.4506699,23.8506833,mobiilipiste.fi,Unknown
FI,61.2013954,28.7668112,kaenkadunpalvelutalot.fi,Facility
FI,63.1897385,26.3438098,lossisaari.fi,Facility
FI,64.128462,29.4753704,finnstadion.fi,Commerce
FI,60.0540787,24.0169381,malinkaleipomo.com,Commerce
FI,61.9899154,26.6431836,kangasniemenapteekki.fi,Commerce
FI,60.2497523,24.0667981,lohjantahti.fi,Commerce
FI,65.3588632,26.9924029,ravintolamerita.com,Facility
FI,61.176727,25.5347009,lihashuoltoatlanta.fi,Facility
FI,60.6054697,27.8712434,globalbluespb.ru,Commerce
FI,60.5485302,22.0464977,koneistamo.com,Commerce
FI,61.061638,24.3381569,parolanrottinki.fi,Commerce
FI,60.3887039,23.888141,saarelmanpuutarha.fi,Commerce
FI,64.7671893,25.6465692,shamanspirits.com,Commerce
FI,60.1616246,24.9389386,armenianhouse.fi,Facility
FI,60.9960152,25.7004322,mediataloesa.fi,Unknown
FI,60.2112694,25.0810647,ravintolablackbird.fi,Facility
FI,62.2455389,25.7458937,charmingbeauty.fi,Facility
FI,64.2812913,23.9658345,maanrakennussiironen.fi,Commerce
FI,60.9841425,24.4917729,crossfithameenlinna.com,Facility
FI,60.1582365,24.9137233,barleybait.fi,Facility
FI,62.3014238,27.1532786,soisalo-opisto.fi,Facility
FI,61.8638203,29.2781931,korkeatupa.fi,Commerce
FI,60.3845913,24.4147992,liikennesatuli.fi,Commerce
FI,61.4996712,23.7519962,aistikaskauneus.fi,Facility
FI,60.2112433,24.8229099,leppavaaranpizzapalvelu.fi,Facility
FI,61.671825,23.166675,hallapirtti.fi,Facility
FI,61.1157761,23.0993583,punkalaidun.fi,Facility
FI,61.5038282,23.6351331,revontulet.fi,Facility
FI,60.168105,24.9354479,parturikampaamowoima.fi,Facility
FI,60.9137058,26.3003917,sf-caravankaakkoishame.fi,Facility
FI,60.8673806,26.7047141,houseofrockbar.fi,Facility
FI,61.9810214,28.2021017,kuus-hukkala.com,Facility
FI,60.2617645,24.8554038,lobbymyyrmaki.fi,Facility
FI,60.3328078,22.3896143,kappelinranta.fi,Facility
FI,59.9923388,23.6493947,kesateatterit.fi,Facility
FI,60.1660454,24.943352,pastorrestaurant.fi,Facility
FI,64.7217868,25.6970562,hannuksenpiilopirtti.fi,Facility
FI,67.0187251,27.2540872,pyhasafaris.com,Facility
FI,60.5659003,22.1195371,laatoitustuominen.fi,Commerce
FI,60.1865108,24.9573407,kotiharjunsauna.fi,Facility
FI,63.1605029,21.8312168,elimkvevlax.fi,Facility
FI,60.1844252,24.859058,frozenbyte.com,Commerce
FI,60.438041,26.8617663,santalahti.fi,Facility
FI,60.2871471,24.8747725,ovrenybacka.fi,Facility
FI,60.1886512,24.9182765,lasilaitsaari.fi,Commerce
FI,61.2218656,28.8398256,imatranmainoslahja.fi,Commerce
FI,61.1466976,26.5153641,hartolanpuoti.fi,Commerce
FI,62.2627942,25.7792496,jyvaskylansportti-divari.fi,Commerce
FI,62.5964545,23.67438,alavudenoljynpuristamo.fi,Commerce
FI,60.159707,24.9549162,punaisenristinkauppa.fi,Facility
FI,60.8540158,23.0626622,loimaanvoima.fi,Facility
FI,67.6032913,24.165457,sevenfellshostel.com,Unknown
FI,60.6583936,21.8907113,hierojatuomaslassila.fi,Facility
FI,63.1608265,23.8212185,nelimarkanleipomo.fi,Facility
FI,62.3136119,27.8783765,pizza-posti.fi,Facility
FI,61.4998873,23.7752961,tavara-asema.fi,Facility
FI,60.1955637,24.9285454,huolintatalo.fi,Commerce
FI,65.0248258,25.4690659,merikoskenparturikampaamo.fi,Facility
FI,60.4854294,22.2439066,ekmaninkrouvi.fi,Facility
FI,61.4925866,23.7679083,tammerkoskenapteekki.fi,Commerce
FI,60.1802688,24.9487013,sorsafoundation.fi,Facility
FI,60.7168462,25.4003527,mansikkasantanen.fi,Commerce
FI,60.8040157,21.4220499,uginuusiapteekki.fi,Commerce
FI,61.3573062,22.9250823,heinonleipomo.fi,Facility
FI,63.9848639,25.7598423,paakarinpysakki.fi,Facility
FI,60.486266,22.3791808,vanhalinna.fi,Facility
FI,60.4444226,26.2228086,mainostalo.fi,Commerce
FI,60.4529887,22.2669098,tilesquare.fi,Commerce
FI,60.5542912,22.115433,mimosankukka.fi,Commerce
FI,62.0998769,30.1325187,kiteenhovi.com,Facility
FI,61.1728154,25.5478061,fysioterapiakuntorasti.com,Facility
FI,60.8190185,23.2335674,loimijokigolf.fi,Facility
FI,60.238432,25.1002339,pizzaroosa.fi,Facility
FI,60.4941936,22.0607001,autokorjaamo-naantali.fi,Commerce
FI,63.042382,24.5588055,palettikauppakeskus.fi,Commerce
FI,67.7682968,24.8586113,levirestaurants.fi,Facility
FI,61.4506699,23.8500235,hervannansanomat.fi,Unknown
FI,60.1790857,24.8315539,swinghouse.fi,Commerce
FI,60.8471901,26.6050816,kauneushelina.fi,Facility
FI,60.637166,24.869059,pirunsaari.fi,Facility
FI,60.6233581,26.1559865,siviilipalveluskeskus.fi,Facility
FI,60.167894,24.9357271,muusahelsinki.fi,Facility
FI,60.4469745,22.2369075,forceturku.fi,Facility
FI,60.6955161,26.8394178,kaakonnaula.fi,Commerce
FI,60.9838583,25.6569877,helenankotileipomo.com,Facility
FI,60.4863902,22.092671,pianpakari.com,Facility
FI,68.4335449,27.4433015,kaunispaanhuippu.fi,Facility
FI,60.4406652,22.2434666,maringalleriet.com,Facility
FI,60.1580319,23.975549,kaarteensotamuseo.fi,Facility
FI,60.3015598,24.856566,ananaspizza.fi,Facility
FI,64.686497,24.5003119,hakalankoneklinikka.fi,Commerce
FI,61.8038602,22.3976457,siilibarterrace.fi,Facility
FI,60.4528153,22.2664879,alexandria.fi,Commerce
FI,60.2455976,24.0647212,neidonkeidas.fi,Facility
FI,61.2019971,26.0322618,mtcflextek.fi,Commerce
FI,60.1773041,24.9504009,print-refill.com,Commerce
FI,60.1661613,24.9527822,vanhakauppahalli.fi,Commerce
FI,60.9986738,24.4704786,rantakasino.fi,Facility
FI,60.9785109,24.4772475,asbestihanska.fi,Commerce
FI,61.8921549,29.8264458,kalustetalo.fi,Commerce
FI,60.5265233,27.2519763,hamina-camping.fi,Facility
FI,60.5489264,22.1632409,krlaitehuolto.fi,Commerce
FI,60.1863694,24.9500882,brahenapteekki.com,Commerce
FI,61.0555858,28.1897097,gallerialappeenranta.fi,Commerce
FI,60.1584915,24.9463779,doctordesign.fi,Commerce
FI,62.1404196,22.5644723,karvianapteekki.fi,Commerce
FI,61.5294883,23.9408242,saunasaatio.fi,Unknown
FI,60.4039293,25.1000625,keravanliikennekoulu.fi,Facility
FI,60.9430289,24.7320713,heinajoenvpk.com,Facility
FI,62.8073054,22.8828073,hotellifooninki.fi,Facility
FI,63.0967247,21.6146551,daiwosushi.fi,Facility
FI,60.6271944,21.9243323,tilatuunaamo.fi,Facility
FI,60.1828925,24.9483463,vanhankaupunginsuklaa.fi,Commerce
FI,60.5029074,22.3160551,kantolanporapaalutus.fi,Commerce
FI,60.395497,25.6645888,porvoonpyorakeskus.fi,Commerce
FI,61.3690316,22.015825,nakkilankesateatteri.fi,Facility
FI,60.9897042,25.4628754,kauneushoitolalaura.com,Facility
FI,62.4318101,22.1969486,mmautohuolto.com,Commerce
FI,61.3952768,21.5375317,koivuntyrnitila.fi,Commerce
FI,68.4201045,27.4138335,teerenpesa.fi,Facility
FI,61.4989147,23.6540636,elainystavasilaakari.fi,Commerce
FI,65.0242333,25.4687092,shesthetics.fi,Facility
FI,60.1882491,24.9574519,blondiepizza.fi,Facility
FI,60.1611792,24.9416641,garageland.fi,Commerce
FI,61.1889516,21.6881946,hannanherkut.com,Commerce
FI,60.4065154,25.0801017,avainasunnot.fi,Facility
FI,61.475986,23.9783222,suoramanapteekki.fi,Commerce
FI,60.1671584,24.9276803,satakuntatalo.fi,Commerce
FI,60.6208086,22.1223337,kalliopohja.fi,Facility
FI,60.7891544,25.0349859,oitinjuhlatalo.fi,Facility
FI,61.3146413,23.7567651,lempaalanvuokrakodit.fi,Commerce
FI,62.6293736,23.8292646,wood-group.fi,Commerce
FI,62.6160823,22.4011761,kurikanapteekki.fi,Commerce
FI,60.1686546,24.9418896,scholljalkahoitola.fi,Facility
FI,60.1633238,24.9413519,tommyknocker.fi,Facility
FI,61.7604351,23.069971,koivistonkotileipomo.fi,Commerce
FI,61.5072566,21.8642172,karhulinnanjaatelo.fi,Commerce
FI,60.7321287,24.7788517,aurinkoapteekki.fi,Commerce
FI,63.2968689,28.0396622,tahkofarmi.fi,Facility
FI,60.1308882,23.5504818,veitsitehdas.fi,Facility
FI,60.7310635,26.4290733,mustilapuutarha.fi,Commerce
FI,61.1957715,27.6947064,savitaipaleenlukio.fi,Facility
FI,60.1649912,24.9348866,kungfukitchen.fi,Facility
FI,60.2911626,24.9645366,vantaanportinapteekki.fi,Commerce
FI,60.1792626,25.0518051,kolmenolla.fi,Facility
FI,60.5610659,22.0677297,turunterasasennus.fi,Commerce
FI,61.1897599,28.6993575,atreenalin.fi,Facility
FI,60.1170529,19.9596576,palleralla.net,Unknown
FI,60.5474652,22.1313718,rivierabeach.fi,Facility
FI,60.2233848,24.9461967,hengitysliitto.fi,Commerce
FI,59.9659775,23.44778,ek-camping.com,Facility
FI,60.1704627,24.9287081,spiderstattoo.com,Facility
FI,60.1754768,24.9560878,ruiskumestarintalo.fi,Facility
FI,60.9383303,25.6335586,pistesarjat.fi,Commerce
FI,64.1266516,29.5246431,jateyhtyma.fi,Commerce
FI,61.1302691,21.5012366,puistokahvila.fi,Facility
FI,60.6428819,24.8493161,hyvinkaanautomaalaamo.fi,Commerce
FI,60.2626906,24.8500386,myyrinkuntokeskus.fi,Facility
FI,60.2509196,24.7136853,matkailuautomyynti.fi,Commerce
FI,62.6179273,29.7476552,kuvajaaani.com,Commerce
FI,62.8903957,27.6946011,voltticatering.fi,Facility
FI,60.3879955,25.144555,keravanratsastuskoulu.fi,Facility
FI,64.5551521,26.8300916,vaalanapteekki.fi,Commerce
FI,62.9587132,22.9474132,simpsionkullas.fi,Facility
FI,66.497932,25.7541737,ounasapteekki.fi,Commerce
FI,60.1783788,24.9288327,tikobynina.com,Facility
FI,61.539362,28.1592355,saimaabikes.fi,Facility
FI,60.4703227,22.06236,katsastus10.fi,Facility
FI,60.2604887,23.712009,pipolakoti.fi,Facility
FI,61.0502371,24.3674225,moovekuntokeskus.fi,Facility
FI,60.1643869,24.9292429,cafferinooba.com,Facility
FI,60.1593837,24.7367866,hotelmatts.fi,Facility
FI,60.2128068,25.0694013,liikuntakeskuspuro.fi,Facility
FI,66.5177574,25.7589009,saarenkylanapteekki.fi,Commerce
FI,61.4947751,23.8080532,raamattupuhuutampere.fi,Facility
FI,60.2111278,25.8532361,soderbyboden.fi,Facility
FI,61.4965919,23.770845,avainsuutari.fi,Unknown
FI,61.4974274,23.7768313,annensuutari.com,Unknown
FI,62.5976498,22.3726489,kurikanvapis.fi,Facility
FI,60.1421462,24.9847891,suomenlinnatours.com,Facility
FI,60.2628415,24.8818263,muuttohaukat.com,Commerce
FI,60.2500615,24.8312491,paintballsissos.fi,Facility
FI,60.4813983,22.3157148,apexmarine.fi,Commerce
FI,60.2172086,24.7869353,kilonompelimo.fi,Commerce
FI,60.2786688,25.0189569,aukioloajat.com,Commerce
FI,61.5153592,23.7865928,rauhaniemi.net,Commerce
FI,60.2228774,24.7885887,hipposport.fi,Commerce
FI,61.49836,23.7404092,pyynikinelainlaakarit.fi,Commerce
FI,60.4900768,22.1982832,junglejuicebar.fi,Facility
FI,60.1882046,24.9143164,nikamanordic.fi,Facility
FI,60.3100035,25.0312197,simonkylan.fi,Commerce
FI,60.4639772,25.0822142,tervanokansatama.com,Facility
FI,60.1965853,23.0716958,lehtisenpuutarha.fi,Commerce
FI,63.1166488,21.6202572,bockscornerbrewery.com,Commerce
FI,60.8667062,26.7029321,kouvolanbussit.fi,Facility
FI,63.4622749,24.1186381,hietalahtijapojat.fi,Commerce
FI,64.6871298,24.5052902,raksainssit.fi,Commerce
FI,60.3807731,23.9594753,liikuntapistelavida.com,Facility
FI,61.4985507,23.7753828,raitiotieallianssi.fi,Facility
FI,65.0639268,25.4838867,teekkaritalo.fi,Commerce
FI,66.2611126,29.253931,ajakantaika.fi,Facility
FI,60.203726,25.0341015,kontu-sahko.fi,Unknown
FI,60.457684,22.2709637,ovesgarage.fi,Commerce
FI,61.1529474,28.2220506,vehkataipaleenmy.fi,Facility
FI,60.4468679,22.2584225,nuoriteatteri.com,Facility
FI,60.1794879,25.0518107,laajasalong.fi,Facility
FI,60.5190688,22.961844,onnenperantalli.fi,Facility
FI,62.0457603,28.8795242,karvilanpanimo.fi,Commerce
FI,60.2396815,24.8466391,ravintolarosmariini.fi,Facility
FI,60.1687022,24.9444982,estlanderpartners.fi,Commerce
FI,61.1502851,25.9791444,lvisimpanen.fi,Unknown
FI,64.9026407,25.5388692,zeppelininapteekki.fi,Commerce
FI,61.4971421,23.777211,tullintorinapteekki.fi,Commerce
FI,61.4968222,23.7993908,timelessbarbershop.fi,Facility
FI,60.1562451,24.624275,tekno-marine.fi,Commerce
FI,60.1690291,25.0175647,kruunupizzeria.fi,Facility
FI,60.212613,24.9179135,relexsolutions.com,Commerce
FI,66.7752967,23.9673082,pellonapteekki.fi,Commerce
FI,63.4502894,24.0977398,halsuanhelmi.fi,Facility
FI,60.5059835,22.3154083,tekniikka-tuominen.fi,Unknown
FI,60.2106575,24.8875784,helsinginliikennekoulu.fi,Facility
FI,61.0428714,24.3799998,turbotehoa.fi,Commerce
FI,64.1276136,29.5172587,tietomikro.com,Commerce
FI,62.5888987,29.7897012,niinivaaranapteekki.fi,Commerce
FI,64.8653775,25.5220049,vihiluodonkala.fi,Facility
FI,60.1530127,24.5358374,uudenmaankiinteistoapu.fi,Commerce
FI,64.7200735,25.3901446,kukka-jaelainpuistoescurial.fi,Facility
FI,63.1002629,21.6251841,tietolaite.com,Commerce
FI,66.0852303,24.7714972,tervakuksa.fi,Facility
FI,60.3860993,23.1270334,salonturkisateljee.fi,Commerce
FI,60.1874018,24.9188455,asuntosatama.fi,Commerce
FI,62.2640045,24.6985142,suurkeuruu.fi,Unknown
FI,66.5437132,25.8493965,wildnordic.fi,Unknown
FI,60.4449814,22.2753909,pesulaturku.fi,Commerce
FI,62.2627032,26.2060008,lievestuoreenhelluntaisrk.fi,Facility
FI,61.2486892,25.4252386,lehmonkarki.fi,Facility
FI,64.8130025,25.4338742,liminganjaahalli.fi,Facility
FI,61.8605962,21.5059555,merikarvianapteekki.fi,Commerce
FI,60.2610741,24.9840854,elysakauneus.com,Facility
FI,60.1701957,24.9284759,sushinroll.fi,Facility
FI,61.060161,24.3870182,parolanteltta.fi,Commerce
FI,60.4096739,25.112782,keravanenergia.fi,Unknown
FI,60.8933475,26.3352627,naapantuura.fi,Commerce
FI,61.1791281,25.5241845,theenglishplayschool.com,Facility
FI,64.9993579,25.4630162,nailobrewing.fi,Commerce
FI,60.3299106,24.4297465,vihdinratsutalli.fi,Commerce
FI,62.2410738,25.7496058,keskustankirppis.fi,Commerce
FI,61.4833345,23.7508766,hatanpaankartano.net,Facility
FI,60.4689957,22.0256235,studioalisa.fi,Facility
FI,60.2695822,25.0509535,aurinkomatsa@hel.fi,Facility
FI,61.131038,21.5003663,raumankeskusapteekki.fi,Commerce
FI,60.1847906,24.9466463,kulttuuriloukko.fi,Unknown
FI,64.2493867,23.8261529,lohilaakso.fi,Facility
FI,60.2925171,25.0041869,ravintolataimi.fi,Facility
FI,64.8840307,28.9045733,eskonpekka.fi,Commerce
FI,60.1601648,24.9487257,beatmarket.com,Commerce
FI,60.5936948,22.1077557,lahjanmatkat.fi,Commerce
FI,61.7025371,23.7986573,murikka-opisto.fi,Facility
FI,60.4546612,22.267342,greenmarket.fi,Commerce
FI,62.2554139,25.1881048,petajavesilehti.fi,Unknown
FI,60.5350242,22.3061287,ylimaarianapteekki.fi,Commerce
FI,60.610532,27.1498388,korpelanpuutarha.fi,Commerce
FI,60.1801596,24.9494202,apteekki360.fi,Commerce
FI,60.2770875,24.9302461,tolkinkylanratsastuskoulu.fi,Facility
FI,64.8640967,25.5234772,niemikorpioy.com,Unknown
FI,60.4677076,22.0262667,kampaamonaantali.fi,Facility
FI,60.2457956,24.867865,kantsunurkka.fi,Facility
FI,61.5810064,26.0186863,hartolanhelluntaiseurakunta.fi,Facility
FI,64.9825865,25.5605668,milanmaikkula.fi,Facility
FI,59.8004853,22.943251,majakkaseura.fi,Facility
FI,60.980113,25.6334507,makelansahko.fi,Unknown
FI,60.5758829,22.4334561,kuormalava.com,Unknown
FI,60.4349903,22.2249965,wendyhouse.fi,Facility
FI,62.2448659,25.7500133,explosivebar.com,Facility
FI,60.5117746,21.7460003,livonsaarenosuuskauppa.fi,Facility
FI,61.448424,23.8880894,kenttavaruste.com,Unknown
FI,60.4466113,22.2587184,barkertheatre.fi,Facility
FI,60.4734682,22.310259,kamppailuareena.fi,Facility
FI,61.4663078,24.0604183,kirkkoharjunkahvila.fi,Facility
FI,61.8699879,28.87867,pizzeriacapero.net,Facility
FI,62.2477126,25.8758489,vaajakoskenapteekki.fi,Commerce
FI,62.891719,27.681816,gloriakuopio.fi,Facility
FI,60.4934348,22.1983266,autobaijeri.fi,Commerce
FI,60.3501028,24.3661873,liikuntasampo.fi,Facility
FI,64.6764291,24.4487489,visitraahe.fi,Facility
FI,60.5878313,22.0619766,kuljetusisotalo.net,Commerce
FI,60.2741632,24.7409805,ringsidegolf.fi,Facility
FI,61.1319469,22.1449789,vesi-lammela.fi,Commerce
FI,61.1325109,21.5218861,raumankonttoripalvelu.fi,Commerce
FI,61.4891048,23.8550713,hierontamankeli.fi,Facility
FI,63.0724328,21.6973945,vaasankuninkaanapteekki.fi,Commerce
FI,61.5827411,21.7765229,ratsastuskouluzilpa.fi,Facility
FI,60.1999053,24.9361679,kvtfinland.org,Commerce
FI,62.5671409,25.8539934,leipomo-kahvilapaivanpaiste.fi,Facility
FI,60.1525637,24.6518101,minigolfespoo.fi,Facility
FI,69.9416205,27.2097501,auroraholidays.net,Facility
FI,60.9713163,25.6530112,lahdenkeilahalli.fi,Facility
FI,60.1383444,23.8638494,patriksmobel.com,Commerce
FI,66.5167261,25.8463176,saarituvat.fi,Facility
FI,65.8116972,24.1739631,perinneladot.fi,Commerce
FI,62.839306,27.6438259,petosenapteekki.fi,Commerce
FI,60.246215,24.7468189,fckasiysiespoo.fi,Facility
FI,63.1142203,21.681464,ostajanonni.fi,Commerce
FI,60.1652406,24.732788,ellimadelli.fi,Commerce
FI,61.1725234,25.5496607,vaaksynautokoulu.fi,Facility
FI,60.2067496,25.1454165,vuosaarenapteekki.fi,Commerce
FI,64.1826906,26.9980736,mekapalvelu.fi,Commerce
FI,60.4178403,22.2201788,hirvensalongolf.fi,Facility
FI,60.1688053,24.9538283,valkoinensali.com,Facility
FI,61.499404,23.7568294,jonesbarber.fi,Facility
FI,60.334776,24.3168723,pisarayhdistys.fi,Commerce
FI,62.8871832,27.6905656,pohjois-savo.fi,Facility
FI,60.5073319,22.4576688,secondlieto.fi,Commerce
FI,60.2201423,24.8789648,harvamarketing.fi,Commerce
FI,61.1052197,24.8655924,onurpizzeria.fi,Facility
FI,62.9756107,27.7076988,kuopiontekniikka.fi,Commerce
FI,61.1081344,25.9103872,weckmansteel.fi,Commerce
FI,60.2242525,24.8592157,pizzeriaonline.fi,Facility
FI,60.1852411,24.9605326,mountainshop.fi,Commerce
FI,60.0873269,20.2709816,svinostugby.com,Facility
FI,60.250653,25.0904308,xn--rajakylpizza-kebab-rtb.fi,Facility
FI,62.413489,22.2258933,sotkanrinteet.fi,Facility
FI,62.9365172,22.5110153,asepajamvuorela.fi,Commerce
FI,60.2500237,24.0701709,lohjanhelluntaisrk.net,Facility
FI,63.1104361,21.6788628,mustasaari.fi,Facility
FI,60.1592035,24.9457957,kaunissaar.com,Commerce
FI,60.29312,24.2094942,humicenter.fi,Commerce
FI,60.9973409,24.4609866,hautaustoimistoprami.fi,Commerce
FI,62.5990328,29.7629557,taitokortteli.fi,Facility
FI,69.3992963,25.8505744,kalastajanmajatalo.fi,Facility
FI,60.4957749,22.2229833,turunautocenter.fi,Commerce
FI,65.3604906,26.9936979,pudasjarvenoptiikka.fi,Commerce
FI,61.7483384,22.0898958,myllykummunkurssikeskus.fi,Facility
FI,61.4926224,23.7455396,pyynikinlinna.fi,Facility
FI,60.5911664,21.9428837,koneurakointivallunen.fi,Commerce
FI,60.9969298,24.4637686,toriapteekki.fi,Commerce
FI,60.4106431,22.5111221,kavaltontila.com,Facility
FI,60.9076616,26.6250889,kuusaankahvikulma.fi,Facility
FI,60.2342328,24.8432837,pizzaexpresskonala.fi,Facility
FI,61.1234278,21.510949,olubrykiraum.fi,Commerce
FI,60.1663647,24.9324689,viinibaariapotek.fi,Facility
FI,60.4129911,22.5185595,gastronomics.fi,Facility
FI,60.1708748,24.9276255,villivanilja.fi,Facility
FI,62.8921196,27.6741324,puijonpyorapiste.fi,Commerce
FI,61.1763311,22.6984848,huittistenvapaaseurakunta.fi,Facility
FI,64.9443461,25.4496923,airporthotel.fi,Facility
FI,60.158441,24.9153254,kvarteretvictoria.fi,Commerce
FI,61.0064856,25.2803607,seurantalo.com,Facility
FI,62.7901975,22.8379288,mobilepartners.fi,Commerce
FI,60.1801409,24.9245922,runeberginkukka.fi,Commerce
FI,60.2121876,24.752345,administer.fi,Commerce
FI,60.5388095,22.2171495,ruskonkesateatteri.fi,Facility
FI,60.1667106,24.9444947,manhattansteakhouse.fi,Facility
FI,65.013945,25.4756511,cityescapegames.fi,Facility
FI,62.8802973,27.6610527,tilitoimistovahtivuori.fi,Commerce
FI,62.8001695,22.8432758,topparikaluste.fi,Commerce
FI,60.149643,19.8133173,svinryggen.ax,Facility
FI,60.4393347,22.2346466,hoivanurkka.fi,Facility
FI,61.48182,21.7983985,asema-apteekki.fi,Commerce
FI,60.5699394,27.1996511,kalajakonna.fi,Commerce
FI,61.4961546,23.7722986,beautystex.com,Facility
FI,62.298146,25.8142233,karjalaisen.fi,Commerce
FI,60.2591683,25.062788,arkadiahotel.fi,Facility
FI,65.0150862,25.4608087,boottiravintola.fi,Facility
FI,61.1865562,28.7797958,wakeparkimatra.com,Facility
FI,60.7537412,23.9150542,nahkurinverstas.fi,Facility
FI,60.2847578,24.1796453,lohjanmetallipaja.fi,Unknown
FI,61.4864962,23.7585371,tampereenvesijettivuokraus.fi,Commerce
FI,60.163951,24.9267499,konstanmolja.fi,Facility
FI,60.9849417,25.4915214,lahenmurre.fi,Facility
FI,62.0955814,30.1380944,kiteenkansanopisto.fi,Facility
FI,61.0452458,25.1892149,nikkarinmaatila.fi,Commerce
FI,60.1650454,24.9441968,chihuahuajulep.fi,Facility
FI,65.0031965,25.4712667,parturikampaamomaggi.fi,Facility
FI,61.5026877,23.7873485,laatupalkinto.com,Commerce
FI,61.452676,23.6300135,pirkkalanpyorahuolto.fi,Commerce
FI,60.1758493,24.8044675,kaisancafe.com,Facility
FI,63.5494836,27.248761,hartikainen.com,Commerce
FI,60.2473185,24.8617892,olutravintolamalmgård.fi,Facility
FI,61.3740544,25.2881039,mainiemicaravan.fi,Facility
FI,63.6817888,25.9748144,lahinpizza.fi,Facility
FI,60.0744748,23.6609749,karisbillnas.fi,Facility
FI,60.1895575,24.9517797,tanssitarvike.fi,Commerce
FI,60.1688314,24.9631752,taukodesign.fi,Commerce
FI,60.2422131,25.1985072,ratsastamaan.com,Facility
FI,60.2626737,24.8509125,liesikappeli.fi,Facility
FI,61.4862334,23.7584748,takonsoutajat.fi,Facility
FI,60.3981091,25.1109795,powercenter.fi,Facility
FI,61.046859,22.3487992,kahvilatauko.fi,Facility
FI,67.9557681,23.6802436,discovermuonio.fi,Commerce
FI,60.1640136,24.9372221,hevikivitalot.fi,Commerce
FI,60.2525683,24.8600322,fleastyling.fi,Commerce
FI,62.602556,29.7629686,nuortenjoensuu.fi,Facility
FI,61.6190871,21.4217336,siikarantacamping.fi,Facility
FI,60.8983547,26.9204926,skydivefinland.fi,Facility
FI,61.5134426,23.632409,nisu-nikkarit.net,Commerce
FI,61.0062687,25.6548707,lahdentiedepuisto.fi,Commerce
FI,60.0758228,20.1975328,stiftelsenhemmet.ax,Unknown
FI,61.1965909,28.7928432,vuoksenhovi.com,Unknown
FI,60.5520031,24.9685612,paraskaveri.fi,Commerce
FI,61.0365838,28.1026498,lappeenravit.fi,Facility
FI,62.8221389,22.8983035,autopurkaamo.fi,Commerce
FI,60.2934221,25.0318294,kauneusstudiogo.fi,Facility
FI,61.4607153,24.0717476,hotellikuohu.fi,Facility
FI,60.1580483,24.9438708,annettetillander.fi,Commerce
FI,60.212428,24.7493078,ravintolaknitter.fi,Facility
FI,60.4722333,25.0902769,jasminkauneushoitola.fi,Facility
FI,65.0119552,25.483662,indiancuisine.fi,Facility
FI,65.0295337,25.4375951,villahannala.fi,Facility
FI,60.452129,22.4051185,littoistentyovaentalo.fi,Facility
FI,61.8776479,28.8277321,savonapteekki.fi,Commerce
FI,67.4191389,26.5920519,jarjestokeskus.fi,Facility
FI,60.285402,25.330404,nestesipoonlahti.fi,Facility
FI,60.2202336,24.9401406,cobrasystems.fi,Commerce
FI,62.9678617,23.0170595,tjaccounting.fi,Commerce
FI,59.9245638,22.4099734,classickulta.com,Commerce
FI,60.4528199,22.2671603,kromistore.com,Commerce
FI,60.2445395,24.8971118,kaarelanmehuasema.com,Commerce
FI,64.2272648,27.7309255,kajaaninlukko.fi,Commerce
FI,61.8610612,21.5072725,ravintolasinihelmi.fi,Commerce
FI,62.328741,26.9034715,paltasenkahvilajakalastus.fi,Facility
FI,61.2088438,22.0849836,kiukaistenseurojentalo.fi,Facility
FI,60.099764,19.943076,bagarstugan.ax,Facility
FI,61.1301809,21.5026894,raumanlinna.fi,Facility
FI,61.4496425,23.8506874,studioalessi.fi,Facility
FI,60.1948913,24.9476769,clippanyhair.fi,Facility
FI,60.1793742,24.9468104,ravintolameripaviljonki.fi,Facility
FI,60.4664459,21.8400236,koylijarvi.fi,Commerce
FI,60.9796696,25.6571203,ravintolaararat.fi,Facility
FI,60.6347155,21.863303,hoitolatammilehto.fi,Facility
FI,61.5259623,23.6105759,combatjuju.com,Facility
FI,60.1830357,24.9452238,verstas247.fi,Commerce
FI,61.6073578,29.4915841,visitparikkala.fi,Commerce
FI,60.3765599,25.6510369,porvoonratsutalli.fi,Unknown
FI,62.5995075,29.7631865,nikolaijaatelot.fi,Commerce
FI,64.9854369,25.510617,nestehiironen.fi,Facility
FI,62.6057214,29.7991724,paivakotioskari.fi,Facility
FI,60.1033134,19.9396709,central-apoteket.ax,Commerce
FI,67.872792,24.9071425,levihuskypark.fi,Facility
FI,60.1745731,24.8140335,tapiolanminigolf.com,Facility
FI,61.6798179,24.3601845,orivedenhelluntaiseurakunta.fi,Facility
FI,60.1510271,24.6556082,pettinella.fi,Facility
FI,60.502517,22.458727,karvakorvat.com,Commerce
FI,60.268523,24.8786666,aldcarmarket.fi,Commerce
FI,60.2064427,24.6592224,espoonhautaus.fi,Commerce
FI,62.2991279,27.161179,kampaamoparis.com,Facility
FI,62.2870229,25.7636825,trio-keittiot.fi,Commerce
FI,61.495701,23.7665686,koskikeskuksenapteekki.fi,Commerce
FI,60.1607883,24.9380381,misawellnessspa.com,Facility
FI,65.3594091,26.9929771,pudasjarvenapteekki.fi,Commerce
FI,62.6035852,29.7395156,mikrovillus.fi,Commerce
FI,60.1717338,24.940702,steissinapteekki.fi,Commerce
FI,60.2217857,24.9045391,haaganpizzakebab.fi,Facility
FI,61.1900998,28.7754549,kalustekaakko.fi,Commerce
FI,60.9599306,25.6549855,apilaapteekki.fi,Commerce
FI,60.8164404,24.6292665,tervakoskenapteekki.fi,Commerce
FI,60.166709,24.9380037,fillarikellari.fi,Commerce
FI,65.0277446,25.4608744,tikintaika.com,Commerce
FI,60.9935713,24.4593903,apteekkitavastila.fi,Commerce
FI,60.4349851,22.2227079,kolmaslinja.fi,Facility
FI,60.3198162,24.2612114,autohuiput.fi,Commerce
FI,62.5143742,28.6437014,nestekarvionkanava.fi,Facility
FI,61.1765308,25.5338667,mahdollisuustoimisto.fi,Unknown
FI,60.9939015,24.462709,matinjamaijan.fi,Facility
FI,60.5293828,24.2352336,karkkilanvaraosa.fi,Commerce
FI,60.4137101,26.2534498,portofloviisa.fi,Commerce
FI,61.4989833,23.7556709,suolajavalkeus.fi,Commerce
FI,60.4729497,25.0888824,exitcenter.fi,Facility
FI,66.5520973,25.6593487,kivelaoutdoor.com,Commerce
FI,63.5326777,22.5418193,ostrocenter.fi,Commerce
FI,60.1609912,24.944356,feetandsoul.fi,Facility
FI,62.9237137,27.6825602,moventuras.com,Commerce
FI,60.2937247,19.6902123,harnasstugor.com,Facility
FI,67.9481054,23.9967306,tunturiporo.fi,Facility
FI,62.8922805,27.6927274,satamanhelmi.fi,Facility
FI,60.2071305,25.0549282,sahkopyorakeskus.fi,Commerce
FI,60.2073198,24.9686854,oljenkorsi.fi,Facility
FI,60.3946453,25.6641933,viaarmonia.fi,Facility
FI,61.5030366,23.7175644,pispalankirjasto.fi,Facility
FI,60.1827224,24.9635172,rautaranta.fi,Facility
FI,60.5849215,27.7096684,virolahdenapteekki.fi,Commerce
FI,60.3947071,25.6589959,hanna-maria.fi,Facility
FI,60.4438326,22.3117887,itaharjungrilli.fi,Facility
FI,63.2031033,28.0841252,nilsianapteekki.fi,Commerce
FI,60.1982256,24.8764194,puukioskimunkkiniemi.com,Facility
