country,lat,lon,website,place_type
BE,51.0545173,3.7233904,phosaigon-gent.be,Facility
BE,50.4171956,6.1125717,auxsaveursditalie.be,Facility
BE,51.3238215,4.5201317,mariaterheide.info,Facility
BE,50.9306159,5.3369307,hooghuis-hasselt.be,Facility
BE,49.8258143,5.0737009,letibouderefuge.be,Facility
BE,50.8420705,4.3686351,khunmaybrussels.com,Facility
BE,50.9285149,3.6606011,pittasnackgavere.be,Facility
BE,50.5590416,5.6377318,cape-white.com,Commerce
BE,50.7107485,4.6154506,rbassurances.be,Commerce
BE,51.1648463,4.1424015,theoldresto.be,Facility
BE,50.79206,5.2751114,johannietershuys.be,Facility
BE,51.0413473,3.7270732,dewereldvankina.be,Facility
BE,51.3970204,4.795291,apotheekswaenen.be,Commerce
BE,51.0108023,3.9000101,racingwetteren.be,Facility
BE,50.4503589,5.5668099,lerocherdelavierge.be,Facility
BE,50.4087344,4.2109444,dewildecombustibles.be,Commerce
BE,50.7649103,5.0351362,wonderwijsneerwinden.be,Facility
BE,50.7136524,4.2227264,tdagelijksgenot.be,Facility
BE,50.7972499,2.7487892,hetklassement.be,Facility
BE,50.9578876,3.981973,fietsengeertlede.be,Commerce
BE,50.9351244,4.0379211,tangspalace.be,Facility
BE,50.555582,5.4520071,houtesiplou.be,Commerce
BE,51.1348488,4.38945,adaartselaar.com,Commerce
BE,50.5718279,5.5356205,ddl-finances.be,Commerce
BE,50.6079465,3.3845019,hotelalcantara.be,Facility
BE,50.7981063,4.4176441,watermael-boitsfort.be,Facility
BE,50.8646081,3.1173174,bvbalauwers.be,Unknown
BE,51.0686745,3.749934,voetcenterpodologie.be,Facility
BE,51.2170069,4.4028877,sintlodewijkantwerpen.be,Facility
BE,50.9749835,4.887833,notarisboogaerts.net,Commerce
BE,50.6305782,3.7809831,hotelduparcath.com,Facility
BE,50.9080105,3.3742585,garagevanmelle.be,Commerce
BE,51.2159648,4.4191461,unitedpearl.com,Commerce
BE,51.0615731,4.8239368,vangoedenhuize.be,Facility
BE,50.9877891,5.1952912,kaarskesprocessie.be,Commerce
BE,50.947519,3.0989863,minidejonckheere.be,Commerce
BE,50.9960852,4.9205348,ezelboerderij.be,Commerce
BE,50.8985835,3.3841649,fruitlambrecht.be,Commerce
BE,51.1652516,4.6817617,bistrozoma.be,Facility
BE,50.9854554,3.8418575,dokterskwatrecht.be,Facility
BE,50.8955833,3.0668382,uitvaartzorg-geldhof.be,Commerce
BE,51.1020415,3.454425,rubbervloer.be,Commerce
BE,51.2970144,4.6944715,dreamteamjr.be,Commerce
BE,51.0772604,5.1547415,highdemandbrands.eu,Commerce
BE,51.3493078,4.8626926,carwashmerksplas.be,Commerce
BE,50.8712932,3.8101959,sushisakana.be,Facility
BE,50.8331198,2.9945616,deregenbooggeluveld.be,Facility
BE,50.6808111,4.3778284,librairielebaobab.com,Commerce
BE,50.9989415,5.0305914,praktijk49.be,Facility
BE,50.7979759,3.1304269,atypique-spa.com,Unknown
BE,51.1095886,5.0841475,k-kbetonwerken.be,Commerce
BE,50.5994692,3.6249019,cultureleuze.be,Facility
BE,50.8600517,4.3739931,hotel-bentley.com,Facility
BE,49.6194576,5.5837971,centrebuzenol.be,Facility
BE,50.8531182,2.7425252,worldkarts.com,Facility
BE,50.7445375,2.8217954,vbsnieuwkerke.be,Facility
BE,50.8207572,3.8527037,vdmpoorten.be,Commerce
BE,50.8216778,4.3966589,wetenschappelijkekring.be,Commerce
BE,51.2412817,5.4823617,saloon-rodeo.be,Facility
BE,50.9298591,5.3415672,boekhandelgrim.be,Commerce
BE,50.9427717,5.2990462,schakelschool.be,Facility
BE,50.9812132,4.2239195,vzwderoedel.be,Facility
BE,50.8850308,4.7180462,tsurusushi.be,Facility
BE,50.8766601,4.6828432,restauranttdagelijksbroodje.be,Facility
BE,51.3971327,4.7970569,van-calster.be,Unknown
BE,51.0317811,5.2786138,optimusvastgoed.be,Commerce
BE,51.0120695,3.6419439,sapporo-gent.be,Facility
BE,51.3615235,4.9674672,cozy-and-more.com,Commerce
BE,50.7145252,4.605369,planningwavre.be,Facility
BE,50.8787793,4.703607,huisvanhetkindleuven.be,Facility
BE,51.3129881,3.1158387,tegelsdelaere.be,Unknown
BE,50.4438863,3.9495439,ecolesndmessines.be,Facility
BE,51.2163415,4.4137773,the-final-touch.be,Commerce
BE,50.9953131,3.8806694,chirohermeline.be,Commerce
BE,50.9895031,4.7827846,healthyfoodtakeaway.be,Facility
BE,51.1555189,4.4454765,lune-lautre.com,Commerce
BE,51.0488565,4.0357994,huisartsenavermaat.be,Facility
BE,51.0372203,3.7117988,fewarestaurant.be,Facility
BE,50.1323691,5.7901872,brasserie-lerallye.be,Facility
BE,50.9201802,3.3356565,tmarmietje.com,Commerce
BE,51.1589813,3.1989675,destrooienhane.be,Facility
BE,50.8494614,4.3460691,atlas-hotel.be,Facility
BE,51.0478645,3.721714,curbskateshop.be,Unknown
BE,51.0728666,5.1537108,crowngeneral.be,Commerce
BE,51.0368656,3.7453756,debroederij.gent,Facility
BE,50.9839499,5.0452853,diestseturnkring.be,Unknown
BE,50.9493347,3.5770391,hoeve-slagerij.be,Commerce
BE,51.1386357,3.7321711,friethuisje.com,Facility
BE,50.9280111,3.0076764,hof-ter-roosebeke.be,Facility
BE,51.0179232,5.7420825,leefschooltalentenkiem.be,Facility
BE,50.7299618,4.0920987,wijnterlinden.be,Commerce
BE,50.0988837,4.9946458,healthyfactorycrossfit.com,Facility
BE,51.0380235,3.7485001,develowinkel.be,Commerce
BE,50.6350013,5.5623959,botaniqueliege.be,Unknown
BE,50.6209929,5.5737257,houseprint.be,Commerce
BE,50.8628073,5.196637,st-elisabethsdal.be,Facility
BE,50.9867205,4.8381084,oudstadhuis.com,Commerce
BE,51.2152723,3.2227174,bilderproductions.com,Facility
BE,51.0678389,4.9873167,bs-dewissel.be,Facility
BE,50.9876937,3.7466356,fotoaktief.be,Commerce
BE,49.8403068,5.7170793,frontabiere.be,Commerce
BE,51.4279434,4.4672813,bakkerijdemedts.be,Commerce
BE,50.8840393,3.0487048,kunstgrasdiscount.be,Unknown
BE,50.680295,4.2490986,greenbikes.be,Commerce
BE,51.0795106,5.2195494,mozaiekvastgoed.be,Commerce
BE,51.0532524,3.7324979,huisartsreep.be,Facility
BE,51.0759661,4.0949661,ikverkoopmijnauto.com,Commerce
BE,49.6847665,5.81116,vapeinthecity.be,Commerce
BE,50.65899,4.0942574,gitesdespres.be,Facility
BE,50.9987278,5.0798488,drukkerijatlanta.be,Commerce
BE,51.2227719,3.1984235,ptcrustenburg.be,Unknown
BE,51.240148,2.9644023,politiebredenedehaan.be,Facility
BE,50.9302958,3.6582488,focusoptiekgavere.be,Commerce
BE,51.1272003,5.0953784,autobedrijflievens.be,Commerce
BE,51.0677,5.0882031,lomak-expo.be,Facility
BE,51.2276244,4.52033,dierickx-comfortschoenen.be,Commerce
BE,51.1328663,4.5638599,heilighartlier.be,Facility
BE,51.1325747,5.4537,huiswascreemers.be,Unknown
BE,50.6890516,4.3804689,valleebailly.be,Facility
BE,51.3550707,4.7602409,krisvoeten.be,Commerce
BE,50.8466789,4.3123817,argattidegamond.be,Facility
BE,50.3527834,4.8913556,aumasdemont.be,Facility
BE,50.9960312,3.6338037,dirkvanrenterghem.be,Facility
BE,50.9491652,5.1126578,basisschool-halen.be,Facility
BE,50.9952251,3.6846806,bandenpeeters.be,Commerce
BE,50.4657763,5.3276439,gitecarpediem.be,Facility
BE,51.0014377,4.4877263,bikestories.be,Commerce
BE,51.0618419,4.8332754,gc-ijzermael.be,Facility
BE,50.8502421,2.8690119,hhartieper.be,Facility
BE,51.292155,4.5624397,ellenpeeters.be,Facility
BE,51.1393448,4.5979365,bistrovoldaan.be,Facility
BE,50.7109571,4.4007205,full-home-services.be,Commerce
BE,50.9471568,3.1224757,vyncke-daels.be,Commerce
BE,51.0672935,5.0917571,eenbeetjezot.be,Commerce
BE,50.742816,5.1427583,aanhettombos.be,Facility
BE,50.9059544,3.9997609,dekoepoort.be,Commerce
BE,50.4463901,6.0282629,bikepark-fermelibert.com,Facility
BE,50.9372552,3.6315219,fitcentergavere.be,Facility
BE,51.0368014,3.7421229,talloordor.be,Facility
BE,50.4460158,3.9551011,delicesdasie.be,Facility
BE,50.72075,4.3976094,restaurant-scarpetta.be,Facility
BE,50.9591866,3.7589057,deoesterzwamboerderij.be,Commerce
BE,51.0464891,4.7403241,damihoreca.be,Commerce
BE,51.1588159,4.4402444,plukjefruit.be,Commerce
BE,51.208554,4.3919913,restogustu.be,Facility
BE,51.0471031,3.6804843,urban-gardens.be,Facility
BE,51.0172374,4.9555123,apotheekpeeters.be,Commerce
BE,50.8069764,3.175124,elborsalino.be,Facility
BE,50.8875336,3.4241148,pur-sang-waregem.be,Commerce
BE,51.2176565,4.4115997,zest-juices.be,Facility
BE,51.1709094,3.167451,kasteeltudor.be,Facility
BE,50.7614201,5.605759,lacerisaie.be,Facility
BE,50.8391429,5.4280512,frituurdeloo.be,Facility
BE,51.2192539,4.4138407,brasserie-trianon.be,Facility
BE,50.9854787,3.5262595,optiekherpol.be,Commerce
BE,50.6668466,4.6104524,kapsurlavenir.be,Facility
BE,50.8892682,3.4299973,optiekverhamme.be,Commerce
BE,50.91351,4.7309396,brouwerijdevlier.be,Commerce
BE,51.0709356,3.7129415,trans-fair.be,Commerce
BE,51.2301229,4.4415337,lotto-arena.be,Facility
BE,50.4894278,3.9667956,cycles-georget.com,Commerce
BE,50.9830278,3.3414258,brouwerijdepoes.be,Commerce
BE,50.8322444,5.1011736,dezoemertjes.be,Facility
BE,51.2127015,3.2068987,puur-vastgoed.be,Commerce
BE,50.5981814,3.6072976,mahymobiles.be,Facility
BE,51.2077142,3.2261379,labelgiquegourmande.be,Commerce
BE,51.330422,3.2092574,zeescoutszeebrugge.be,Facility
BE,51.2799986,3.0524125,ibisdehaan.be,Facility
BE,51.2153608,3.2489893,wijzijnmia.be,Facility
BE,51.1695207,4.8657793,drukservice-impressa.be,Commerce
BE,51.0941282,4.026618,helioscreen-projects.be,Commerce
BE,50.5968875,4.3248464,wood-express.be,Commerce
BE,51.0729442,3.731432,gentsebouwmaterialen.be,Commerce
BE,50.9896122,3.6447541,verzekeringen-ws.be,Commerce
BE,49.9907382,5.7874893,garagenanni.be,Commerce
BE,51.1916315,5.0682427,dierenarts-peeters.be,Commerce
BE,50.5530433,4.724135,ecole-libre-lonzee.be,Facility
BE,51.0972839,2.5741355,superzeezicht.be,Facility
BE,50.8558588,4.3999831,mkmateriaux.be,Commerce
BE,51.3389605,4.9701792,bakkerijselis.be,Commerce
BE,50.614256,5.7567779,fermedusoleil.be,Unknown
BE,50.8404723,3.7228663,tholvanpluto.be,Facility
BE,51.0042267,4.2075813,academiebuggenhout.be,Facility
BE,50.4373122,6.0792599,sniper-zone.be,Unknown
BE,50.982629,5.0527437,apotheekdiest.be,Commerce
BE,51.1333813,4.4456673,goeminnemortsel.be,Commerce
BE,50.0258972,5.3716901,aliceetarmand.be,Facility
BE,51.0593877,4.8326237,fietscenterluc.be,Commerce
BE,51.078223,3.7022541,eriksfietsateljee.com,Commerce
BE,51.1533108,5.3932586,nova-zembla.be,Unknown
BE,51.0865374,5.0694985,tpnverzekeringen.be,Commerce
BE,50.7283448,5.9576068,lesdomsdalfred.be,Commerce
BE,51.0552841,3.7570201,bsdewijzeboom.be,Facility
BE,50.4671429,4.8495418,interface3namur.be,Facility
BE,50.7842658,4.3782736,noconceptstore.com,Commerce
BE,50.7622309,3.4862344,campingpanorama.be,Facility
BE,51.0619869,4.7269466,heylen-bouw.be,Commerce
BE,50.7461022,4.2425264,notariaatmuyshondt.be,Commerce
BE,50.7907194,5.6816906,montagnesaintpierre.org,Facility
BE,51.0324833,4.5141549,greenlifepro.be,Unknown
BE,51.1764131,4.3891326,carcity-antwerp.be,Commerce
BE,50.739043,4.2350566,middenschoolhalle.be,Facility
BE,51.1503244,5.8175035,debommesaar.be,Facility
BE,51.0377484,4.4,hoevewinkelthertsveld.be,Unknown
BE,51.0517847,3.7276234,bonamidoopsuiker.be,Commerce
BE,51.0367746,3.7259391,dekleineicarus.be,Facility
BE,50.4593217,3.9254665,hainaut-developpement.be,Facility
BE,51.060177,4.8350929,apotheekwestmeerbeek.be,Commerce
BE,50.8680113,3.4492566,mercuryflooring.com,Commerce
BE,51.0652816,4.0262369,speelpleinpietieterken.be,Unknown
BE,50.5135891,4.4203922,geminiacum.be,Unknown
BE,51.1529262,3.5993239,defrieterie.be,Facility
BE,50.7916226,3.1982248,dakwerkencamertijn.be,Unknown
BE,51.0564931,5.278295,weerstandkoersel.be,Facility
BE,50.6963519,4.469112,ecole-saint-joseph.be,Facility
BE,50.9988441,5.2470754,sintjanberchmansviversel.be,Facility
BE,51.022205,4.4834764,radarmechelen.be,Facility
BE,50.7666459,4.3080196,restaurantmiacucina.be,Facility
BE,51.2196396,4.4205955,fangshapje.be,Facility
BE,51.0464212,3.7163126,huisartsenpraktijkbijloke.be,Facility
BE,51.0133817,3.7516513,wijnhuisbollaert.be,Commerce
BE,50.4105303,5.7686286,campingchaletweekend.be,Facility
BE,51.1001119,4.2355052,olvpbornem.be,Facility
BE,50.7987696,4.2857251,leeuwsepadelclub.be,Facility
BE,51.0486044,4.1048961,tvlasbloempje.be,Facility
BE,50.821534,4.406085,jumblecompany.be,Commerce
BE,51.0860091,4.8370667,gbsheultje.be,Facility
BE,51.0544185,5.3774777,chiromeisjeshelchteren.be,Facility
BE,50.6883413,4.3804494,dynamic-club.be,Facility
BE,50.9207145,3.2160411,juwelendesolitair.be,Commerce
BE,51.0594861,4.8317836,slagerij-ysebaert.be,Commerce
BE,50.8465849,2.8889486,mainstreet-hotel.be,Facility
BE,50.779287,4.7188721,hausdorfer.be,Facility
BE,51.19137,3.2022932,pure-senses.be,Facility
BE,50.7929067,3.2051607,bnbculinair.be,Facility
BE,50.9596149,3.1177669,2wielershop.be,Commerce
BE,50.8367065,3.5883739,megatonoudenaarde.be,Commerce
BE,50.7464611,4.9806015,chateauhelecine.be,Facility
BE,50.4630838,4.863948,presidence.store,Commerce
BE,50.8209223,4.3681227,bangladesh-embassy.be,Facility
BE,51.0300797,4.2176717,capelderij.be,Facility
BE,51.3367916,4.3756213,marynen-janssens.be,Commerce
BE,50.7706591,4.536024,heidengrimaud.be,Commerce
BE,50.6427706,4.5591219,carrosseriedh.be,Commerce
BE,51.1356537,4.4460212,huisvanhetkindkontich.be,Facility
BE,50.9531108,5.0861308,degroene-goesting.be,Commerce
BE,51.3192663,3.1527535,verblijfparkdallas.be,Facility
BE,51.0620961,3.5749977,keurslagerdobbelaere.be,Commerce
BE,50.3504742,5.4931458,coiffattitude.be,Facility
BE,50.6466865,4.565183,bikeservicebw.be,Commerce
BE,51.0990105,3.8301236,slagerijstefan.be,Commerce
BE,51.2192192,4.4823321,spectrumschool.be,Facility
BE,51.106273,5.0411782,bkoblo-oosterlo.be,Facility
BE,50.8642392,4.9562842,hobbyfarm-glabbeek.be,Commerce
BE,51.2849365,4.5107507,akerne-orchids.com,Unknown
BE,51.1399032,4.7590421,doragonsushi.be,Facility
BE,51.1935142,4.4212876,dezoetelinde.be,Facility
BE,50.482002,4.9003908,carwashbougecenter.be,Commerce
BE,51.2113782,3.2206331,debottelier.be,Facility
BE,50.6990901,5.6257805,gemaco-piping.com,Commerce
BE,50.8941672,3.6585675,fietsenvandeputte.be,Commerce
BE,51.2347768,2.9205018,verhuringcandy.be,Facility
BE,50.5343656,5.2556389,autosphere-motors.be,Commerce
BE,49.8002099,5.5377216,lesplatsdumoustier.be,Facility
BE,50.980142,3.3599641,brasseriepoelberg.be,Facility
BE,50.7344049,4.2340279,skincenters.be,Facility
BE,50.4441584,3.821502,ecodm-delabascule.be,Commerce
BE,51.2225227,5.4982368,ksaroelandlille.be,Unknown
BE,51.1486809,5.3813433,rpt-matrijzenbouw.be,Unknown
BE,51.0236447,3.7195829,dezuidpoortgent.be,Facility
BE,51.3519594,4.3027776,seascoutskludde.be,Facility
BE,51.0449632,4.9275297,degraankorrel.be,Facility
BE,51.00616,3.625933,heinz-performance.com,Commerce
BE,51.08753,4.9071986,hetleerlabo.be,Facility
BE,50.9371611,3.0586857,kerckstede.be,Facility
BE,51.1623475,5.26752,kok-o-folie.be,Facility
BE,51.0502939,5.2224342,sportvibes-limburg.be,Facility
BE,51.1276865,2.6604691,surfschool.be,Facility
BE,50.9363698,3.7746295,eetcafecolumbus.be,Facility
BE,50.9193077,3.21072,hofvancommerce.be,Commerce
BE,50.8911294,5.30468,houbrechtsplastie-bouw.be,Commerce
BE,50.9726612,5.5200492,defleeketaer.be,Facility
BE,51.1323164,5.0839564,bs-deboomgaard.be,Facility
BE,50.9921234,3.1259301,hoeveterkerst.be,Facility
BE,50.8526028,4.3502237,houseofcompassion.be,Facility
BE,50.9503102,5.6510823,duivelsbergcircuit.be,Facility
BE,51.0210502,4.3170917,kampeerverblijfparkdiepvennen.be,Facility
BE,51.0667985,5.2157829,hoevekeberingen.be,Facility
BE,51.0229503,4.5462883,juwelierdelaet.be,Commerce
BE,51.2255465,5.3146489,autorijschoolflament.be,Facility
BE,51.2304936,4.4093212,hannekesnest.be,Facility
BE,51.2272322,4.405457,paloma-antwerp.be,Facility
BE,51.0773979,4.7274016,garagephilip.be,Commerce
BE,50.9498365,3.2890428,restaurantsymfonie.be,Facility
BE,51.0619168,5.1881477,onzegoesting.be,Commerce
BE,50.4133912,4.1669569,lappartbinchois.be,Facility
BE,50.5895036,4.3181017,taupegreenbelgique.be,Commerce
BE,51.3063138,4.4359762,basisschoolzilverenhoek.be,Facility
BE,51.0610969,4.8217414,scubarepair.be,Unknown
BE,51.0246023,4.4773735,broodjeszaak8283.be,Facility
BE,50.7927497,3.1270658,fourniercavos.be,Commerce
BE,51.2306983,5.308779,lektuurshopellen.be,Unknown
BE,50.9614592,4.7941287,moedermeule.net,Facility
BE,51.3184224,4.9802627,bloomfashionlifestyle.be,Unknown
BE,51.2520579,4.5006163,made-4-you.be,Commerce
BE,51.1942566,4.4203743,huisartsendepoort.be,Facility
BE,51.3046887,3.1229883,all-dog-grooming.be,Commerce
BE,51.1150596,5.3669233,praktijkdeduinen.be,Facility
BE,51.0436845,3.4757099,lomolenlogies.be,Facility
BE,50.9611074,3.1123924,fysxkinesitherapie.be,Facility
BE,51.0391899,4.4591245,maneblusser.city,Facility
BE,50.735785,5.7691085,bonnenfanttyberghein.be,Commerce
BE,51.0487481,3.7343643,capitolacademy.be,Facility
BE,50.9910899,4.8409281,bellocosiaarschot.com,Facility
BE,50.7933403,5.3998709,vakantiewoningdesingel.be,Facility
BE,50.3792303,4.3851189,club-immobilier.be,Commerce
BE,51.1527877,3.1986473,deloppemerie.be,Commerce
BE,51.1882017,4.4505581,parking-antwerp-airport.be,Facility
BE,51.0580199,5.2720528,eethuisesrakoersel.be,Facility
BE,51.2473325,5.1082345,stijnvanherck.be,Commerce
BE,50.9475429,4.7554952,chocoladesil.be,Commerce
BE,51.2348717,4.408312,timecircus.be,Facility
BE,51.2307402,4.5518355,ago-schilde.be,Facility
BE,51.0547847,3.7230904,dehuiskamer.gent,Commerce
BE,51.2008872,3.2101053,cultuurbibliotheek.be,Facility
BE,51.2224361,4.4540898,degroteverbinding.be,Unknown
BE,51.224286,2.961686,frituurmarieclaire.be,Facility
BE,51.0265288,3.7209806,orthomatton.be,Commerce
BE,51.072289,5.2830639,blueberryfields.be,Commerce
BE,50.9448392,4.6094048,passie-fleur.be,Commerce
BE,50.8292511,4.4414499,parcparmentier.be,Unknown
BE,51.0270924,4.9845632,kineosteo-snykers.be,Facility
BE,51.131041,4.389501,eethuistuba.be,Facility
BE,50.8566272,3.3588438,kvcdeerlijk1634.be,Facility
BE,50.8282376,3.2657645,antieknotredame.be,Commerce
BE,50.8829793,4.4579233,konicaminolta.be,Commerce
BE,50.9722895,3.530003,tleiefrietje.be,Facility
BE,50.5168604,4.965345,formation-canine.be,Facility
BE,50.6368377,5.5602637,saintgillespharma.be,Commerce
BE,51.1123001,5.0228836,mic-industrial.be,Unknown
BE,49.5599375,5.743271,ateliergaumais.be,Facility
BE,50.6295329,5.5897625,up-chenanven.be,Facility
BE,51.2677309,3.1810723,im-accountancy.be,Commerce
BE,51.2158175,4.365093,regattaclub.be,Facility
BE,50.7816866,5.4627217,restaurantmagis.be,Facility
BE,50.7332543,4.2319342,hotelhallensis.be,Facility
BE,51.1157539,4.5534387,natuurpuntdewielewaal.be,Facility
BE,51.1673781,5.3897441,winnerhoeve.be,Commerce
BE,51.2063341,4.3836447,everydaygallery.art,Facility
BE,50.8709286,4.7057849,kapsalon-eva-leuven.be,Facility
BE,51.0575823,4.6273152,vrijebasisschoolputte.be,Facility
BE,50.8615821,4.7147333,arend-architecten.be,Unknown
BE,51.1897457,2.9983839,kine-sanders.be,Facility
BE,51.0448772,4.1060945,doktervossaert.be,Facility
BE,50.4605464,3.9653827,raecmons44.be,Facility
BE,50.5991066,5.5110865,plaisirs-meubles.be,Commerce
BE,50.8894324,4.7200781,anastasia-schoonheidssalon.be,Facility
BE,50.9382694,3.4621538,fietsenkoda.be,Commerce
BE,50.7428998,3.687882,auchaudrondeslegendes.be,Facility
BE,51.0018798,3.8820024,cafeposthotel.be,Facility
BE,50.8680871,4.6983456,colorimage.be,Commerce
BE,50.2845078,6.2286437,ourgrundia.be,Facility
BE,51.1122356,4.3789376,vormkrijger.be,Commerce
BE,51.1065717,3.6125707,chiroluvand.com,Facility
BE,50.5033926,4.7123561,lfprinterparts.com,Commerce
BE,51.2228089,4.4047276,letterenhuis.be,Facility
BE,50.4666146,4.8639981,belleetchocolat.be,Commerce
BE,49.8704873,5.4605185,thiry-creation.be,Facility
BE,51.219832,4.4206115,baiweichineserestaurant.be,Facility
BE,51.0629743,5.208223,advocaatrowies.be,Commerce
BE,51.0501112,3.8354382,sterkerverder.be,Commerce
BE,51.2612817,4.5497537,huisdewinter.be,Commerce
BE,51.0502348,3.7101423,walrus-gent.be,Facility
BE,50.6083045,3.3876559,legraindesabletournai.be,Facility
BE,50.9835551,5.0516786,coolensjuwelen.be,Commerce
BE,50.766841,3.8867762,restaurantzicht.be,Facility
BE,50.7944152,3.5858946,hofterheidje.be,Facility
BE,50.5980881,4.329067,stores-brabant-wallon.be,Commerce
BE,51.2051057,4.4490129,franciscusschool.be,Facility
BE,50.9807217,3.5486829,deco-vision.be,Commerce
BE,51.0112369,3.7616962,praktijkdemerel.be,Facility
BE,50.4650844,3.9248389,rugbyclubmons.com,Facility
BE,50.6358175,5.567512,smartwork-liege.be,Commerce
BE,51.2226388,2.8960701,sushioostende.be,Facility
BE,50.9201933,4.1618281,dierenartsdewandeler.be,Commerce
BE,51.0414329,5.1696919,bostonterrierpaalsedreamdogs.be,Commerce
BE,51.3293957,4.5289676,hetwachthuisje.be,Facility
BE,50.9596057,3.5985003,passiefruitnazareth.be,Commerce
BE,50.6566375,4.6283002,aerospacelab.be,Commerce
BE,50.5919723,4.3159239,promo-sport.be,Facility
BE,51.2308929,5.3084394,hetglazenhuis.be,Facility
BE,49.843038,5.0159929,lapetiteetable.be,Facility
BE,51.0667701,5.2198031,ktcberingen.be,Facility
BE,51.3092161,3.1366599,doktervileyn.be,Facility
BE,51.1788521,4.1418383,amber-buurtwinkel.be,Commerce
BE,50.9328958,3.9694132,garagevandersijpe.be,Commerce
BE,51.1046678,5.0021874,stelaeindhout.be,Facility
BE,51.2261682,2.9238586,bistrodesbelges.be,Facility
BE,51.0846264,3.4521481,fietsenjohanwille.be,Commerce
BE,51.0045601,3.6236207,lambrechtwijnen.be,Commerce
BE,50.9724442,3.1180503,lesdelicesderosie.com,Commerce
BE,50.8445307,3.6036437,vitalifestyle.be,Commerce
BE,50.7188705,4.6131773,laplanchedailleurs.be,Facility
BE,50.3419834,4.8399317,pelletsannevoie.be,Unknown
BE,51.2142848,4.4367818,vizi-borgerhout.be,Commerce
BE,51.1326857,5.0779365,pressnfood.be,Unknown
BE,50.6162247,4.303745,fermedesoliviers.com,Facility
BE,50.9145742,4.4889611,cycle-passion.be,Commerce
BE,50.4869587,4.4512005,trentaquattro.be,Facility
BE,51.0258317,4.5363711,vitalisthuisverpleging.be,Facility
BE,51.237858,5.3627122,deklimtorenlommel.be,Facility
BE,50.8141169,5.2336149,kasteelvanordingen.be,Facility
BE,50.8633839,5.2926987,geertvanbrabant.be,Commerce
BE,50.7677348,3.3994499,alainschildert.be,Unknown
BE,51.1608499,4.490093,vpkbboechout.be,Facility
BE,50.0274361,4.155114,belgium-ladbrokes.be,Unknown
BE,51.1241699,4.3733487,alterego-decor.be,Commerce
BE,50.8625922,4.3813247,cote-gourmand.be,Facility
BE,51.2416886,2.9441828,vandekerckhove-smets.be,Facility
BE,51.2522268,4.5104413,fietsenleten.be,Commerce
BE,51.2232128,3.1922209,ocmw-brugge.be,Facility
BE,51.0023223,3.6903764,demeulemeester.gent,Unknown
BE,51.2417448,2.9590847,heemkringtercuere.be,Facility
BE,51.087429,4.3635077,notarissenboom.be,Commerce
BE,51.2299241,2.9235602,hoteldubassin.be,Facility
BE,51.2049332,2.8744851,aviapartner.aero,Commerce
BE,50.4797515,5.705009,cyclesmatagne.bike,Commerce
BE,51.0388148,5.1716026,decoratie-degraal.be,Commerce
BE,50.8894375,5.3979051,lambrichts-voeders.be,Commerce
BE,51.1026715,5.1490501,bsdeklimop.be,Facility
BE,50.5966231,5.8777231,eco-residence.be,Commerce
BE,51.0269641,5.2683682,vinoascanio.be,Commerce
BE,51.1603274,3.1920473,garagemaene.be,Commerce
BE,51.0289438,4.4776363,hetkunstuur.com,Facility
BE,50.6650541,4.5679462,pharmaciecoeurdeville.be,Commerce
BE,51.1024941,4.5701865,gebroeders-vercammen.be,Commerce
BE,50.6296699,5.5584795,saint-francois-de-sales.be,Facility
BE,50.7782766,2.8125456,kemmelberg.be,Facility
BE,51.3305895,4.3919865,kapeldeheuvels.com,Facility
BE,50.9455953,3.8066036,delicatessenchantal.be,Facility
BE,50.7351782,4.229815,frietstophalle.be,Facility
BE,50.2294146,5.0074789,cocotte-restaurant.be,Facility
BE,51.0620713,3.7274931,gulbensbeautyclub.com,Facility
BE,51.059563,5.2706066,kine-braet.be,Facility
BE,50.792862,4.3592249,sequoiashop.com,Commerce
BE,51.0407986,3.692506,barqueajack.be,Facility
BE,51.0395453,3.7163387,notariaat14.be,Commerce
BE,50.9646102,3.9654596,scoutslede.be,Facility
BE,50.0014045,5.7152244,brasserieardennaisebastogne.be,Facility
BE,50.9981158,3.6084308,isaura-eethuis.be,Facility
BE,50.7660495,4.4646631,filipsport.com,Commerce
BE,50.2802278,6.1260241,hausmarquet.be,Facility
BE,51.2778325,3.0295871,tearoommano.be,Facility
BE,51.13442,5.4613806,agnetencollege.be,Facility
BE,51.1311178,5.4528112,agnetenpark.be,Facility
BE,51.2687557,3.0249594,casa-querida.be,Facility
BE,50.7998628,3.2722668,vandenbusschenv.be,Commerce
BE,50.6408917,5.5703465,tandoori-liege.be,Facility
BE,51.0951517,3.8277841,newcitygarden.be,Facility
BE,51.2037087,3.2150362,charlies-chips.be,Facility
BE,50.9279601,4.4273254,degrandbazaar.be,Commerce
BE,50.5360866,5.2549773,brasserieduport.be,Facility
BE,51.1788123,3.7486543,bakkerbekaert.be,Commerce
BE,50.909187,5.1818832,praktijk-motus.be,Facility
BE,50.8538188,2.7268459,dekeiwijzer.be,Facility
BE,50.4648132,4.8636208,les-enfants-dabord.be,Facility
BE,51.2011402,3.2460945,parrilla-grill.be,Facility
BE,50.3762976,5.5893918,bosviooltje.be,Facility
BE,51.2232856,3.1898596,hoorexpertdekade.be,Facility
BE,50.8565676,5.2090235,kasteelnieuwenhoven.be,Facility
BE,51.0338763,5.053133,boonsarchitecten.be,Unknown
BE,50.8193393,4.3221521,beth-hillel.org,Facility
BE,50.6883577,4.3152538,megabike-store.be,Commerce
BE,51.0380049,3.397698,advocaatdedeurwaerdere.be,Commerce
BE,51.0000859,3.6569801,tuinendemullier.be,Unknown
BE,51.186792,5.1161979,casafraquelli.be,Facility
BE,51.096248,3.8322165,picasso-lochristi.be,Facility
BE,50.2643398,5.0586425,wtsnamur-man.be,Commerce
BE,51.0319999,5.2288682,gijbels-glas.be,Commerce
BE,50.8576312,4.3870666,arcadiabelgium.be,Commerce
BE,50.5994337,4.3295333,sameloalabouche.be,Facility
BE,51.3036119,4.5671108,apotheeksintjob.be,Commerce
BE,50.9419809,5.6755992,basisschoolopgrimbie.be,Facility
BE,51.109439,4.008951,wimannerel.be,Commerce
BE,50.3513774,5.453445,lafermeauchene.be,Facility
BE,49.9248473,5.3812507,lexpress-leo.com,Commerce
BE,51.1047222,5.8170119,sportaspots.be,Facility
BE,51.0036,4.3547,weerstationkapelleopdenbos.be,Facility
BE,50.790909,3.2011066,cycliimola.be,Commerce
BE,51.4651942,4.4616605,au3fashion.be,Commerce
BE,50.8465162,5.4882207,apotheekjorissen.be,Commerce
BE,50.7296839,4.2290324,boschcarserviceledermann.be,Commerce
BE,50.8429068,3.6085885,gijselinckoudenaarde.be,Commerce
BE,51.1460836,5.7420008,optiekstaeren.be,Commerce
BE,51.0623176,4.0546773,zelenachten.be,Facility
BE,51.03179,4.5771238,dog-hetkeffertje.be,Facility
BE,50.9221635,3.1593586,derrysfrituur.be,Facility
BE,51.079404,5.0794844,blackwhite.be,Facility
BE,51.2456217,3.6031818,alainsport.be,Commerce
BE,51.0276474,4.4827603,abvvmechelenkempen.be,Unknown
BE,51.205026,3.7760483,stockvandewalle.be,Commerce
BE,51.0615544,5.2171563,vibosintbarbara.be,Facility
BE,51.3000038,4.4093162,dendeugeniet.be,Unknown
BE,50.6292427,3.7748893,saintfrancoisath.be,Facility
BE,50.7370103,2.8804366,plugstreet1418.be,Facility
BE,50.7813722,4.5140369,krishna-restaurant.be,Facility
BE,50.0516197,4.4949109,ph-aminformatique.com,Commerce
BE,51.2472511,2.9708762,park-merlo.be,Facility
BE,50.9208391,3.8528731,schoenenmaggy.be,Commerce
BE,50.7383605,3.9169089,kerkingeraardsbergen.be,Facility
BE,50.6447961,4.6450108,enjoy-coiffure.be,Facility
BE,51.1879748,4.3982445,scaldis-korfbal.be,Facility
BE,49.9930182,5.151171,giteaupredury.be,Facility
BE,50.7427926,3.5938441,huyghemachiningagency.be,Facility
BE,51.2211678,5.2109195,bakkerijtrauw.be,Commerce
BE,50.3612472,6.1283703,zumgoldhahn.be,Facility
BE,50.8795544,4.699928,subtile-shop.be,Commerce
BE,50.683833,4.69635,solufinance.be,Commerce
BE,51.0553824,3.7212633,pontenplas.be,Commerce
BE,50.8424106,4.0853981,imi-secundair.be,Facility
BE,51.0500296,5.1500244,dewittemerel.com,Facility
BE,50.9928336,4.5563186,kringeling.be,Facility
BE,50.9299166,5.3420095,hetstadsmus.be,Facility
BE,50.9413333,3.212405,kleinetovenaar.be,Facility
BE,51.2180964,4.4003774,driesvannoten.be,Commerce
BE,51.1724635,5.7408937,keijersmolen.be,Facility
BE,51.2289709,3.749014,dekinderkopjes.be,Facility
BE,50.9686724,5.6989645,campusdehelix.be,Facility
BE,51.1899679,4.3789991,noureenmodestfashion.com,Commerce
BE,51.0887656,3.9950361,bokmolenhoeve.be,Facility
BE,50.699173,4.3613494,behomepartners.be,Commerce
BE,50.883195,3.4391633,ruitersweelde.be,Commerce
BE,51.019275,3.6389996,thai-at-home.com,Facility
BE,51.162209,4.7321751,hetpaardenhof.be,Facility
BE,50.352849,4.3639919,villa-fazzi.be,Facility
BE,51.2569002,4.4825615,marnixschool.be,Facility
BE,50.6083998,3.3873883,bioflamingo.be,Commerce
BE,49.5672014,5.8026328,notairepeiffer.be,Commerce
BE,50.7641951,5.7877459,molenhoeve.be,Facility
BE,50.9358033,3.3944314,exidscarecrow.be,Commerce
BE,51.0430489,5.1942809,dierenartseveraerts.be,Commerce
BE,50.4093125,4.1659124,museedumasque.be,Facility
BE,49.563988,5.8156043,groupearcade.be,Commerce
BE,50.7956448,3.1852922,kinepuntlauwe.be,Commerce
BE,50.9962215,3.3259077,minne-vercruysse.be,Commerce
BE,51.2971925,4.6879713,rijwielenhermans.be,Commerce
BE,51.2163838,3.2459797,scoutsdonbosco.be,Facility
BE,51.035214,4.4688816,coresdevelopment.be,Commerce
BE,51.2634652,4.5549859,devos-interieur.be,Commerce
BE,51.0979108,3.0235336,sensbehang.be,Commerce
BE,51.1281923,4.4732078,geboortepraktijk.be,Unknown
BE,51.3164541,4.9490198,talententhuisturnhout.be,Facility
BE,50.873374,2.9866079,traiteurbruno.be,Commerce
BE,50.8223966,4.8903111,preud-homme.be,Commerce
BE,50.6444886,5.5733071,galeries-st-lambert.be,Unknown
BE,50.7817202,5.4179361,fritendinges.be,Facility
BE,50.6857135,4.37548,credit2000.be,Commerce
BE,50.9585322,3.6106523,bloemenoase.com,Commerce
BE,50.7656378,4.2999081,toerismebeersel.be,Facility
BE,51.2630117,4.5573501,crea-accent.be,Unknown
BE,50.4501742,4.893323,jeffscroquettesstore.be,Commerce
BE,51.0234684,3.0452594,cafmeyernv.be,Commerce
BE,51.3465625,4.6790177,vanopstal-vanboxel.be,Commerce
BE,51.2192975,4.2785584,dinomarket.be,Commerce
BE,50.8755619,4.7090059,lemustache.be,Facility
BE,51.2324543,4.5552496,veldvennelan.be,Unknown
BE,50.2704292,5.108786,hotedardenne.be,Facility
BE,49.7288154,5.6485531,jeanlechocolatier.be,Commerce
BE,50.6745814,5.8390135,lesfinesgueules.be,Facility
BE,51.218248,4.4005204,meltingpotkilo.com,Commerce
BE,50.9777493,3.6940811,vbszevergem.be,Facility
BE,51.0668626,5.1057708,looisebandencentrale.be,Commerce
BE,50.9801958,5.052998,fiscoconsult.be,Commerce
BE,51.0533513,3.724412,vanbignoot.be,Commerce
BE,50.9423091,3.073974,salontorsi.be,Facility
BE,50.8012216,5.3450084,sint-odulphuskerk.be,Facility
BE,50.8133935,4.354467,lasagneria.be,Facility
BE,51.3154878,3.1279459,witte-paard.be,Facility
BE,51.0402617,5.1711513,sound-station.be,Commerce
BE,50.0290586,5.516426,maison-jules.be,Facility
BE,51.2413887,4.5850563,kaasmeester.com,Commerce
BE,50.0426603,4.2985095,lejardindufeuillet.be,Facility
BE,51.4348397,4.9329191,jespersbvba.be,Commerce
BE,51.130834,5.4462489,lunocollaltro.be,Facility
BE,51.0265789,3.7945989,plukboerderijgrondig.be,Commerce
BE,51.0847686,3.7935886,tuincentrumvaneeckhaut.be,Commerce
BE,51.0241373,3.7106599,geografica.be,Facility
BE,51.216014,4.4197779,juwelentopaze.com,Commerce
BE,51.2016557,3.2247795,ladentelliere.be,Facility
BE,51.0545961,5.2177996,mega-locks.be,Commerce
BE,50.6706157,4.6125183,agence-equerre.be,Commerce
BE,51.2144509,3.2197822,brugge-despringplank.be,Facility
BE,51.1567761,5.3927876,fietsboetiek.com,Commerce
BE,50.5437661,5.525949,traiteur-simonis.be,Commerce
BE,50.607258,3.3857961,lefortrouge.be,Facility
BE,51.0468557,3.7221156,lederreyne.com,Commerce
BE,51.2193322,4.3989282,lam-en-yin.be,Facility
BE,51.2316782,5.3141474,xpluslommel.be,Facility
BE,50.1693107,5.5494186,chateaubeausaint.be,Facility
BE,51.2099547,5.4199161,meubeleneijssen.be,Commerce
BE,50.8725396,4.7024982,vantsestich.be,Facility
BE,51.0703962,2.6664721,westhoekmarina.be,Facility
BE,51.0019157,4.6452881,kinekeerbergen.be,Facility
BE,50.7354416,4.2365418,atelierboerinneke.com,Commerce
BE,50.660985,5.6231842,planningfamilialherstal.be,Unknown
BE,50.8225341,3.8928691,pelletkachels-vanroy.be,Commerce
BE,50.8849972,5.3124894,alksmattijske.be,Facility
BE,51.4482589,4.7378255,attractieverhuursnoeys.be,Facility
BE,50.8355309,4.8358865,magazijndesnoek.be,Facility
BE,50.6674267,4.7356398,altitude150.be,Commerce
BE,51.2194929,4.6137492,stalteater.be,Facility
BE,50.9663702,3.348681,evalauwers.be,Facility
BE,50.6264027,5.6042011,orthocentre.be,Facility
BE,50.3977012,4.4455337,assurances-durant.be,Commerce
BE,50.2152917,4.3739411,laruchette.be,Facility
BE,50.9523198,3.2829957,hondenenkattenverzorging.be,Commerce
BE,51.1787935,4.31298,pachtgoedhof.be,Facility
BE,50.7248826,4.8680102,lightsinthecity.be,Facility
BE,50.9758606,3.662653,ducatigent.be,Commerce
BE,50.9351972,4.329259,bakkerijseynaeve.be,Commerce
BE,50.6007424,4.3290572,notaire-odin.be,Commerce
BE,51.0293992,4.9793646,bakkerijvangompel.be,Commerce
BE,50.003507,5.2067072,eurospacecenter.be,Facility
BE,51.0233137,3.6217423,huyzewaterloos.be,Facility
BE,50.9004355,3.4445773,dapdrogenboom.be,Commerce
BE,51.2041737,4.9833477,podologischcentrumkempen.be,Facility
BE,50.8394447,4.3539842,howardsbrussels.com,Commerce
BE,50.9410724,4.7418543,kloosterhoeve.be,Facility
BE,49.7921066,5.0658033,houseofbouillon.be,Facility
BE,50.7302524,4.233453,mirodasilva.be,Commerce
BE,49.8410116,5.4348769,neoscorner.be,Facility
BE,49.9080738,5.7267496,pretty-things.be,Commerce
BE,51.080688,5.1962313,vangoedeaard.be,Commerce
BE,50.7927624,3.6752686,moederstiene.be,Facility
BE,50.8782108,4.69896,palmyra-restaurant.com,Facility
BE,51.2432285,3.023139,garagecarbonez.be,Commerce
BE,51.0480026,5.2221933,softplantbased.be,Facility
BE,50.87811,3.4295507,duitseherderswaregem.be,Unknown
BE,50.6856291,4.3753991,saigonbistro.be,Facility
BE,51.0561778,3.714932,blauwkasteel.be,Commerce
BE,50.6371522,5.5930391,navettefluviale.be,Facility
BE,50.8119295,5.2615361,sofie-houseofbeauty.be,Facility
BE,51.3557223,4.640776,renaultbrecht.be,Commerce
BE,51.0663937,5.0876834,silhouette.be,Commerce
BE,50.4265971,3.9247979,alamalogne.com,Facility
BE,50.9780673,4.943087,dianasfashion.be,Commerce
BE,51.0957657,3.7842643,degentsezuivelhoeve.be,Unknown
BE,50.727154,4.3185031,destelheide.be,Facility
BE,50.715233,4.609778,librairieclaudine.be,Commerce
BE,51.0315303,4.4143279,apotheek-leest.be,Commerce
BE,50.836474,4.3081322,erasmushouse.museum,Facility
BE,51.2380194,4.2973494,isec-online.be,Commerce
BE,51.2165003,3.2199721,depatiovzw.be,Facility
BE,50.6077394,3.3885226,nails-concept.be,Facility
BE,50.5824589,5.0111923,lacabriole.be,Facility
BE,50.931067,4.0972885,dekluizerij.be,Facility
BE,50.969557,3.1878441,laadpunt-ghesquiere.be,Facility
BE,50.8024022,4.8738871,restaurantdewaterval.be,Facility
BE,50.7922486,3.1844453,sportlauwers.be,Commerce
BE,50.5744774,4.7032223,mi12funcenter.be,Facility
BE,50.8495492,3.5987051,hobbykiekeboe.be,Facility
BE,51.0534546,3.7244115,deduytschaever.be,Commerce
BE,51.1764902,4.855984,veloshopherentals.be,Commerce
BE,51.1245064,5.2619734,paintballhappening.be,Facility
BE,50.9917018,3.6488409,bakkerijhanssens.be,Commerce
BE,50.7234236,4.8713895,assurancesdubrabant.be,Commerce
BE,50.8806274,4.7119841,pepperminds.be,Commerce
BE,50.3879532,5.2379244,lecomtefossion.be,Unknown
BE,51.1493544,4.3397876,fusionhemiksem.be,Facility
BE,51.0614383,3.7489293,dienstvoorlogopedie.be,Unknown
BE,50.8318026,4.8622828,vandenbeck.com,Commerce
BE,50.9544153,3.6414535,huisartsenpraktijkdenhert.be,Facility
BE,51.0951918,5.7913752,museamaaseik.be,Facility
BE,50.8858381,4.7189491,moedertje-natuur.be,Commerce
BE,51.0766839,4.2960815,keukensmasure.be,Commerce
BE,51.2129128,3.2301938,cafevlissinghe.be,Facility
BE,50.9030191,5.677788,fillingstation.be,Facility
BE,51.1959559,4.9122615,derietbeemden.be,Facility
BE,50.8733305,4.3463227,nekkersdal.be,Facility
BE,51.3039215,4.9011807,ltm-betonvloeren.be,Commerce
BE,51.0236304,3.7194702,aanloophuispocoloco.be,Facility
BE,50.6221807,5.5912451,fromageriedesvennes.be,Commerce
BE,51.1448151,5.7416038,favo-frietje.be,Facility
BE,50.8696392,4.9885802,schoonheidssalonilse.be,Facility
BE,50.8749487,5.0392591,huisartsenransberg.be,Facility
BE,51.1169161,4.66537,kloosterhofberlaar.be,Facility
BE,50.9314933,3.620185,pk-interieur.be,Unknown
BE,50.4671465,4.8622921,notaire-duchateau.be,Commerce
BE,50.531744,3.4966966,tournai-air-club.eu,Facility
BE,51.0833021,4.8037599,sportbarhulshout.be,Facility
BE,50.9967803,3.3212244,tomhoornaert.be,Commerce
BE,50.7582162,5.7603854,restaurantmostar.be,Facility
BE,51.0531138,4.7815472,petcomfort.be,Commerce
BE,51.0128382,4.70865,brasserie-gusting.be,Facility
BE,50.6153219,3.8046791,vincentdepaulath.eu,Unknown
BE,51.0361312,5.2269054,metaalwerken-lemmens.be,Unknown
BE,50.9176878,5.2458484,martensbouwmaterialen.be,Commerce
BE,51.2099749,3.2244826,apotheeksoete.be,Commerce
BE,51.124622,4.5515884,labaraquelier.be,Facility
BE,50.4788788,5.5720585,hacf-comblain.be,Facility
BE,51.2975722,4.6878884,pizzeriabuongusto.be,Facility
BE,50.7390972,4.2311796,mishrasplayground.be,Commerce
BE,50.6449251,5.5726733,objetstrouvesliege.be,Unknown
BE,50.7235832,4.8708082,verte-vallee.be,Commerce
BE,50.8893544,3.4299149,bottinneclothing.be,Commerce
BE,50.958185,3.1179258,glacespoland.be,Commerce
BE,50.4506265,5.2825287,lalimonaderie.be,Facility
BE,50.6345036,3.5099991,thimougies.eu,Facility
BE,51.0517871,4.8813054,delensbowling.be,Facility
BE,51.1405817,3.4579375,aeroclub-brugge.be,Facility
BE,50.6039732,5.3438972,verachtertboissons.be,Commerce
BE,50.909181,4.3860786,livingtomorrow.com,Facility
BE,50.7322257,4.2393345,mags-burgers-online.be,Facility
BE,50.4624387,4.8644877,luluetmauricette.com,Commerce
BE,51.2224361,4.402477,bikeproject.be,Commerce
BE,50.9770057,4.6362898,passoperpasso.be,Commerce
BE,50.9483084,5.1149073,apotheekcentrum.be,Commerce
BE,51.0196089,5.7449661,academiedilsenstokkem.be,Facility
BE,51.045276,4.0917273,selftechnics.be,Commerce
BE,51.0238789,3.7500818,adventurecars.be,Commerce
BE,51.0281216,3.5186691,jandewitte.be,Commerce
BE,51.1616824,4.9654296,bistrodoffice.eu,Facility
BE,50.8810173,4.7131888,hoboreizen.be,Commerce
BE,50.7163836,6.0105549,parkhotelkelmis.be,Facility
BE,50.9730199,4.0058946,chalomthai.com,Facility
BE,51.0527588,3.724318,blackraptortattoo.com,Facility
BE,51.3416323,4.3867954,deglashoeve.be,Facility
BE,51.0597803,3.7034111,wgcbrugsepoort.be,Facility
BE,51.2395193,4.5802053,dedrijlindekens.be,Facility
BE,50.9906722,5.0409871,belgianbeautyclinic.com,Facility
BE,51.0793604,5.218775,mijnnotarissen.be,Commerce
BE,50.7351208,4.2336282,avafietsen.be,Commerce
BE,50.1514947,5.1150351,les2sources.be,Facility
BE,50.9874535,5.4924485,sintmichielsschool.be,Facility
BE,51.0527184,3.7246395,chocolaterie-vandenbouhede.be,Commerce
BE,50.8865175,4.7058263,lifeexpertcentre.be,Facility
BE,51.1006824,2.592036,northsea-online.be,Commerce
BE,50.8366765,4.3556553,restaurantjb.com,Facility
BE,51.0379062,3.726562,levelupgent.com,Facility
BE,50.6011197,5.4987139,maquetsoudage.be,Commerce
BE,50.8047372,5.2135371,wittendorp.be,Commerce
BE,51.0681829,5.0056617,maekelhoeve.be,Facility
BE,51.2487096,4.4360975,hetlaerhof.be,Facility
BE,50.9642175,3.3034408,feestzaal-amuse.be,Facility
BE,50.9293785,5.3332456,ilmazzolino.be,Commerce
BE,51.0276216,3.7228236,colombeendanny.be,Facility
BE,51.1179137,4.3711676,brandsonly.be,Commerce
BE,50.3164667,4.7500971,espritpizza.be,Facility
BE,51.155724,3.1947573,haaratelier-claeys.be,Facility
BE,51.2117729,3.2234571,comptoirdesarts.be,Facility
BE,50.4544212,4.7116009,glasspartners.com,Commerce
BE,51.3404648,4.742004,mietracteur.eu,Facility
BE,50.4323535,6.0285194,intermills.be,Facility
BE,51.2489933,5.0605121,invlaanderen.be,Commerce
BE,50.8518328,2.8895265,starnoldus.be,Facility
BE,50.5989835,5.3446856,unpainenavant.com,Commerce
BE,50.9062087,4.7107962,dvs-entertainment.be,Unknown
BE,50.5398811,4.7304303,cieldechine.com,Facility
BE,50.4125231,4.1659986,shanghaiexpressbinche.be,Facility
BE,51.1454135,4.9995635,geelsautoverhuur.be,Commerce
BE,51.2120781,4.4587928,bulkarchitecten.be,Unknown
BE,51.2187395,4.4218488,medinaburger.be,Facility
BE,50.4335755,3.888784,mons-placard.be,Commerce
BE,51.2326744,4.5558838,scoutsschilde.be,Facility
BE,51.2087506,3.2212909,merveilleux.eu,Facility
BE,50.6045434,3.3715515,ideal-volet.be,Commerce
BE,49.5630174,5.8304206,thebrothers-store.com,Commerce
BE,50.6646604,4.3457054,ecole-anne-marie.be,Facility
BE,50.7934141,3.1682094,lauwes-kersthuisje.be,Facility
BE,50.4298716,3.9955553,barrierebowling.be,Facility
BE,50.5015685,4.1018461,oborddeleau.be,Facility
BE,51.1402373,5.6012994,huis-aerts.be,Commerce
BE,50.6971125,5.9451025,porcs-amarelles.be,Commerce
BE,50.909928,3.9894609,apotheekdefre.be,Commerce
BE,50.7327503,4.2320428,knapzak-halle.be,Facility
BE,51.2299396,3.2355635,chirosintjozef.com,Commerce
BE,50.8055669,3.2364875,kostbar-marke.be,Facility
BE,49.6838458,5.8155129,ventsdusud.be,Commerce
BE,50.9929764,3.653859,hetaccountantskantoor.be,Commerce
BE,51.1133892,4.6483882,balderschool.be,Facility
BE,50.7904308,3.1703174,bouw-renovatie.be,Commerce
BE,51.0003783,3.6118172,fietsengodefroot.be,Commerce
BE,50.6895662,5.6195838,pelzergroup.be,Commerce
BE,51.2197736,4.401682,eetcafeklokske.be,Facility
BE,51.0682703,3.6857222,siamthaifoodhouse.be,Facility
BE,50.9015274,4.8880295,carmenbeauty.be,Facility
BE,50.7458637,5.6156538,maisonmarchal.com,Commerce
BE,50.6074175,5.5364668,omconcerts.be,Facility
BE,50.7777364,3.3986002,huischristophedemeyer.be,Commerce
BE,51.3410598,3.2882555,goldenbuddha.be,Facility
BE,50.9168125,3.3369199,tandartspraktijk-declercq.be,Facility
BE,51.0488753,3.4114533,motionplanet.be,Unknown
BE,50.9696412,4.0058625,afspanningdejaeger.be,Facility
BE,50.9494805,5.2086457,ksaberbroek.be,Facility
BE,50.7145274,4.6154843,paradise-beauty.be,Facility
BE,50.6279227,5.5669178,latelierpates.com,Facility
BE,50.8727491,4.3179445,degoudenregen.be,Facility
BE,51.1843545,4.4270373,tamtamberchem.be,Facility
BE,51.03228,5.2783527,belgomedical.com,Commerce
BE,51.0565006,5.0890565,pelletkachel-markt.be,Unknown
BE,50.4840282,4.7988642,restaurantcafesdelahaut.be,Facility
BE,50.7655575,3.5428707,tkonijntje.be,Facility
BE,50.9613475,5.5041066,broederschool-genk.be,Facility
BE,51.2558329,4.6208712,huisartsenkapellei.be,Facility
BE,51.2781998,3.2942576,deknotwilgoostkerke.be,Facility
BE,51.1243249,3.0320074,optiloadenergy.eu,Facility
BE,51.0752493,4.2748059,uitinpuurssintamands.be,Facility
BE,50.8754361,4.7105588,knapperleuven.be,Facility
BE,51.1479487,3.4605919,drongengoedhoeve.be,Commerce
BE,51.1815965,4.8572919,inarto-architecten.be,Unknown
BE,51.1652114,4.4209936,well-b-therapy.com,Facility
BE,51.2267666,4.4033803,berdaltools.com,Commerce
BE,50.9835689,3.5274184,lettersenco.be,Facility
BE,51.0411273,3.7276412,frietcultuur-gent.be,Facility
BE,50.985777,4.8375495,bloesemremedies.be,Commerce
BE,50.4488343,3.8169717,cycle-gabriel.be,Commerce
BE,50.7616165,4.1863101,pepingsedog.be,Facility
BE,51.2145071,4.4423619,afp-antwerpen.be,Facility
BE,50.7243883,4.2401782,castorfiberarchitecture.com,Unknown
BE,51.1478102,2.7219646,villanieuwpoort.be,Facility
BE,51.2162153,4.4328034,bistro-estelle.be,Facility
BE,50.9863484,4.7745931,depelgrimbetekom.be,Facility
BE,50.7301023,5.865819,tavernehacienda.be,Facility
BE,50.6643107,5.3993831,fexhe-le-haut-clocher.be,Facility
BE,51.1564781,5.3909349,notarisjessyhouben.be,Commerce
BE,50.8095788,4.3532054,museumvanbuuren.be,Facility
BE,50.7231839,4.4026036,cabinetdespinsons.be,Facility
BE,51.1360669,4.8612303,feestverlichting.be,Commerce
BE,51.2206555,5.2837667,vpjmercedes.be,Commerce
BE,51.1748678,4.5220462,dorpsschool.be,Facility
BE,50.8827408,3.4395427,frituurtleeuwke.be,Facility
BE,51.0612185,4.65801,mazoutchris.be,Commerce
BE,49.6859563,5.8247238,lescalearlon.eu,Facility
BE,50.8415646,3.2066261,vanhalst-isabel.be,Commerce
BE,50.4131144,4.4478479,iet-notredame.info,Facility
BE,51.0321809,4.4723074,dansstudiomarlynes.be,Facility
BE,51.2504473,4.4379039,schouwburgnoord.be,Facility
BE,50.8488498,3.6018339,stadsboerderijtje.be,Facility
BE,51.0681577,4.8806135,glas-vanregenmortel.be,Commerce
BE,51.2113709,4.3966451,zondergluten.be,Commerce
BE,50.509132,4.7389813,upgembloux.be,Facility
BE,51.1176448,3.9744055,vvw-lokeren.be,Facility
BE,50.6835775,4.5370418,mapatisserie.be,Commerce
BE,50.9084305,4.4060179,miroiteriedunord.be,Commerce
BE,50.9457421,5.4748544,petermotorworks.be,Commerce
BE,50.8404665,2.9989082,poppiesbakeries.com,Commerce
BE,51.0458911,5.1930523,katermeerhoeve.be,Facility
BE,50.9798017,3.5334834,hokus-pokus-toverbol.be,Commerce
BE,51.0991867,3.7699071,pizzagolosa.be,Facility
BE,51.0314065,5.2314989,unitbuilding.be,Commerce
BE,50.6919804,5.6312789,allpallets.be,Commerce
BE,51.0300304,3.7995754,joe-english.be,Facility
BE,51.2499063,4.5309008,benedictinessen-schoten.be,Facility
BE,51.272038,3.0328945,apotheekcandidejacobs.be,Commerce
BE,51.0048077,4.0590797,psycholoog.be,Facility
BE,51.2043728,3.2312686,nextdoorbedbreakfast.be,Facility
BE,50.7683328,4.4735407,felixsohie.be,Facility
BE,50.6619337,4.6215856,rugbyottigniesclub.be,Facility
BE,51.044496,3.3883488,tsoupaepke.be,Commerce
BE,50.4198598,4.5073067,pompes-funebres-savouret.be,Commerce
BE,50.7347089,5.6715084,leshangrila.be,Facility
BE,50.7301709,4.5090724,hypnotized.org,Commerce
BE,50.8575992,4.2667192,kattebroek.be,Facility
BE,51.4706496,4.4653159,tobacessen.be,Commerce
BE,51.0291721,4.9814081,huyzehonighsdries.be,Facility
BE,50.2596054,6.0689951,schulmarjanne.be,Facility
BE,51.1806044,4.4329149,body-skin-clinic.be,Facility
BE,51.2284699,5.435162,dungen-entertainment.be,Facility
BE,50.4638824,4.8675501,beautyloungenamur.be,Facility
BE,50.8578929,3.3110636,hairfashionkimberley.be,Facility
BE,50.9833491,5.0520297,optiekgeyskens.be,Commerce
BE,51.0332368,2.8636269,belfortdiksmuide.be,Facility
BE,51.3080972,3.1300809,praktijk-itransform.be,Facility
BE,50.956739,3.1222333,studioeltigre.be,Commerce
BE,51.252994,4.4582083,hetvoorhuys.be,Facility
BE,50.9203958,4.7647369,kwadraat-stonefood.be,Facility
BE,51.2296224,2.9190312,snackoostende.be,Facility
BE,50.1801172,5.6063745,campinglohan.be,Facility
BE,51.3536129,3.2985979,hotelvillaverdi.be,Facility
BE,51.2139206,4.4068195,rogervandamme.com,Facility
BE,51.1016609,4.1928647,taverneoudgemeentehuis.be,Facility
BE,51.273192,3.0321953,spazioweekend.be,Commerce
BE,50.9262381,4.0137991,cc-heftrucks.be,Commerce
BE,49.5607368,5.7407897,upndcuestas.be,Facility
BE,50.8624112,4.5150162,euro-soins.com,Unknown
BE,50.6441628,5.5705248,brasserie-aupointdevue.be,Facility
BE,51.0733379,5.0882463,adera-ramen.be,Commerce
BE,50.9485881,3.5791751,pietermatton.be,Unknown
BE,50.3643046,4.2847688,museedumiel.be,Facility
BE,50.8152946,3.8059272,eyckenmolen.be,Facility
BE,51.1380103,5.7523,garage-willybrouns.be,Commerce
BE,50.7481431,4.2629809,notarisdiegenant.be,Commerce
BE,50.1943046,4.4087467,campingdeslacs.be,Facility
BE,51.2068885,4.4305563,cafedezure.be,Facility
BE,50.9874502,4.6753708,huizedeveuster.be,Facility
BE,51.2621471,4.5503236,cremeriepinguin.be,Commerce
BE,51.245115,4.5049238,vanloockmotoren.com,Unknown
BE,50.6698261,5.5511063,csi-rocourt.be,Facility
BE,51.1318055,4.3888957,incentive-reizen.be,Commerce
BE,51.0808502,4.6860999,gijsbrechts.be,Commerce
BE,51.0637555,3.7287821,seracupping.be,Facility
BE,50.9491476,5.2177872,autoglasjohan.be,Commerce
BE,51.2279687,4.4164353,headquarters-katoennatie.com,Facility
BE,51.0428238,3.9119086,bakkerijwillemskalken.be,Commerce
BE,51.165318,4.9893463,het-wijnhuis.be,Facility
BE,51.0158782,3.6595835,restopulpo.com,Facility
BE,51.0918118,3.4483933,knoopsschat.be,Commerce
BE,51.4670732,4.4671877,huisartsessen.be,Facility
BE,50.8818493,4.8417784,feuilletage.be,Commerce
BE,50.9773458,4.9725766,bbogklaverblad.be,Facility
BE,51.1866028,2.8114217,optiekvermeulen-middelkerke.be,Commerce
BE,50.5628538,3.7501968,musee-huissignies.com,Facility
BE,51.214668,4.3986151,jutkaenriska.com,Commerce
BE,50.7495315,4.253369,vankerkhovents.be,Commerce
BE,50.9406343,3.1261917,derodenbachbolders.be,Facility
BE,51.1895998,3.1428186,oudgemeentehuisvarsenare.be,Facility
BE,50.8416998,3.3872807,cenv-construct.be,Commerce
BE,51.3395027,3.2396973,atelier-rubens.be,Commerce
BE,51.0691564,4.9806736,gbsdeschans.be,Facility
BE,51.2854549,4.4872085,dierenartsfrancken.be,Commerce
BE,50.4625363,4.8693931,voyages-copine.be,Commerce
BE,51.1037215,2.5918777,aufiletdesole.com,Facility
BE,50.9223093,3.1588699,garagehaverbeke.be,Commerce
BE,51.2019127,3.3228518,frankdecoster.be,Commerce
BE,50.6927073,5.6169619,vincentlogistics.com,Commerce
BE,50.9775639,3.4728627,phvercruysse.be,Unknown
BE,50.5978536,4.3224127,bibliotheque-nivelles.be,Facility
BE,50.5455668,5.3333605,chateaurorive.be,Facility
BE,50.9411834,4.7447236,longinservice.be,Unknown
BE,50.4641558,4.3238486,ozenalcove.be,Facility
BE,51.0004089,3.3266572,restaurantmaya.be,Facility
BE,50.7210501,5.9873231,laveranda-moresnet.be,Facility
BE,50.4655423,4.8630369,yummyramen.be,Facility
BE,50.6598553,4.4128136,lalignerouge.be,Facility
BE,50.443462,5.3471814,biennaledephotographie.be,Commerce
BE,50.8920745,3.6060151,laurencesmoestuin.be,Commerce
BE,50.8545497,3.514239,hetherdershuysje.be,Facility
BE,51.0322162,4.8309884,optiekanja.be,Commerce
BE,51.2143862,4.3981503,gyselsantwerpen.be,Commerce
BE,50.9460982,3.1280706,labouledeglace.be,Commerce
BE,51.3324699,3.2025489,seafrontboulder.be,Facility
BE,51.0896705,3.810858,autocenterstevens.be,Commerce
BE,51.1314718,5.4556933,huzurkebab.com,Facility
BE,50.8878122,3.4745292,ruitersportvankerkhove.be,Commerce
BE,50.4374453,3.9655185,drmargauxdigiacomo.be,Facility
BE,51.0164891,4.1150351,natuursteen-vangucht.be,Unknown
BE,50.552677,5.4799723,lechenemadame.be,Facility
BE,51.3152493,3.1296045,liberty-blankenberge.be,Facility
BE,51.2210514,4.4027176,eethuis-frituurtstad.be,Facility
BE,50.9816498,3.5290762,labicyclettepastabar.be,Facility
BE,51.0644968,2.6650226,regenboogje.be,Facility
BE,51.24693,4.4463608,antwerpscichlidencenter.be,Commerce
BE,51.2093594,3.2226989,tastybruges.be,Facility
BE,51.1685005,4.8433705,collectionhugovoeten.com,Facility
BE,51.0433855,3.7587369,keurslagerfilip.be,Commerce
BE,50.4759274,4.1830353,pizzeriagennaro.be,Facility
BE,50.9770381,3.5277597,mijnverzekering.be,Facility
BE,50.8846815,3.4250563,waranzverzekeringen.be,Commerce
BE,50.1628033,5.9265691,motokaiser.com,Commerce
BE,50.9327114,3.7299507,houthandelderegge.be,Commerce
BE,50.4665069,4.9190486,lepetitbeezgneur.be,Facility
BE,50.0608623,5.8009298,tracteuragricolegoosse.be,Unknown
BE,51.311464,5.0582544,hs-snuffel.be,Facility
BE,51.0884701,4.8628388,degoudenmuts.be,Facility
BE,51.3416053,3.2875524,fiets-gigant.be,Commerce
BE,50.6020203,4.327837,legoelandasbl.be,Commerce
BE,51.0558007,3.6572275,vrijeruimte.be,Commerce
BE,50.5085332,5.9596444,pont-de-belleheid.be,Facility
BE,50.4538506,3.9509522,restaurantgrecmonsgrillade.be,Facility
BE,51.0566615,3.7100041,golden-friet.be,Facility
BE,50.7428245,5.6871797,ardennenwie.nl,Facility
BE,51.0377759,3.2032125,notariaatvanbeylen.be,Commerce
BE,50.7319282,3.8531761,lescigales.org,Facility
BE,50.8770459,4.7047995,restaurantalparma.be,Facility
BE,50.51004,4.752118,aquatech-bel.be,Commerce
BE,50.691359,5.5808521,conceptpaint.be,Commerce
BE,51.0217138,3.7181103,wgcnieuwgent.be,Facility
BE,50.6592683,3.8356898,animauxenperil.be,Facility
BE,50.8527979,2.8874318,het-kabinet.be,Facility
BE,51.091712,4.9216467,praktijkdebist.be,Facility
BE,51.0369967,3.7392698,souplicious.be,Facility
BE,50.8999303,3.3635092,riverterminalwielsbeke.be,Commerce
BE,51.2086546,4.4533899,voidwarranties.be,Commerce
BE,51.466214,4.4702132,dierenartsenpraktijk-het-hof.be,Commerce
BE,50.9959564,4.7935226,gtc-computers.com,Commerce
BE,51.4542838,4.44336,develo-essen.be,Facility
BE,50.9218908,3.1777788,skylinepark.be,Commerce
BE,51.2219865,4.4003811,sjalotenschanul.be,Facility
BE,50.1314124,5.1777233,magicairevents.be,Unknown
BE,51.3892463,4.7370884,beko-grondwerken.be,Unknown
BE,51.1637624,5.0144719,tweeboomkes.be,Facility
BE,50.5398369,4.3276488,toqueblanche.com,Commerce
BE,50.8726372,3.3263227,isomasters.com,Commerce
BE,50.512797,4.8394522,theatredelatour.be,Facility
BE,50.8068896,5.2772758,apotheek-martens.be,Commerce
BE,50.5017385,4.7129007,ab-ecoglobe.be,Commerce
BE,51.2298734,2.9147633,bistromathilda.be,Facility
BE,50.5881566,5.8611604,auclairobscur.be,Facility
BE,51.2269891,4.5181843,apotheekdevlier.be,Commerce
BE,51.1472884,4.300127,hofkevanbazel.be,Facility
BE,50.7373795,5.6881782,coiffure-elegance.com,Facility
BE,51.0753587,3.5380926,scoutsengidsennieuwland.be,Facility
BE,50.3862116,4.9941329,pierson-courriere.be,Commerce
BE,51.1220722,3.5637693,drankenlatomme.be,Commerce
BE,51.1581408,5.3652434,casa-blanca.be,Facility
BE,51.174941,3.339454,tuinhobbystmarie.be,Commerce
BE,50.913139,5.0422643,wpagrosystems.be,Commerce
BE,50.735962,4.2372338,bistro-servais.be,Facility
BE,50.990972,3.6470404,consperanza.be,Facility
BE,50.9582249,5.3706165,hasseltstix.be,Facility
BE,51.0640423,3.1018858,namastecurryhouse.be,Facility
BE,51.0169437,3.8557082,scoutssintjan.be,Facility
BE,51.3977429,4.7789236,debouwhoeve.be,Commerce
BE,50.3917294,5.8791779,camping-coo.be,Facility
BE,51.1248881,4.9414486,lievensvelos.be,Commerce
BE,51.2155185,4.3987146,garde-robe-nationale.be,Commerce
BE,51.0584337,3.7241602,kimskitchen.eu,Facility
BE,50.9547549,3.1271904,fijnbakkerij-vincent.be,Commerce
BE,51.0421504,3.7193979,accessestate.be,Commerce
BE,50.9986508,4.4926082,woonzorgemmaus.be,Facility
BE,50.7309157,4.2400373,opdebeeckorthodontie.be,Facility
BE,50.723947,4.8717136,fityourfood.be,Facility
BE,51.1438886,4.3449345,vwverzekeringen.be,Commerce
BE,50.9004099,4.0059268,catsprecious.com,Facility
BE,50.9410804,3.1226862,beautywellnessspa.be,Facility
BE,51.0632369,3.7331602,wgcdesleep.be,Facility
BE,50.9890613,3.7381947,despeelgoedfee.com,Commerce
BE,50.9925299,3.5309942,declercqstortbeton.be,Commerce
BE,51.2298847,4.4494894,school-immaculata.be,Facility
BE,50.8862618,3.4318249,avenuejuju.com,Commerce
BE,51.0510465,3.7194825,luxlightstore.be,Unknown
BE,51.067337,4.9562458,dierenartsjolanda.be,Commerce
BE,50.5524115,4.3940219,contrastedecorsprl.be,Commerce
BE,50.8265429,3.82482,vakantiewoningtilia.be,Facility
BE,50.2267548,5.3453479,marquiseproductions.be,Facility
BE,50.6351908,5.8738461,mertensplastique.be,Commerce
BE,51.0575928,4.2774634,tandartsinantwerpen.be,Facility
BE,51.3518182,3.2840809,rubens-knokke.be,Facility
BE,51.1886969,5.0778869,foetsmichel.be,Facility
BE,50.4158754,5.443118,gites-de-jenneret.be,Facility
BE,50.6393882,5.5728837,optiquebuisseret.be,Commerce
BE,51.0631507,4.4054201,bistro-the-boathouse.be,Facility
BE,50.7117358,3.8319728,rigerfields.com,Commerce
BE,50.9804515,4.5307497,praktijkdcr.be,Facility
BE,50.8846581,4.418216,autocontrole.be,Commerce
BE,51.0117843,4.3233205,transportpiessens.be,Unknown
BE,50.4909502,4.8877993,pereetfille.be,Facility
BE,50.8010392,3.8131286,bonanza-lierde.be,Facility
BE,50.87007,4.3700727,ha-foundation.com,Facility
BE,50.6361235,5.5714069,senologie-crevecoeur.be,Facility
BE,50.644857,5.5700342,labouffonnerie.be,Facility
BE,50.967185,3.1394507,vandecandelaere.be,Unknown
BE,51.157164,5.0084066,tandenmondzorg.be,Facility
BE,50.588725,4.3076558,hotelnivellessud.be,Facility
BE,51.1092159,4.3304696,optiekengelen.be,Commerce
BE,50.6845292,5.5255418,ferme-paque.be,Commerce
BE,51.1723345,4.445756,kantoormortsel.be,Commerce
BE,50.7730113,4.8879387,kapittelhuys.be,Facility
BE,50.7364874,4.2368133,isis-sieraden.be,Commerce
BE,50.4868347,4.3283635,lemontagourmet.be,Facility
BE,50.8494215,2.8829701,laportecochere.com,Facility
BE,50.7146211,4.3516831,lafriterieducoin.com,Facility
BE,50.9959259,4.7102685,frietjesopafspraak.be,Facility
BE,51.0787966,3.5808733,aardsparadijs.be,Facility
BE,51.2238634,4.4062111,tekenfabriek.be,Facility
BE,50.9810654,3.5297018,deinzevishandel.be,Commerce
BE,51.0375603,3.7433935,rokkebolle.be,Facility
BE,51.0156932,3.5798149,kristofshairstudio.be,Facility
BE,50.6523428,4.4819486,lacabossedor.be,Commerce
BE,51.0768749,4.719579,apotheekthewissen.be,Commerce
BE,50.9969103,4.8336064,dtcprinting.be,Commerce
BE,49.9587285,4.9534482,coeur-de-beurre.be,Facility
BE,51.1406546,5.600329,hypetemple.be,Commerce
BE,51.3810172,4.6744573,boerenijsje.be,Facility
BE,51.0986447,4.2359756,revaterlinde.be,Unknown
BE,51.0235683,5.3153449,dierenartsdevroey.be,Commerce
BE,50.993366,3.6421779,depodoloog.be,Facility
BE,51.3395221,4.5290792,bbqatelier.be,Commerce
BE,50.9654429,3.9787605,mondzorgcentrumlede.be,Facility
BE,51.0460448,3.7221978,donkicantina.be,Facility
BE,51.2102132,4.4076943,aebeleinteriors.com,Commerce
BE,50.747973,3.4109137,thespiritsvalley.com,Commerce
BE,51.1744099,5.5821949,dorpshuisbocholt.be,Facility
BE,50.6852899,4.6932632,centre-kinetic.be,Facility
BE,51.2726632,3.0346012,visionxrgallery.com,Commerce
BE,50.9301629,4.4257262,moviesnacks.be,Facility
BE,51.0335054,2.8642,tgoudenmandekendiksmuide.be,Facility
BE,51.0515025,4.4764609,azsintmaarten.be,Facility
BE,51.0472868,4.4088062,spiceofindia.eu,Facility
BE,50.969875,5.0351732,afibelbvba.be,Commerce
BE,51.1287966,4.4742713,bazarkekonkaz.be,Unknown
BE,51.1171871,4.3935015,luxurycarselection.be,Commerce
BE,51.0312166,4.2446588,gocarttrein.be,Commerce
BE,51.1833781,4.5999501,chirobroechem.be,Unknown
BE,51.1704229,2.7746939,apotheek-trypsteen-westende.be,Commerce
BE,50.9895164,4.7041586,bs-decocon.be,Facility
BE,51.3397283,3.238128,royalpunjab.be,Facility
BE,51.1097284,3.4326985,steyaertmeubelen.be,Commerce
BE,51.1150286,4.1421319,basisschool-elversele.be,Facility
BE,50.9811734,3.8734615,optiekvandurme.be,Commerce
BE,50.7853654,2.8857696,drukkerijverscheure.be,Facility
BE,50.7116744,4.6133194,atm-modelisme.com,Facility
BE,50.7088417,3.840999,lessines-decor.com,Commerce
BE,50.9466851,3.09582,verfcentrum.com,Commerce
BE,50.6932064,4.3317114,nouscoworking.be,Commerce
BE,50.9992544,3.3170833,meteotielt.be,Facility
BE,51.0262241,5.0618777,klussenier.be,Unknown
BE,51.0413299,3.7185214,kruidtuingent.be,Facility
BE,50.4624969,3.7241848,bonsai-koi.com,Commerce
BE,50.3923711,6.2927218,vakantiewoning-pype.be,Facility
BE,51.2250629,4.4052564,yellowsubmarine.be,Facility
BE,50.3507945,5.4556884,eauderoche.be,Facility
BE,49.605548,5.6517763,sisaintleger.be,Facility
BE,51.0328686,3.7063789,kavoskenslaan.be,Facility
BE,50.8368297,4.4292695,bloem-farine.be,Facility
BE,51.0662711,5.1020744,pocomasfoodtruck.be,Facility
BE,51.0544891,3.9897534,vraetsmachinery.com,Commerce
BE,50.191027,5.5740379,brasserie-benelux.be,Facility
BE,50.9157549,4.4685274,brabantsegolf.be,Facility
BE,50.6899703,4.4065279,bobservice.be,Unknown
BE,50.635814,5.5674071,welcomeathome.be,Commerce
BE,50.6063674,3.3841415,automaticskateshop.com,Unknown
BE,51.2178268,5.2669851,fitnessspecialist.be,Unknown
BE,51.06917,4.0383466,vpmarsupilami.be,Unknown
BE,51.0240921,4.477998,thecartridgeshop.be,Unknown
BE,50.8459099,2.7446455,brandhout-debruyne.be,Commerce
BE,51.2201889,4.1250798,vbsdeklimop.be,Facility
BE,51.2994936,4.4114532,hofleverancier.be,Commerce
BE,50.2619859,5.0621756,menuiseriepirlot.be,Commerce
BE,51.0513827,3.7196893,chubbycheeks.be,Facility
BE,50.8059356,3.1291321,debelsbouw.be,Unknown
BE,51.2095653,3.2223307,lizzieswafelsbrugge.be,Facility
BE,50.9280383,4.0147656,dierenartsvandesijpe.be,Commerce
BE,51.3302356,4.3681132,pizzaprontostabroek.be,Facility
BE,51.2119174,3.2202571,devoetzaak.be,Facility
BE,51.1205547,5.0134168,watersportdekempen.be,Commerce
BE,50.6920804,4.034356,orientalexpress.be,Facility
BE,50.9787496,4.7839079,kasteelvanrivieren.be,Facility
BE,50.2514365,5.2046655,garagemeunier.be,Commerce
BE,51.2176814,4.4006125,glovesboon.be,Commerce
BE,51.0601941,4.7151035,elektro-dermo.com,Commerce
BE,51.2205237,4.4028632,jazzcafedemuze.be,Facility
BE,50.8351289,3.4783492,basisschoolanzegem.be,Facility
BE,51.0607241,3.7104239,antwerpfriedchicken-gent.be,Facility
BE,51.0977508,5.0798821,ad-schrijnwerkerij.be,Unknown
BE,49.5589814,5.8431954,menuiseriebailleux-athus.be,Unknown
BE,51.1998569,3.7695677,kristofvervaet-verhuizingen.be,Commerce
BE,50.8573336,5.4254397,ruitersportcentrum.be,Facility
BE,51.1472393,4.959381,themissinglinkescape.be,Facility
BE,51.2152679,3.2272125,hotelfevery.be,Facility
BE,49.853497,4.9668027,monmanegeatoi.com,Facility
BE,51.1352985,4.3869261,trimsalonknox.be,Commerce
BE,51.27337,3.033148,hotelbellevue.be,Facility
BE,50.1997536,4.3784655,lacsdeleaudheure.be,Facility
BE,50.7576206,3.4021136,vakantiewoningtrimaarzate.be,Facility
BE,50.7076466,4.6315774,gynecologue-saintex.be,Facility
BE,50.8419562,5.5223871,alden-biesen.be,Facility
BE,50.974891,3.5230946,driessprong.be,Facility
BE,50.9306391,3.0722487,colliemolenhoeve.be,Facility
BE,51.212131,4.3917869,restaurantmich.be,Facility
BE,50.4635155,4.1550744,le-castillon.be,Facility
BE,50.0438609,5.1509017,lesgitesdupremore.be,Facility
BE,50.6491822,6.003791,sac-sports.com,Facility
BE,51.4648222,4.4718531,certisgroep.be,Commerce
BE,50.778857,4.2429486,music-company.be,Commerce
BE,50.9889163,4.5346617,cafedageraad.be,Facility
BE,51.3078739,4.8877814,degoedeaarde.be,Commerce
BE,50.3414908,5.1574403,minimarket-hamois.be,Commerce
BE,51.0427925,3.7206817,sint-barbara.be,Facility
BE,50.7096172,4.3556609,aupetitmousse.be,Facility
BE,50.8719375,4.7070444,dekommaleuven.be,Facility
BE,50.644409,5.5778672,cultivarium.be,Commerce
BE,49.7240636,5.5586699,giteauredubot.be,Facility
BE,51.0694818,4.531517,hethemelsbrood.be,Commerce
BE,51.3986721,4.7602582,hoela-hoep.be,Commerce
BE,51.2399617,5.1122186,apotheeksegers.be,Commerce
BE,50.4080072,4.4923057,knossos-montignies-sur-sambre.be,Facility
BE,50.9091173,3.3664135,bakkerijwouter.be,Commerce
BE,51.0676792,5.1055711,rsmetaalwerken.be,Unknown
BE,51.2035276,4.3975571,andorantwerp.com,Facility
BE,51.2100926,4.4206573,avantonderwijs.be,Facility
BE,51.0128122,3.6442471,dhaenetailor.com,Commerce
BE,49.9146664,5.3798221,mjlibratoiasbl.com,Facility
BE,50.7176726,4.3984239,museewellington.be,Facility
BE,50.8655916,5.5226905,bakkerijvangronsveld.be,Commerce
BE,50.9590945,3.2722702,ttcmeulebeke.be,Facility
BE,50.1869568,5.532948,campingdupouhou.be,Facility
BE,51.0922384,4.9244587,frituurdemerode.be,Facility
BE,49.8127056,5.2831883,ardoisiere.be,Unknown
BE,50.4504031,4.6250164,sambreville.be,Facility
BE,50.7857003,3.2140455,gardentools.be,Commerce
BE,51.2303589,4.410858,bacchusantwerpen.be,Facility
BE,50.9091182,4.303692,mannekenfiets.be,Commerce
BE,50.9224317,4.7550099,immosurplus.be,Commerce
BE,50.8805539,4.6999401,animauxspeciaux.com,Commerce
BE,51.0593709,3.7291276,industriemuseum.be,Facility
BE,50.6105267,5.6155446,le-vapoteur.be,Commerce
BE,51.0381141,3.7105229,degoudenklok.be,Facility
BE,50.8735212,4.1559987,bakkerijheidi.be,Commerce
BE,50.8438988,3.6035747,mou-oudenaarde.be,Facility
BE,51.0896478,4.1358578,hetzoetewater.be,Facility
BE,51.168566,4.9881377,frituurdestatiegeel.be,Facility
BE,50.9840975,5.0500475,nickyscatwalk.be,Facility
BE,50.8807577,4.6931017,huizerafael.be,Facility
BE,50.7426022,3.2134184,intercoiffure-mouscron.be,Facility
BE,50.9413201,3.123423,deroepstem.org,Facility
BE,51.2164997,4.3950912,sebastiaan-antwerpen.be,Commerce
BE,50.8530474,3.2840491,basisschoolkuurne.be,Facility
BE,50.9782587,5.0444657,tandzorgleuvensepoort.be,Facility
BE,50.8109348,3.3340327,zennicehair.be,Facility
BE,51.0173668,5.0479164,artofeinstein.be,Facility
BE,50.8596405,4.3700328,lamaisondesarts.be,Facility
BE,51.0819135,2.5921416,plopsavillage.be,Facility
BE,51.3399496,3.2406092,frituurdester.be,Facility
BE,50.7308226,4.2399668,resto-eldo.be,Facility
BE,50.973106,2.9348516,vastgoedlesire.be,Commerce
BE,51.024823,3.1284252,feesthuyzdestoasje.be,Facility
BE,51.2502341,4.5109972,chiroterdonck.be,Unknown
BE,50.551868,4.824656,fermedemehaignoul.com,Facility
BE,51.2254215,4.4144138,metalengaller.be,Commerce
BE,50.8734764,4.6712816,verzekeringendewindt.be,Commerce
BE,51.0529351,3.7458949,gouden-paard.be,Facility
BE,51.1747554,4.3946218,optiekschroeyers.be,Commerce
BE,51.081164,5.0267074,huisartsenhouthoek.be,Facility
BE,51.2461177,4.4510278,st-eduardus.be,Unknown
BE,51.1812426,4.4347658,bemiddelingantwerpen.be,Commerce
BE,50.2685644,5.1098532,ecoledestroistilleuls.be,Facility
BE,51.1264094,4.4245741,all-connects.be,Commerce
BE,50.1949601,5.5627828,vakantie-huis.com,Unknown
BE,50.9905902,3.6207195,devemstallen.be,Facility
BE,50.5151362,5.3645827,lavacheaglace.be,Commerce
BE,51.1988618,5.5068732,alpacaboerderij.be,Commerce
BE,51.4535396,4.4752883,hekkenbouwer.be,Commerce
BE,50.5357827,5.2201356,sccomputer.be,Commerce
BE,50.9516527,3.1505665,deruyckbouw.be,Commerce
BE,50.9858732,4.8373729,rnbvintageclothing.net,Commerce
BE,50.8260608,4.045057,bsmeerbeke.be,Facility
BE,50.8053164,3.3411614,fietsenhenklaverge.be,Facility
BE,51.0698486,3.730209,ferahdesign.com,Commerce
BE,51.0814838,5.2414116,hoevegenemeer.be,Facility
BE,50.7352761,5.6725276,justloufashion.be,Commerce
BE,50.7228125,3.3221352,poolhouseplaza.be,Facility
BE,50.5537198,4.7066788,lavueestbelle.be,Commerce
BE,50.9797731,5.0441946,orient-diest.be,Facility
BE,50.8016806,4.2882037,kassiafood.fr,Facility
BE,51.0650724,3.7272325,huisartsentolhuis.be,Facility
BE,50.796924,3.1874594,fietsendaels.be,Commerce
BE,50.6857336,4.3784275,tamishansushi.be,Facility
BE,50.6627569,4.5752313,renivauxasbl.be,Facility
BE,50.8515901,4.3886817,leefmilieu.brussels,Facility
BE,50.9814317,3.8730453,kineverdickt.be,Facility
BE,50.3249263,5.5934772,lesmontsdaisne.be,Facility
BE,50.9212836,4.4286093,intervilvoordse.be,Facility
BE,51.0602823,4.279875,baristaoscaaar.be,Facility
BE,50.6438826,4.6447433,pizzeria-da-antonio.be,Facility
BE,50.7452705,4.2666395,proxydelhaizebuizingen.be,Facility
BE,51.0386315,4.4828069,gumm-cohousing.be,Facility
BE,50.8949259,4.3869076,beenhouwerijelsocht.be,Commerce
BE,50.4529596,3.9520008,lenvers-mons.be,Facility
BE,50.8843403,5.3519122,nelissenverzekeringen.be,Commerce
BE,50.9898447,3.8790348,dierenverzorgingannelies.be,Commerce
BE,50.9312325,3.3070336,tbloemblaadje.be,Commerce
BE,50.6789002,4.7021769,restaurantfirewood.be,Facility
BE,50.4056635,3.8513958,colfontaine.be,Facility
BE,50.8338115,4.3690125,boissauvage.be,Facility
BE,51.0236987,3.7199168,campusatelier.be,Facility
BE,51.219661,4.4425011,rataplanvzw.be,Facility
BE,50.8818112,4.0615464,garageerveedee.be,Commerce
BE,50.9564787,3.6550744,tankstation-eke.be,Commerce
BE,51.2159585,4.4206464,biostation-antwerpen.be,Commerce
BE,50.7678613,3.4013812,relaxatiezenti.be,Unknown
BE,50.9392313,5.4547072,limburgsesheepdog.be,Facility
BE,50.9838691,3.5320998,taveirnewines.be,Commerce
BE,50.4597982,4.959792,upiconsult.be,Commerce
BE,50.7355611,4.2345561,visithalle.be,Facility
BE,50.8111924,3.8225597,frituurtomenels.be,Facility
BE,51.2586439,4.4523281,hwpantwerpen.be,Facility
BE,50.7353305,4.2364654,oudgoudhalle.be,Unknown
BE,50.694449,5.591201,toituresorlando.be,Commerce
BE,51.0862058,4.9168379,brasseriedenanker.be,Facility
BE,51.1843678,3.0189131,wzcbloemenhof.be,Facility
BE,50.4687222,4.8758101,jeveuxunepiscine.be,Facility
BE,51.3501255,4.3131384,groffenuitvaart.be,Commerce
BE,49.9218516,5.3771692,letempsdelire.be,Commerce
BE,51.1621084,4.9991774,gasthuismuseumgeel.be,Facility
BE,51.0709958,5.2217049,mijnmuseum.be,Facility
BE,51.3216307,3.2941141,helihavenknokke.be,Unknown
BE,50.300042,4.3889062,lafermesaintjean.be,Facility
BE,51.0065166,3.62686,casa-grande.be,Commerce
BE,51.0885412,3.4909495,bell-amuse.be,Facility
BE,50.7125298,6.1233307,gs-lichtenbusch.net,Facility
BE,50.9096802,4.2024154,fietsenservaas.be,Commerce
BE,51.0884371,5.2477015,apotheekrds.be,Commerce
BE,50.7775526,3.2849762,kapsalonsaskia.be,Facility
BE,51.022355,4.4854244,hanswijkbasiliek.com,Facility
BE,51.0763436,4.7207791,nineteen19.be,Commerce
BE,50.6439184,4.562808,restosaigon.be,Facility
BE,50.7369428,4.828502,fermedelahesseree.be,Facility
BE,51.148904,2.7158815,tmarmietje.be,Facility
BE,50.5826402,4.4546008,stock-americain-baisy-thy.be,Unknown
BE,51.0490357,3.7327338,faimfatale.be,Facility
BE,50.6319969,6.0345308,couleurrouge.be,Facility
BE,50.6177677,5.5675021,ecolesaintmaur.be,Facility
BE,50.9683323,5.5035277,europeseacademie.be,Commerce
BE,51.1085631,5.7844999,plantenkwekerij-sintjansberg.be,Commerce
BE,50.9190354,5.4406735,artdefence.be,Facility
BE,51.1639513,5.0273228,proximusshopgeel.be,Unknown
BE,51.023887,4.4785538,vanderpoorteninterieur.be,Commerce
BE,51.221071,4.4010568,kidsrhythmnblueskaffee.com,Facility
BE,50.6938919,4.0391542,bioautrement.be,Commerce
BE,50.1773785,4.8272444,gite-maisonblanche.com,Facility
BE,51.1677883,3.8575622,broedersvanliefde.be,Facility
BE,50.6100045,4.3504435,coloretscreen.be,Commerce
BE,51.0969197,3.608947,dvcdetriangel.be,Facility
BE,51.2096808,3.2291923,charlierockets.com,Facility
BE,51.2145321,4.4355973,karimsupermarkt.be,Commerce
BE,51.009751,3.6639678,villaparkbos.be,Facility
BE,51.3012626,4.4112215,lauryssens.be,Commerce
BE,50.9461739,5.2004601,tobolaschilderwerken.be,Unknown
BE,50.7476387,3.5993108,letempsperdu.be,Facility
BE,51.2664269,5.5060253,heemkundekringachel.be,Facility
BE,50.8383077,4.2055215,gpschepdaal.be,Facility
BE,50.0921929,5.3393314,ladiglette.be,Facility
BE,50.8745232,3.4220753,drankcenter.com,Commerce
BE,51.0862334,3.4549097,kinecentrumaalter.com,Facility
BE,51.2181119,4.3973756,liesmertens.be,Unknown
BE,50.8419894,3.6036827,margarethas.com,Facility
BE,50.6276085,5.5671467,millesime-chocolat.be,Commerce
BE,50.4418715,4.4514974,lacarpedor.be,Commerce
BE,50.6965395,4.3652799,carscenter.be,Commerce
BE,51.216771,4.4183651,louisreichman.com,Commerce
BE,50.8126053,4.3565497,ecoledulongchamp.net,Facility
BE,50.8740877,3.4248937,frituurcindy.be,Facility
BE,50.9466367,3.1257629,gastrohenri.be,Facility
BE,51.2892657,4.1760001,reizenvanlaere.be,Commerce
BE,51.0578825,3.2783241,bloemenbellini.be,Commerce
BE,50.9840908,3.5266418,pizzatowndeinze.be,Facility
BE,50.4962742,5.098971,meusecampagnes.be,Commerce
BE,51.0483399,3.7969297,pauwkenshof.be,Facility
BE,50.8226575,3.3748684,bakkerijwindels.be,Commerce
BE,51.1381606,3.1593198,hotelfleurdelys.be,Facility
BE,51.3018506,4.9173996,openmanufacturingcampus.com,Unknown
BE,51.2378269,4.4668499,gosselingroup.eu,Commerce
BE,51.0124803,4.8686789,huisartsengijmel.be,Facility
BE,51.0555621,3.7212431,hetspijker.be,Facility
BE,51.2158333,4.402142,charlotte-willem.be,Unknown
BE,51.1693195,4.3844918,vizitonline.be,Facility
BE,51.0559897,5.1593206,fietscafesurplas.be,Facility
BE,51.1612307,4.9908784,brasseriedepost.be,Facility
BE,50.6073302,4.4511813,poeleriedupellet.be,Unknown
BE,50.6316662,5.5376342,saint-nicolas.be,Facility
BE,51.1978105,4.5250009,fietsenthys.be,Commerce
BE,51.3447301,3.2882771,uglyducklingknokke.be,Facility
BE,51.2302991,4.4057052,altaviatravelbooks.be,Commerce
BE,51.0593444,4.6395514,garagemeulders.be,Commerce
BE,50.081423,5.1139999,latelierdessens.be,Facility
BE,50.9286599,3.8058274,stokerijvandamme.be,Commerce
BE,50.5973804,5.4469113,ccflemalle.be,Facility
BE,50.8906293,4.4714602,antonpieck.be,Facility
BE,50.7891105,3.1992971,hermanautoparts.be,Facility
BE,51.1004386,4.410293,elsvanderbiesen.be,Facility
BE,50.973048,3.6595544,garageboone.be,Commerce
BE,50.89577,3.0607015,atmosfeer-interieur.be,Commerce
BE,51.0551421,5.2738319,courselkebab.be,Facility
BE,50.9986404,3.3271892,schoenenmayfair.be,Commerce
BE,51.0572802,3.7244183,theshowboat.be,Facility
BE,50.8405715,4.4647578,michilsopticiens.be,Commerce
BE,50.9850905,3.52655,leie-travel.be,Commerce
BE,50.9295089,3.9616616,tvijverhof.be,Facility
BE,50.8640843,3.2922144,denherderkuurne.com,Facility
BE,49.812925,5.5572128,la-grange-a-leon.be,Facility
BE,50.7163128,4.3911928,lepotentiel.be,Facility
BE,51.2024253,4.4234062,thejaneantwerp.com,Facility
BE,51.0581803,3.7138549,bnbpetitprince.com,Facility
BE,51.0372268,4.9718399,klompenmuseum.be,Facility
BE,51.1696537,2.7759931,logiesdewandelaar.be,Facility
BE,50.8211962,5.4239369,domeinclosstdenis.com,Facility
BE,51.1111966,4.3502029,renault-niel.be,Commerce
BE,50.9078617,5.0595327,s-and-p-shop.be,Commerce
BE,51.0461367,3.7168837,destoffenkamer.be,Commerce
BE,51.1636846,4.6937287,praktijknabij.be,Facility
BE,50.4492735,4.8951615,veterinaire-erpent.be,Commerce
BE,51.0405226,4.4441344,lavista-restaurant.be,Facility
BE,50.4667332,4.8599804,loco-lunch.be,Facility
BE,51.0675541,5.0904179,regenboogtessenderlo.be,Facility
BE,50.5612072,4.6955276,pascourant.be,Commerce
BE,50.8178274,4.2637325,erasmusgardens.be,Facility
BE,51.137817,4.3938274,bistromillefeuille.be,Facility
BE,50.8759134,4.6820218,kinderrijkvzw.be,Facility
BE,51.0166101,3.664055,petit-coeur.be,Commerce
BE,50.5965294,4.3242118,laicite-nivelles.be,Facility
BE,51.0592294,4.8770083,hvd-netevallei.be,Facility
BE,49.6096738,5.8091038,designeroutletluxembourg.com,Commerce
BE,51.2091367,2.8772678,lescabanes.be,Unknown
BE,50.9673983,5.0777398,carrosserie-stalmans.be,Commerce
BE,51.181696,4.7717512,29bataljonlogistiek.be,Unknown
BE,51.231425,2.9141808,bistrobelledejour.be,Facility
BE,50.9220165,3.4447293,vishandeldesmet.be,Commerce
BE,50.9317242,4.366117,campusfenix.be,Facility
BE,51.1581573,4.9878583,blessingstylingcastle.com,Facility
BE,51.0415172,3.3970654,apotheekmollemandecoster.be,Commerce
BE,50.8252383,4.360516,chatelaineduliban.be,Facility
BE,50.8768362,4.4013286,pasdechichis.be,Facility
BE,51.2463619,4.9662269,denotelaarkasterlee.be,Facility
BE,50.5996501,5.4963787,vitrier-bacheletseraing.be,Commerce
BE,50.7155612,4.398478,yes-boutique.com,Commerce
BE,49.7812236,5.2375697,herbeumont-tourisme.be,Facility
BE,50.9848919,5.0529156,puzzelsdiest.be,Commerce
BE,51.3125962,3.1253751,pizza-pronto.be,Facility
BE,50.8468812,4.350271,fromagerie-catherine.be,Commerce
BE,51.2329855,3.2015597,think-pink.be,Facility
BE,51.0728844,5.0837018,poppyboetiek.be,Commerce
BE,51.0401951,3.7104054,belfius-gent.be,Facility
BE,51.0697365,3.729799,hairborist.com,Facility
BE,51.1876738,3.2921069,nallyspapegaaienopvang.com,Facility
BE,50.6385909,5.5689421,voyages-leonard.com,Commerce
BE,51.2450643,4.8359159,zandstralen.net,Commerce
BE,51.0992035,4.239546,hoteldenotelaer.be,Facility
BE,50.6847027,4.3777748,carrosseriejanssens.com,Commerce
BE,50.9880693,3.6893758,appelperslerouge.be,Commerce
BE,50.9014276,4.7321771,huisartsendelieming.com,Facility
BE,50.3952636,4.6982512,wok-classic.be,Facility
BE,50.5276917,5.1377089,les3bilobas.be,Facility
BE,50.8832651,4.7221137,springstofparkour.com,Commerce
BE,51.0254696,4.5325078,carruet-interieur.be,Unknown
BE,51.0647467,4.9023703,natuur-puur.be,Facility
BE,50.8730428,4.2867683,batbelgium.com,Commerce
BE,50.7441999,3.2133099,haute-studio.com,Facility
BE,51.3159621,3.1272839,lefebvre-escalona.be,Commerce
BE,50.0795147,4.6434352,parclajussiere.be,Facility
BE,51.1251548,4.5756073,lierscultuurcentrum.be,Facility
BE,50.8859473,4.3418587,onyx-hotel.be,Facility
BE,51.4567434,4.4584611,impaktkine.be,Facility
BE,50.8277564,3.2635173,boes-devaere-notarissen.be,Commerce
BE,50.8882643,3.3320228,eeckhoutverbouwt.be,Commerce
BE,50.6384161,5.5665666,stbenoitstservais.net,Facility
BE,50.87958,4.6987498,puntokiosk.be,Facility
BE,50.6858063,4.3720275,institut-saint-jacques.be,Facility
BE,50.6382545,3.3748913,gitescheri.be,Facility
BE,51.2186145,4.4310791,restaurantbrutal.be,Facility
BE,50.9851928,4.8123212,elsentraktor.be,Commerce
BE,50.3957271,4.4427764,coiffeursteve.be,Facility
BE,51.1874039,2.814482,thegallery34.be,Commerce
BE,50.8430885,3.6060157,mademoisellem.fashion,Commerce
BE,51.2157232,4.3947393,christiaensen-christiaensen.be,Commerce
BE,50.0754045,4.5466,computer-company.be,Commerce
BE,51.2986308,3.1516841,danielsazuur.be,Commerce
BE,50.9862467,5.0501477,andersreizen.be,Commerce
BE,51.176649,4.8286584,slagerijbrabants.be,Commerce
BE,50.9104844,4.3555228,ristorantedabeni.be,Facility
BE,50.7948607,3.1220229,reizendehaene.be,Commerce
BE,50.7825656,5.459442,ksabasiliek.be,Commerce
BE,49.67301,5.5628737,boucherie-tock.be,Commerce
BE,50.8364407,3.4066057,smettiesfietsateljee.be,Commerce
BE,50.7229911,4.8718719,lamerveille.be,Commerce
BE,51.4327822,4.7540448,db-interieur.be,Unknown
BE,50.8572328,4.3523986,vlaamseprovincies.be,Facility
BE,51.2785922,4.714287,tcdekievit.be,Facility
BE,50.8871386,4.4736772,lymphology.be,Facility
BE,50.9747306,4.7196768,fietsentuincentrum.be,Commerce
BE,51.4689693,4.4667471,bistrodenbompa.be,Facility
BE,51.1132935,3.7040957,einsteinatheneum.be,Facility
BE,50.9018437,5.3208992,jvinterieurbouw.be,Commerce
BE,50.8813507,4.7096738,andersgetint.be,Commerce
BE,51.0350623,4.104041,vvwdendermonde.be,Facility
BE,50.7132941,3.8305808,lartiste-lessines.be,Facility
BE,50.9574726,5.0151142,braco-cleaning.be,Commerce
BE,51.1099176,3.6265023,biodezwaluw.be,Commerce
BE,50.5854287,5.4969845,auxsaveurscreatives.com,Commerce
BE,51.3143985,3.1322644,schoonheidsinstituut-luminosa.be,Facility
BE,50.8020518,3.233206,hetopengroene.be,Facility
BE,51.2175976,4.4012303,afvandevorst.be,Commerce
BE,50.7428385,4.2525943,juno-fotografie.be,Commerce
BE,51.0512256,3.7256975,hetmekkavandekaas.be,Commerce
BE,50.708964,5.6447021,pause-beaute.be,Facility
BE,50.4669746,4.86402,boutiqueramdam.com,Commerce
BE,51.2244923,4.9193977,torenhoflichtaart.be,Facility
BE,50.6846363,5.6430016,demir-immo.be,Commerce
BE,51.0555545,3.7266914,oceansushi.be,Facility
BE,51.2032604,4.1709522,den-binnenhof.be,Facility
BE,50.9504089,5.5023069,europaschoolgenk.be,Facility
BE,50.8451211,5.4467664,nollekeswinning.com,Facility
BE,50.6256639,5.1463624,moulindebraives.be,Facility
BE,50.6403159,5.5574534,entrechatsetmoi.be,Commerce
BE,51.1944278,5.0021435,hetdierenthuisje.be,Facility
BE,50.8736846,4.714914,therapieleuven.be,Facility
BE,50.8270814,3.2715144,hellasrestaurant.be,Facility
BE,50.9248781,2.6002429,petitbazarbelge.be,Commerce
BE,50.1898258,4.3593621,goldenlakesvillage.com,Facility
BE,50.2333149,6.0795352,actioncenter.be,Facility
BE,50.9404987,4.0309377,comarsport.be,Commerce
BE,51.1264703,5.0583287,kinderweelde.be,Facility
BE,51.2140398,3.2540813,doktersmoldersboonen.be,Facility
BE,50.9156209,3.6147082,vanderbauwhede.eu,Commerce
BE,51.2067329,4.4100084,driesotten.be,Unknown
BE,50.6420107,5.5722294,buronzugallery.be,Facility
BE,51.1323018,4.3889937,vanreethvastgoed.be,Commerce
BE,51.230521,4.4050374,dierenartsdas.be,Commerce
BE,50.7393748,4.761849,vergerdelachise.be,Commerce
BE,51.0551586,3.7266841,gandalifestyle.be,Commerce
BE,50.9165615,2.9562078,deooievaar.info,Facility
BE,51.3382603,3.2898909,knokkesea-bike.be,Commerce
BE,50.4637162,4.8647613,maroquineriepirlot.shop,Unknown
BE,50.9170279,3.2114491,engelbewaardervzw.be,Facility
BE,51.2773336,3.0292802,arcadeshoes.be,Commerce
BE,50.9914833,3.7359945,kvponderoza.be,Facility
BE,51.1800011,5.169371,verbroederingbalen.be,Facility
BE,51.0669612,5.0790154,lafarfalla.be,Facility
BE,50.8750357,4.951596,boerderijfines.be,Commerce
BE,50.8620626,4.2166939,klavertje-vier.be,Facility
BE,50.7530618,3.6016929,crowbarcycles.com,Commerce
BE,51.0759459,2.558582,realtobacco.be,Commerce
BE,50.9439061,4.9706892,dokterliesbeth.be,Facility
BE,50.9847145,5.051611,purewooddesign.be,Commerce
BE,50.8799731,4.7068279,vandenbalck.be,Commerce
BE,51.0314091,3.7609082,optiekhulpiau.be,Commerce
BE,50.8785927,4.571464,de-negensprong.be,Facility
BE,50.4392845,4.0107805,thierryenprimeur.be,Commerce
BE,50.7350729,4.2335538,deimmobiliers.be,Commerce
BE,50.9788294,3.533913,orthodegeyter.be,Facility
BE,50.0546917,5.2579759,chateaudemirwart.com,Facility
BE,50.6265166,5.5660667,au-concordia.be,Facility
BE,50.9011036,4.2197036,ksawalfergem.be,Commerce
BE,50.6405332,5.5735901,citedudragon.be,Facility
BE,49.5593967,5.7450681,bebesnature.be,Facility
BE,51.2211842,4.4043487,persepolis-antwerpen.be,Facility
BE,50.878636,4.6990956,resto-ribs.be,Facility
BE,51.0881034,2.9815805,regenboogkoekelare.be,Facility
BE,50.214877,4.8309634,au-plaisir.be,Facility
BE,50.7019404,4.4007867,starbussing.com,Commerce
BE,50.4284312,6.2032325,restaurant-bruels.be,Facility
BE,51.4485633,5.0877834,tulderheyde.be,Facility
BE,51.2623842,4.5504404,natuurlijkbloemen.be,Commerce
BE,51.0196073,3.7642805,vanruyskensvelde.be,Commerce
BE,51.4650206,4.4595929,electro-javado.be,Commerce
BE,51.0525204,3.7251223,eetcafe-uilenspiegel.be,Facility
BE,51.1282668,4.5781215,hofberlamuze.be,Commerce
BE,51.0493909,4.7360201,dap-avalon.be,Commerce
BE,50.8743457,4.7117362,escapehouse-emerantia.be,Facility
BE,49.6978615,5.3100309,leschocolatsdedouard.com,Commerce
BE,51.0598002,3.7324756,puzzleescaperooms.be,Facility
BE,50.6646447,4.5677776,coeurdesoie.be,Commerce
BE,50.9135019,5.3368893,grutman-floorconcepts.be,Commerce
BE,51.1997248,2.9286999,delangeschuur.be,Facility
BE,51.4632767,4.4555736,bakkerijbagatelle.be,Commerce
BE,50.4137308,4.1586401,electrodepannage-messina.be,Commerce
BE,51.1693869,4.3606027,freinetschooldepluim.be,Facility
BE,50.5752512,4.688958,marvellegembloux.be,Commerce
BE,51.2002297,4.7691966,internaatkvri.be,Facility
BE,51.033806,3.7146984,hotel-adoma.be,Facility
BE,51.2410448,4.583523,smetschilde.com,Commerce
BE,50.7157737,3.7456115,floydaddy-wodecq.be,Commerce
BE,51.0613395,5.3837396,elektro2000.eu,Commerce
BE,51.2151348,4.3946787,seventyone.be,Commerce
BE,51.2206644,4.4206806,restaurantthebest.be,Facility
BE,50.2363887,5.2892066,bois-travaux.be,Commerce
BE,50.9775015,3.0794008,optiekvanneste.be,Commerce
BE,51.1982247,3.1832777,huizewellecome.be,Facility
BE,51.1596806,4.0607984,staltuilenhof.be,Facility
BE,51.1292387,3.1613628,newholland.com,Commerce
BE,51.0560703,5.1605021,zeilclubsirocco.org,Facility
BE,51.0838046,5.1414251,folkfestivalham.be,Facility
BE,50.8133412,4.3386824,snack-tip-top.be,Facility
BE,50.8279164,3.2659139,natakortrijk.be,Facility
BE,50.5643226,5.2280555,fourneausainteanne.be,Facility
BE,51.4750282,4.7401073,martensevenementen.be,Unknown
BE,50.8522102,3.5083491,vbsdesterrenboom.be,Facility
BE,51.154964,3.1919188,kinecenterloppem.be,Facility
BE,50.8909244,3.8364614,detrouwehond.be,Facility
BE,50.941497,2.7512627,dezonnegloed.be,Facility
BE,50.4106688,4.1842393,veronique-musch.be,Facility
BE,51.1419164,4.3841698,boeketmobiel.be,Commerce
BE,51.0053406,3.7491428,clos-fleuri.be,Commerce
BE,51.0478025,3.7342372,annsofieverbrugge.com,Commerce
BE,50.6267443,5.5662159,getyourmugcoffee.com,Facility
BE,51.1257408,4.2143937,deknuffelbeer.com,Commerce
BE,50.6298031,5.5900156,peuple-et-culture-wb.be,Commerce
BE,50.7444028,3.2127111,leonidasgrandplacemouscron.be,Commerce
BE,50.7134404,4.2226351,denbloemenhoek.be,Commerce
BE,51.0118297,4.1934101,gbsbuggenhout.be,Facility
BE,50.91041,3.4236683,terrasdecor.be,Commerce
BE,50.4328444,6.0298531,lejardinfleuri.be,Facility
BE,50.8793774,3.7123374,boerderijdelekkerbek.be,Commerce
BE,50.8326782,4.3750381,adamserrurier.be,Commerce
BE,50.6778858,5.6315025,auxcapricesdeshotes.be,Facility
BE,51.0946891,4.5103262,chiroduffel-oost.be,Facility
BE,50.9350253,4.0220196,ibsodehorizon.be,Facility
BE,51.1603511,4.4288147,farmaciehenri.be,Commerce
BE,51.2203967,4.2911546,geertvanmol.be,Unknown
BE,51.2466996,3.1967754,stock-vermeersch.com,Commerce
BE,51.117425,2.625055,verhuringcalimero.be,Facility
BE,51.0247443,4.4771265,stitchandco.be,Commerce
BE,51.2396586,4.5809792,lobsterman.be,Commerce
BE,51.3140865,4.941688,azturnhout.be,Facility
BE,51.0884711,5.2443449,oogstvaneden.be,Facility
BE,49.9720817,5.6331248,efacfsibret.be,Facility
BE,50.8931958,4.4712765,miramartoursreisbureau.be,Commerce
BE,50.9860733,5.0545667,liesbethlaureyn.be,Facility
BE,51.1719487,5.1580908,brasseriedeorangerie.be,Facility
BE,51.321828,4.8587599,donboscobeerse.be,Facility
BE,50.7874102,3.0468814,tendonsieservices.nl,Commerce
BE,51.1627102,4.7516596,thebarn-outlet.be,Commerce
BE,51.221019,5.3986393,metalprojects-overpelt.be,Unknown
BE,51.2497039,3.2146887,metalunion.be,Commerce
BE,50.7943499,4.4807453,dewoudpoort.be,Facility
BE,51.4490463,4.496434,carrosserievrints.be,Commerce
BE,50.8354432,4.364614,thehouseofyoga.eu,Facility
BE,51.3612416,3.3272238,surfersparadise.be,Facility
BE,51.2195964,4.3995545,vertigo-antwerpen.be,Facility
BE,51.3136245,4.8958063,deopenkeuken.be,Commerce
BE,51.061345,3.7297663,homeopathierebry.be,Facility
BE,50.8766006,4.7045907,sanctamariabasisschool.be,Facility
BE,50.9809693,3.5320865,leiepoortdeinze.be,Facility
BE,50.7667503,3.67807,bedandbreakfast.be,Facility
BE,51.1807671,3.5708624,flandersfruit.be,Commerce
BE,50.0015858,5.7247378,americanlegion.be,Facility
BE,51.2393706,4.6527711,huisartsenhallezoersel.be,Facility
BE,50.8305771,3.2560514,texturekortrijk.be,Facility
BE,51.0214949,4.475294,bedandbreakfastmechelen.be,Facility
BE,51.0657443,3.7307508,victoriadeluxe.be,Facility
BE,51.1163719,5.2587587,tattoothor.be,Facility
BE,50.7118875,3.8311019,relax-et-vous.be,Facility
BE,51.2130149,5.4319498,hairpointjoyce.be,Facility
BE,51.3025857,4.4095828,autohandelivan.be,Commerce
BE,50.8789007,4.7068589,omniatravel.be,Commerce
BE,50.8429552,4.3687007,accessibletourism.org,Facility
BE,50.6247345,5.8332785,latabledelea.be,Facility
BE,51.0665987,3.6910225,casadeciclistas.be,Commerce
BE,50.6877188,4.3834605,espacekdanse.be,Facility
BE,51.2408899,4.9695595,optiekdevel.be,Commerce
BE,50.6427727,5.567793,livreauxtresors.be,Commerce
BE,50.3895659,5.4582611,giteadurbuy.be,Facility
BE,50.7670885,5.4415231,gbskoninksem.be,Facility
BE,50.8412194,3.3905731,coeman-decoratie.be,Commerce
BE,51.1975903,3.8123631,saltnpepper-zelzate.be,Facility
BE,51.2218561,3.2161054,kippentheetuin.be,Facility
BE,50.3422961,4.9071786,les4sources.be,Facility
BE,50.9193209,2.6240402,tspendiege.be,Commerce
BE,50.5835014,4.9453696,ecolesaintremyhanret.be,Facility
BE,50.5405892,5.4650199,aquagardencenter.be,Commerce
BE,50.9471959,4.7493016,studiobeauelle.be,Commerce
BE,51.0614495,3.731975,logosfoundation.org,Facility
BE,50.6393134,5.5736581,allaterrazza.be,Facility
BE,50.6178345,3.3806175,wantyoubike.com,Commerce
BE,51.064704,5.1074049,roadsweeper.be,Commerce
BE,51.3313746,3.2064146,martinsvisrestaurant.be,Facility
BE,51.3483566,4.6388582,destatiebrecht.be,Facility
BE,50.6119858,5.6164476,cheneeculture.be,Facility
BE,50.7956081,3.1856884,artmachine.be,Facility
BE,49.5076457,5.4747686,lescofiette.be,Facility
BE,50.9336515,3.6302063,kinemalego.be,Unknown
BE,51.1603497,5.1886775,geenendrank.be,Commerce
BE,51.1746211,4.3685112,donboscohoboken.be,Facility
BE,51.2405402,4.5830465,paironmuyldermans.be,Facility
BE,50.467874,4.862629,streetfood-namur.be,Facility
BE,50.6920675,4.3282652,espacepneus.be,Commerce
BE,50.9111458,4.1981046,shiva-asse.be,Commerce
BE,51.131915,4.9414575,speelsaloon.be,Facility
BE,50.7292971,4.2416613,apotheektanghe.com,Commerce
BE,51.2434488,3.2170811,enterbunker.com,Unknown
BE,51.1680774,3.0283453,vbsdetandem.be,Facility
BE,50.7895041,4.0877132,atletiekclubpajottenland.be,Facility
BE,50.6707737,4.6220633,horizonsneufs.be,Commerce
BE,50.8421925,3.6041986,steenhuyse.be,Facility
BE,51.2958236,4.4914926,prinskavelhof.be,Facility
BE,51.0506768,5.2243374,manjabroodjes.be,Facility
BE,50.8825333,4.6959992,bodycentrum.be,Facility
BE,50.8202714,5.3115337,wijncafemourvedre.be,Facility
BE,50.7817427,5.4655333,brasseriebijpeter.be,Facility
BE,51.4310372,4.7603759,nobelflooring.com,Commerce
BE,51.0004298,3.3275794,kantoorgvh.be,Facility
BE,50.8730445,5.4698489,hcterloght.com,Facility
BE,51.0493442,3.730669,bleucestgris.be,Commerce
BE,50.9223509,4.4250685,zorgvilvoorde.be,Facility
BE,50.4506816,3.9550304,brasseriedelondres.be,Commerce
BE,50.7385299,3.2531989,mim-mouscron.be,Commerce
BE,50.7117647,4.613147,lestresorsdeslutins.com,Commerce
BE,50.9813696,3.2729184,pure-schoonheid.be,Facility
BE,50.9925161,4.7061658,restaurantstef.be,Facility
BE,50.7335713,3.6799852,leterroirgourmand.be,Facility
BE,51.2523239,4.4474408,mecmerksem.be,Commerce
BE,50.8781348,4.7117817,coffee-bagel.be,Facility
BE,50.6666685,4.6106289,bruxelloiselln.be,Facility
BE,50.6853548,4.3102051,hugo-neumann.com,Unknown
BE,50.9481201,5.1079211,drinkcentervandepoel.be,Commerce
BE,50.9898867,4.7645399,hettolhuis.be,Commerce
BE,51.0479694,5.227362,buffaloresto.be,Facility
BE,51.203407,3.764026,debruyneagro.be,Facility
BE,51.0371332,3.7119335,bistrobaziel.be,Facility
BE,50.6961254,5.9679509,naturaldogacademy.be,Facility
BE,51.2202145,5.2811515,omniaflora.be,Commerce
BE,50.8859163,3.4317711,mobarbershop.com,Facility
BE,51.0771213,4.8134333,laeremansjan.be,Unknown
BE,51.0521877,3.7260698,lingerie-lineos.com,Commerce
BE,51.050879,4.4509965,cplusprinting.be,Commerce
BE,50.7167948,4.3997281,ladolcevita-commande.be,Facility
BE,51.3431876,3.2548988,myknokke-heist.be,Commerce
BE,50.9446636,4.6154052,denotelaarbuken.be,Facility
BE,50.9529086,3.6412275,concreto-betonvloeren.be,Commerce
BE,50.9165861,3.2295634,silvahairnailsbeauty.be,Facility
BE,51.1169783,5.2484235,scoutsgeleeg.be,Facility
BE,51.2995792,4.4888632,hwpnoordrand.be,Facility
BE,50.8795625,4.71127,design-district.be,Commerce
BE,50.9794133,3.5291084,kidsadventure.be,Facility
BE,50.69054,5.6347736,roller-tech.eu,Commerce
BE,51.3530923,4.3967159,2thejostudio.com,Facility
BE,50.9956272,3.8227396,mediaventures.be,Facility
BE,50.6223322,4.3108859,firsthorsesstable.be,Facility
BE,51.0258499,4.534289,kinesistbonheiden.be,Facility
BE,51.0664452,3.7329233,dehopduvel.be,Commerce
BE,50.903805,3.6522956,frituuramelot.be,Facility
BE,50.5159466,4.2618565,resto-augreduvent.be,Facility
BE,50.9295144,5.3402197,la-fontanella-hasselt.be,Facility
BE,50.4655924,4.8797905,brasserieduquai.be,Facility
BE,51.0802853,5.1415008,wijckmansnv.be,Commerce
BE,51.2134242,4.3980048,impressionhairdressing.be,Facility
BE,51.0689591,4.6932687,wachtpostheist.be,Facility
BE,50.6456192,4.8733018,lafleuriste.be,Commerce
BE,51.3561526,3.3034723,siversailles.be,Facility
BE,50.9844621,5.0520301,juwelenblauw.be,Commerce
BE,50.9475234,3.8628331,kinebavegem.be,Facility
BE,51.0595835,3.7244377,apotheek9000.com,Commerce
BE,50.4528317,3.9522682,hillsdonuts.com,Facility
BE,49.7389667,5.3436604,gitelasemois.be,Facility
BE,50.6061462,3.3836443,lescamuches.be,Facility
BE,51.2333751,4.1021499,meubelen-desmedt.be,Commerce
BE,51.1802435,3.0950404,immodereeper.be,Commerce
BE,50.9273894,5.092184,stroobantshout.be,Commerce
BE,51.0226258,3.0370245,vks-koeling.be,Unknown
BE,50.6767708,5.9297837,lacouronne.be,Facility
BE,51.1042559,5.163079,hams-tegel-center.be,Unknown
BE,50.4718484,4.4673464,pointcentre.be,Unknown
BE,51.3345209,4.3654287,chirokristal.be,Facility
BE,51.1967644,3.2274195,lichtschipmayflower.be,Facility
BE,51.1765473,3.7462552,vansteenberge.com,Facility
BE,50.956699,5.2794125,hansopdebeeck.com,Commerce
BE,51.1397447,4.755189,moccadorherenthout.be,Facility
BE,50.8882556,3.424108,wijnen-bdc.be,Commerce
BE,50.5971204,4.3245314,planetcoiffure.be,Facility
BE,50.8828815,4.7225215,carambolagelato.be,Commerce
BE,50.7025963,4.4027532,ziowaterloo.be,Facility
BE,51.1977273,5.4038631,ultimacarstore.be,Commerce
BE,50.5892824,4.5297798,moulindevillers.be,Facility
BE,50.5284682,5.0084134,restaurant-mimosas.be,Facility
BE,51.1252707,4.2145168,scheldeboorden.be,Commerce
BE,51.0238362,4.483011,bapitzemburg.be,Facility
BE,50.8975283,4.7023764,praktijk-thevillage.be,Facility
BE,51.1007539,2.5859226,drinkmarketpynseel.be,Commerce
BE,51.0814523,5.2187635,rbbouwcenter.com,Commerce
BE,50.6129668,3.331421,succes-du-jour.com,Commerce
BE,51.0043375,3.715999,praktijkmolenzicht.be,Facility
BE,51.1286873,5.8221684,sailcenterlimburg.com,Commerce
BE,51.0931399,3.0134999,fd-computers.be,Commerce
BE,50.5632428,4.6844842,malcourant-mecanique.be,Commerce
BE,50.4498402,4.8705653,demenagement-dubois.be,Commerce
BE,50.7292492,4.2422399,skincarenatalys.be,Facility
BE,50.9029259,4.6463032,fietsenbram.be,Commerce
BE,50.9389648,4.0199027,bebaballoon.be,Commerce
BE,50.9211355,4.7009056,softathome.com,Commerce
BE,50.856301,4.700933,basisschoolhhh.be,Facility
BE,51.2091351,4.4807428,kleuterschoolvoorhonden.be,Facility
BE,49.7181762,5.5540416,mcars-garage.com,Commerce
BE,51.0724771,3.3551945,studiosylvia.be,Commerce
BE,50.6647695,4.6119707,louvainlinux.org,Facility
BE,51.049876,4.4797225,hetreishuis.be,Commerce
BE,49.8312882,5.7329938,yanniketienne.com,Commerce
BE,51.4538916,4.5326634,dierenasielcanina.be,Facility
BE,51.0326353,3.804228,feelingerie.be,Commerce
BE,50.5499499,4.7193207,ateliersorcier.be,Facility
BE,49.7284966,5.2412416,laforgerie.be,Facility
BE,51.0443013,4.0940085,bajart-orthopedie.be,Commerce
BE,51.2017641,5.0978582,deverandering.be,Facility
BE,51.0169498,2.9588391,gbsdelinde.be,Facility
BE,51.1222573,4.2088875,ristorantebellavista.be,Facility
BE,50.862399,4.6353453,preci-dental.be,Facility
BE,50.8393283,4.3159181,mobilitycentervdb.com,Unknown
BE,50.8406321,4.4643925,ladolcevita-traiteur.be,Facility
BE,51.0224098,3.7195805,spdewonderboom.be,Facility
BE,50.9461703,3.2778732,sportschoolmeulebeke.be,Facility
BE,51.1957083,4.4224983,decooperant.be,Commerce
BE,51.3130006,4.8887855,bloemensas.be,Commerce
BE,50.8766535,4.7537383,scoutsbovenlo.be,Unknown
BE,51.219296,4.4142841,teabyteacoachken.be,Commerce
BE,51.0563326,3.4980433,littlecheesefarm.be,Commerce
BE,50.7368878,3.6737049,lespommierssauvages.be,Facility
BE,51.4000974,4.7611536,aertsenenpartners.be,Commerce
BE,50.635665,5.571899,bureaunelis.com,Commerce
BE,50.5624793,5.242858,boisdechampia.be,Facility
BE,50.8074173,4.933405,brasseriekronacker.be,Facility
BE,51.1351743,3.8009233,vvwmendonk.com,Unknown
BE,50.2625839,4.5235613,am-detailing.com,Commerce
BE,50.9927875,3.8110039,kouterranch.be,Facility
BE,50.7450616,4.2680144,immoquartier.be,Commerce
BE,50.8566968,2.8139817,westhoekturncentrum.be,Facility
BE,49.8549596,5.3791942,cooperativedugrandenclos.be,Commerce
BE,50.8380346,4.3725479,starofasia.eu,Facility
BE,50.970711,3.7349439,dierenartsmerelbeke.be,Commerce
BE,50.882422,4.6965583,autisme-adhd.be,Facility
BE,50.408733,4.4406708,sixtythree.be,Facility
BE,51.1068911,4.9154253,meatingpoint.be,Facility
BE,51.0738675,4.5260413,kfckatelijne.be,Facility
BE,50.7160637,4.625204,mauricecareme.be,Facility
BE,51.1701453,5.1666845,dekoffieklap.be,Facility
BE,50.5204155,5.2392766,atelierrock.be,Facility
BE,51.0783124,5.0902488,dentalteam.be,Facility
BE,50.9025899,4.0087034,devinotheek.be,Commerce
BE,50.8359006,2.9051586,toerismewesthoek.be,Facility
BE,51.0562821,3.7175709,hildedevolderchocolatier.be,Commerce
BE,51.1022681,4.7220358,notrebelgique.be,Unknown
BE,50.6701055,4.6032707,records-sports.be,Commerce
BE,51.2212449,4.4036742,the-playground.be,Commerce
BE,50.696545,4.0456908,centrefames.be,Facility
BE,51.2162577,4.4235701,zooantwerpen.be,Facility
BE,51.0856309,4.3619949,desteigerboom.be,Facility
BE,51.2559718,4.4222537,bulohetveer.be,Facility
BE,50.0451491,4.3078286,ville-de-chimay.be,Facility
BE,51.2120304,4.4292611,clo-antwerp.be,Facility
BE,51.4001643,4.7611956,aertsenmakelaars.be,Commerce
BE,51.2095932,3.2327132,karmamarkt.be,Commerce
BE,51.0556423,4.7158706,mattijsbouw.be,Commerce
BE,50.5349334,5.5396229,memoiredeneupre.be,Facility
BE,50.7987064,3.1945191,claeysenverbeke.be,Unknown
BE,51.0392919,5.5390672,agroseedservice.com,Commerce
BE,51.0338287,3.7379862,autogroep-servayge.be,Commerce
BE,49.5640795,5.7991695,planetejump.be,Commerce
BE,50.6947568,5.628014,lerendezvousdelea.be,Facility
BE,50.9583282,3.5427682,rumat-eggermont.be,Commerce
BE,50.9049253,3.3701829,munichmotors.be,Commerce
BE,51.2238537,4.5425026,zevenbunder.org,Facility
BE,51.0030032,4.6688438,royalkeerbergengolfclub.be,Facility
BE,51.0323361,4.4175045,twittegoud.be,Facility
BE,50.937224,5.2027291,hoevehetblokhuis.be,Commerce
BE,51.0029059,4.4828623,mauritssabbe.be,Facility
BE,51.1180366,4.3336365,maisonchique.be,Facility
BE,50.8811944,4.6994563,silver-stone.be,Commerce
BE,51.1820481,3.2148338,boudewijnseapark.be,Facility
BE,50.807652,3.8578025,clicktrackmusic.be,Commerce
BE,51.0763235,4.4024809,clacpercussie.be,Facility
BE,51.1666096,5.0036402,ontmoetingscentrumsintdimpna.be,Facility
BE,50.6033212,4.3341305,ecolenivelloisedaikido.be,Facility
BE,51.0457153,5.1862108,groupclaes.be,Commerce
BE,51.2106667,2.9151803,tfriethofoostende.be,Facility
BE,50.4693961,4.3287208,courcellesunipas.be,Facility
BE,51.2275728,4.418722,bistrotdunord.be,Facility
BE,51.2429156,4.5892582,tennisservice.be,Commerce
BE,50.8449096,3.2033866,delustigeslijters.be,Facility
BE,50.9631623,4.8006886,hoevewinkelboerkenijs.be,Commerce
BE,51.1850399,3.1783689,mpidekaproenen.be,Facility
BE,51.1366833,3.4205534,annickdekeyser.be,Commerce
BE,50.7449393,4.2682456,broodjes-halle.be,Facility
BE,51.225239,4.4088728,mundosalons.com,Facility
BE,51.2245903,4.4185769,bricoharput.be,Commerce
BE,50.4552876,5.5655321,sophieetnicolas.be,Facility
BE,50.718418,4.6101935,inforfamillebw.org,Facility
BE,51.2193175,4.3964222,hotel-sandt.be,Facility
BE,51.2245848,3.230186,ijsster-brugge.be,Facility
BE,50.8526811,5.3565055,ebikeverhuurhaspengouw.be,Facility
BE,50.952574,4.4500342,beukelaers.be,Commerce
BE,51.071512,5.0852458,pastapronto.be,Facility
BE,49.715409,5.7329531,aurore-thiaumont.be,Facility
BE,51.1203028,5.0183946,the-carwash.be,Commerce
BE,50.7787166,4.3414446,saintpaulregina.be,Facility
BE,51.0433417,3.7251002,tweedehandsfiets.net,Commerce
BE,50.8705421,2.9839669,lienoptiek.be,Commerce
BE,50.8229236,4.5021172,takeincare.com,Facility
BE,49.9520809,4.9701104,aeroclublesfaucons.com,Facility
BE,50.4138042,4.1809672,chauffage-ericdemory.be,Commerce
BE,50.8308859,4.3459623,greenmango.be,Facility
BE,51.2103031,4.4144584,jacqueskonig.be,Commerce
BE,50.46561,4.8653552,museedesartsanciens.be,Facility
BE,50.525847,5.2294151,croustybreak.be,Facility
BE,51.0407145,3.4046458,atelierpoekie.be,Facility
BE,50.8842377,3.4238158,uitvaartcentrumlefevre.be,Commerce
BE,51.3139873,4.4280381,platdujour22.be,Facility
BE,50.831794,3.2171925,petfuneralcenter.com,Unknown
BE,50.7333367,4.2320049,streekproductencentrum.be,Facility
BE,51.1236427,3.7364043,bakkerijkris.be,Commerce
BE,50.5253417,5.4555945,lesecuriesdoksana.be,Facility
BE,51.1281329,3.6454908,gbslovendegem.be,Facility
BE,50.8222578,5.3961417,herberghetklokhuis.be,Facility
BE,50.8237942,3.2713615,avansa-mzw.be,Facility
BE,51.2092419,4.4074355,atccruises.be,Commerce
BE,51.0327347,4.4756443,rijschoolactive.be,Facility
BE,51.0402905,3.7254478,andromedagent.be,Facility
BE,51.2286367,5.3131737,juweliers-vandeweyer.be,Commerce
BE,51.158507,3.0513716,wandelmeemetmij.com,Facility
BE,50.6890408,4.3236474,lejardindecaro.be,Facility
BE,51.1532787,5.5071424,bspieterbrueghel.be,Facility
BE,51.0996346,4.4035032,monheimlaw.be,Commerce
BE,51.0495944,3.8415362,dreamballooning.be,Commerce
BE,50.6298191,6.0710049,waldrestaurant.be,Facility
BE,51.0201453,5.115812,klj-vleugt.com,Facility
BE,50.7940045,3.1224842,finesse-menen.be,Commerce
BE,51.0946789,4.1240595,schilderwerken24.be,Unknown
BE,51.3124745,3.1282888,hotelrichmond.be,Facility
BE,50.9226206,4.9561002,hoevedepeinwinning.be,Commerce
BE,50.6652106,4.5673197,lecoupdcoeur.be,Facility
BE,51.1244895,5.8006991,coolen-dhz.be,Commerce
BE,50.6981061,5.6096468,rema-herstal.com,Unknown
BE,50.8031896,3.1579819,adiswerkkledij.be,Commerce
BE,51.2120011,4.4072492,redgallery.be,Commerce
BE,50.9002206,4.3602842,heliconiaflower.be,Commerce
BE,50.6137005,5.6153999,maisonbordet.be,Commerce
BE,51.0092316,4.0472603,weidegeluk.be,Facility
BE,50.4074888,4.4405114,livreouverre.be,Facility
BE,50.4226885,4.1873294,alsacez-vous.be,Commerce
BE,50.8297766,4.3475452,acasaintgilles.be,Facility
BE,51.088035,3.4479301,markantreclame.be,Commerce
BE,51.0539314,3.718244,indiancurryhouse.be,Facility
BE,50.7795957,3.0408749,marleensalomez.be,Commerce
BE,51.2144277,4.4053853,maagdenhuis.be,Facility
BE,50.7973091,3.6197383,hofketermusse.be,Facility
BE,51.0191415,4.472547,haarfijnmechelen.be,Facility
BE,51.0309594,3.812795,dacmalpertuus.be,Commerce
BE,50.4639358,4.8635799,tenconcept.store,Commerce
BE,50.4865076,5.0994722,ceramandenne.be,Facility
BE,50.6947403,5.2712122,tonton-tapis.be,Commerce
BE,51.2381623,3.2178343,super-visions.com,Unknown
BE,50.70898,4.4406711,churchillfinances.be,Unknown
BE,51.4089355,4.4794228,bunderblok.be,Facility
BE,50.9071606,4.665648,logopediekeiberg.be,Commerce
BE,50.3523349,5.4565598,lavieilledemeure.be,Facility
BE,50.7289415,4.8757001,cepesjodoigne.be,Facility
BE,50.9294735,3.6439084,boerinneke.be,Unknown
BE,50.6092502,3.3889539,umbeaumonde.be,Facility
BE,50.3197998,5.0065488,bouchat-oreille.be,Facility
BE,50.9355071,4.3272818,demuzevanmeise.be,Facility
BE,51.2094509,3.2284044,vanbelleghem.law,Commerce
BE,51.3491073,4.6387808,sint-michielschool.be,Facility
BE,51.0684578,5.1023444,24-7balance.be,Facility
BE,50.5984515,4.326722,impressionsdyves.com,Commerce
BE,51.0404423,4.4408408,taille-unique.be,Commerce
BE,51.3263588,4.9433168,corpuschristianorum.org,Facility
BE,50.8619267,3.5363263,architekst.com,Unknown
BE,50.8867612,3.9814401,frituurterlicht.be,Facility
BE,50.6478406,5.5531091,tchantches.com,Facility
BE,50.909016,4.2033551,bakkerijpascalina.be,Commerce
BE,51.1316332,4.9442951,baeck-groenbedrijf.be,Commerce
BE,50.7725095,4.5372752,denbontenos.com,Facility
BE,51.1882873,3.2135428,bakkerijcloet.be,Commerce
BE,51.1722392,4.6611227,dedriewilgen.be,Commerce
BE,50.8666792,4.6963149,alecbikestore.be,Commerce
BE,50.9807506,4.9768265,deleeuwvanvlaanderen.be,Facility
BE,51.054811,4.8847275,publi-sport.be,Commerce
BE,50.897394,4.4340748,ilbarinetto.be,Facility
BE,50.9567056,3.297205,libecohomestores.eu,Commerce
BE,51.0866374,4.6444929,ctmmotorhomes.be,Unknown
BE,50.429049,3.7405655,ecole-communale-thulin.be,Facility
BE,50.7310667,4.2386658,villaservais.be,Facility
BE,50.6317996,3.7781658,fauconsrouges.be,Facility
