country,lat,lon,website,place_type
CA,43.6133098,-79.562282,acurasherway.com,Commerce
CA,45.9750042,-61.1267364,thefarmersdaughtercountrymarket.ca,Commerce
CA,53.5226647,-113.4663299,institutguylacombe.ca,Unknown
CA,53.8136086,-101.2604027,halcrowlakegolf.com,Facility
CA,48.7789402,-123.6984399,buddiesnaturalpetfood.ca,Commerce
CA,43.657389,-79.4020809,beguilingbooksandart.com,Commerce
CA,43.6659781,-79.3875905,hairdistrict.ca,Facility
CA,49.7625765,-125.0413066,countryanimalhospital.ca,Commerce
CA,49.2655867,-122.9787358,whitelotuscafe.ca,Facility
CA,43.7105121,-79.3989103,fivepointsfamilyhealth.com,Facility
CA,48.4210431,-123.3713347,steamshipgrill.com,Facility
CA,45.4042956,-75.861184,nesbittsgreenhouse.ca,Commerce
CA,52.1230831,-106.667485,remaimodern.org,Facility
CA,50.1188204,-122.957173,mainstreetpoke.ca,Facility
CA,43.195296,-79.5641424,deutschedoner.ca,Facility
CA,51.1767139,-115.5712122,melissasmissteak.com,Facility
CA,45.1479038,-71.8061924,imprimerielarochelle.com,Commerce
CA,45.5191886,-73.5606229,denise-masse.ca,Facility
CA,44.501156,-80.217303,duncanscafe.ca,Facility
CA,44.1012201,-78.9379586,kristacraig.com,Unknown
CA,46.7634848,-71.3170999,sushisakura.ca,Facility
CA,43.675866,-79.3594516,ecolenapoleon.com,Facility
CA,49.2084792,-123.0810613,pjwhitehardwoods.com,Unknown
CA,45.5311303,-73.6078093,cafeodessa.ca,Facility
CA,49.6922188,-124.9983344,courtenaymuseum.ca,Facility
CA,56.2330992,-117.3267698,glenarmstrongconstruction.com,Commerce
CA,45.3754027,-75.7476345,theglassshop.ca,Unknown
CA,52.132173,-106.550339,waybackburgers.ca,Facility
CA,43.5477987,-80.2300828,guelph-unitarians.com,Facility
CA,49.8101475,-112.866339,bumbleberryhome.com,Commerce
CA,49.2636884,-123.107672,terrakendama.com,Unknown
CA,43.6536071,-79.4269842,number1sound.com,Commerce
CA,46.3912713,-63.7906713,holmancentre.com,Commerce
CA,46.2283459,-72.6157481,physiostfrancois.com,Facility
CA,49.0948974,-122.6548822,bowlineconstruction.ca,Commerce
CA,43.7698881,-80.0636085,kennedysflags.com,Commerce
CA,43.4418166,-80.5136696,cardieridental.ca,Facility
CA,49.2181024,-123.1754711,windsorstables.ca,Facility
CA,43.8261554,-79.2774964,gingerandonioncuisine.ca,Facility
CA,45.5410983,-73.5883506,montrealgongfu.com,Facility
CA,48.95317,-57.947388,cornerbrook.com,Facility
CA,49.8968208,-119.4882887,viceandvirtuebrewing.ca,Facility
CA,51.0531202,-114.0514808,lukesdrugmart.com,Commerce
CA,50.6764811,-120.3297729,underbellybythepig.ca,Facility
CA,49.1665305,-123.936793,flyingfishnanaimo.ca,Commerce
CA,53.8576806,-122.8140933,bonvoyageinn.ca,Facility
CA,45.6687194,-73.899969,assurancejones.com,Commerce
CA,45.4190241,-75.6882229,sttheresaottawa.com,Facility
CA,43.5496965,-79.5880738,lasergenesis.ca,Facility
CA,43.8583963,-79.5128795,maplehealthcare.com,Facility
CA,44.608339,-79.4203447,orilliaoperahouse.ca,Facility
CA,53.6025938,-113.4463444,londonderrymall.com,Commerce
CA,42.9233078,-81.3993339,circlerranch.ca,Facility
CA,49.138538,-121.964025,valleydentalgroup.ca,Facility
CA,44.6370634,-63.5952895,kingsbookstore.ca,Commerce
CA,44.6505578,-63.59626,saintantonios.ca,Facility
CA,45.5234898,-73.5950253,faberge514.com,Facility
CA,42.633517,-80.4891463,longpointcamping.com,Facility
CA,50.4502559,-104.6104692,globetheatrelive.com,Facility
CA,51.0652409,-114.0188759,crossroadspreschool.ca,Facility
CA,51.0707815,-114.0630323,calypsostaverna.com,Facility
CA,43.6478274,-79.5104212,cosonthekingsway.ca,Facility
CA,49.2141312,-122.9392676,bbautosaleslimited.com,Commerce
CA,45.8264018,-73.4228642,karatesunfuki.com,Commerce
CA,51.001052,-114.0700042,calgarymuffler.ca,Commerce
CA,44.4231091,-78.272824,divinecraft.ca,Facility
CA,43.788142,-79.2637889,cycleworldsuperstore.com,Commerce
CA,60.7307977,-135.0640791,midnightsuncoffeeroasters.com,Facility
CA,45.3983071,-71.9177557,villagedechine.ca,Facility
CA,45.549786,-73.5345531,lateliersportif.com,Facility
CA,43.446527,-79.6801088,hopedalepreschool.org,Facility
CA,45.5337215,-73.6194785,brasserieharricana.com,Facility
CA,53.2873984,-110.0050115,guardianplumbing.ca,Unknown
CA,49.221102,-122.9916564,kirpalgroup.ca,Commerce
CA,44.5402357,-78.5428222,gordonyachtharbour.com,Facility
CA,44.6798455,-76.3971341,rideaulakesdirectory.ca,Commerce
CA,49.323208,-123.0720777,sirprinting.ca,Commerce
CA,44.1025759,-77.5852108,trentonontario.com,Unknown
CA,47.4862371,-70.3032629,fermeeboulmontaise.ca,Commerce
CA,43.3695116,-80.983187,bijourestaurant.com,Facility
CA,49.2190603,-122.9786937,mastersolution.ca,Unknown
CA,45.5434064,-73.5975124,exterminationcentrale.com,Unknown
CA,48.4262425,-123.3213991,divinegems.ca,Commerce
CA,45.8638118,-76.7402755,maisonbryson.com,Facility
CA,49.2256026,-122.9918337,theresalocpa.ca,Commerce
CA,49.2313347,-123.0072959,sleepatdentist.com,Facility
CA,49.6930858,-112.8095283,twentyfourkarats.ca,Commerce
CA,51.1667261,-114.2221596,stoneytrailpit.ca,Commerce
CA,43.0299369,-80.855225,elmhurstinn.com,Facility
CA,43.3266433,-79.7965292,downtownbistro.ca,Facility
CA,43.8551699,-79.3857382,linkwavewireless.com,Commerce
CA,43.6514859,-79.475506,californiasunspa.com,Facility
CA,49.281268,-123.0173269,adaptspine.com,Facility
CA,49.3563551,-120.0779252,hedleymuseum.ca,Facility
CA,43.6410865,-79.5365625,standrewsislington.org,Facility
CA,53.3058902,-60.3484919,obrienartscentre.ca,Facility
CA,45.440692,-75.2403578,paroissestmathieu.ca,Facility
CA,43.5500501,-80.2319023,royalcityfitness.com,Facility
CA,49.6734792,-124.927161,desolationsoundyachtcharters.com,Unknown
CA,45.5186749,-73.5834421,boutiquetone.com,Commerce
CA,49.4036833,-124.6299912,blackbrooklodge.ca,Facility
CA,46.5362884,-84.330115,servicerentals.ca,Commerce
CA,42.976435,-81.1665038,skinoholic.ca,Unknown
CA,48.6374108,-73.0120027,pourvoiriedeladore.com,Facility
CA,43.265766,-79.9630878,dundaslittletheatre.com,Facility
CA,43.6578446,-79.401606,totthecatcafe.com,Commerce
CA,46.1295236,-79.3585552,highviewgolf.ca,Facility
CA,49.0307799,-122.3595758,levelgroundchurch.com,Facility
CA,53.398654,-117.5909494,foothillsdentalcentre.com,Facility
CA,50.9630627,-113.8985853,glenmorefabricators.com,Commerce
CA,49.0399547,-122.2766719,valleyeurotec.com,Commerce
CA,49.0373775,-122.2934616,letusmakeyousmile.ca,Facility
CA,43.7813521,-80.085588,sparteccomposites.com,Commerce
CA,43.4002611,-80.3680877,riversidefishhutmenu.ca,Facility
CA,43.6599458,-79.3787457,hasslefreeclinic.org,Facility
CA,52.446357,-116.1480733,frontierlodge.ca,Unknown
CA,49.2548493,-123.0901928,fraserstreettattoo.com,Facility
CA,49.2768573,-123.125489,lalotusnailspa.com,Facility
CA,52.1256356,-122.1197178,speedypeteyslube.com,Commerce
CA,55.3564791,-118.776578,sexsmithdentureclinic.ca,Facility
CA,53.7119105,-113.211215,fortsaskatchewan-gdoorscompany.ca,Unknown
CA,46.2548611,-63.1177802,charlottetownpeoplescemetery.ca,Facility
CA,44.7204262,-63.6716831,luxuryhairhalifax.ca,Unknown
CA,43.8338253,-79.3309278,canadafireblanket.ca,Commerce
CA,49.22793,-122.9968634,metrotownphysio.com,Facility
CA,51.0215141,-114.0451904,theimperialgroup.ca,Commerce
CA,53.5183849,-113.5112295,lillosmusic.com,Commerce
CA,46.1185115,-74.6035048,fleuristestjovite.com,Commerce
CA,45.5328273,-73.5529689,cafeligneverte.com,Facility
CA,43.8557425,-79.5134763,cpapmachinestore.ca,Unknown
CA,49.2787109,-123.0985309,massybooks.com,Commerce
CA,50.7171644,-113.3486868,aspencrossing.com,Facility
CA,49.3062175,-124.358464,expresscustom.ca,Commerce
CA,53.5448494,-113.4712925,breadbutteryeg.ca,Commerce
CA,48.4257802,-123.3679762,irishtimespub.ca,Facility
CA,49.2655989,-123.016037,digitalscapes.ca,Commerce
CA,46.7765729,-71.2429308,sandwicheriefastoche.com,Facility
CA,44.3120131,-79.873567,bordenangusstorage.ca,Commerce
CA,44.0803733,-80.2026399,happydragonexpress.ca,Facility
CA,45.527678,-73.5793089,legrandcormoran.com,Facility
CA,49.1124568,-122.6775459,westwardinnandsuites.com,Facility
CA,42.9546364,-81.4261494,hoskinfeed.ca,Commerce
CA,49.079251,-117.7996668,theflyingsteamshovel.com,Facility
CA,49.6367083,-116.9599864,kootenaylakeviewresort.com,Facility
CA,48.5013579,-123.3868757,victoriahellenicsociety.org,Facility
CA,53.5979409,-113.4889364,northgatecentre.ca,Commerce
CA,43.722063,-79.335904,signetgroup.ca,Commerce
CA,45.383304,-74.0106749,monconseiller.ca,Commerce
CA,43.8189855,-79.330789,metrosquare.ca,Commerce
CA,45.7961731,-63.3234717,malagashbiblecamp.com,Facility
CA,49.6819325,-124.9861861,freshtracksphysio.ca,Facility
CA,49.2470366,-122.9369635,russell-lighting.com,Unknown
CA,51.0126034,-114.1416802,goldenleafchineserestaurant.ca,Facility
CA,43.6675133,-79.4020699,bloorstreetunited.org,Commerce
CA,42.2930071,-82.7085257,tshirtmonkey.ca,Commerce
CA,44.2620707,-80.5508209,nicolinsurance.com,Commerce
CA,46.8088562,-71.1803377,letremplinlevis.com,Facility
CA,52.3218686,-112.7053925,lawlorjewelry.com,Commerce
CA,49.2218622,-122.6599878,mapleridgecrc.com,Facility
CA,48.4305355,-123.342366,somavictoria.ca,Facility
CA,50.1110329,-122.9596015,tantaluslodge.com,Unknown
CA,43.7552692,-80.6712773,alamodecafe.ca,Facility
CA,49.0409463,-122.3163879,maxineswigsandtoupees.com,Facility
CA,49.6297267,-124.9999653,nelsonroofing.com,Unknown
CA,45.5387693,-75.1579723,vergersvilleneuve.com,Commerce
CA,46.1343558,-73.5586885,fermeresilience.com,Facility
CA,45.4848904,-75.6819296,radiojeunesse.ca,Facility
CA,49.0445378,-122.8057874,staroftheseaschool.ca,Facility
CA,45.6088226,-76.4867756,universdesbambinosuniverse.com,Facility
CA,49.8825734,-97.1505033,granitecurlingclub.ca,Facility
CA,49.0230662,-123.06916,graciesnextdoor.ca,Facility
CA,47.5684213,-53.5560101,dildobrewingco.ca,Facility
CA,44.4943959,-80.0469205,donatohouse.com,Facility
CA,49.2558104,-123.087543,kilisnackhouse.com,Facility
CA,49.8689572,-97.1596615,santaluciapizza.com,Facility
CA,49.0478951,-122.2898807,salonvivah.ca,Facility
CA,49.2620486,-123.138864,divalingerie.ca,Commerce
CA,44.3660593,-64.3206754,atlanticviewmotel.ca,Facility
CA,43.6466252,-79.4061555,brassvixens.com,Facility
CA,45.551314,-73.6143042,inmediatech.co,Commerce
CA,49.9246824,-97.1690197,greenwoodspediatricdentist.com,Facility
CA,49.304143,-124.3317711,popeandsons.com,Commerce
CA,43.523912,-79.7104145,natscanada.com,Commerce
CA,46.9605475,-69.7777959,saintpamphile.ca,Facility
CA,60.6492231,-135.0163384,pioneer-rv-park.com,Facility
CA,48.4822271,-123.394336,habitatvictoria.com,Commerce
CA,45.9620321,-66.6394188,frederictonregionmuseum.com,Facility
CA,48.8477707,-67.554353,motellamarina.com,Facility
CA,45.3547431,-75.8069299,littleindiacafe.com,Facility
CA,43.818962,-79.1139223,floristpickeringdurham.com,Commerce
CA,50.9790642,-114.0617842,shampoochgrooming.ca,Commerce
CA,51.0836982,-114.0960251,deafandhearalberta.ca,Facility
CA,46.3501177,-72.6168922,isabellelepinemassotherapeute.com,Facility
CA,49.2812705,-123.0851473,strathconabeer.com,Commerce
CA,43.6607002,-79.3422784,goodmarketthriftstore.com,Commerce
CA,43.5633395,-80.2803832,vinniesmrfixit.com,Commerce
CA,44.2387185,-76.569213,coppensacademy.com,Facility
CA,43.8700974,-79.866654,loghomedental.com,Facility
CA,42.0353564,-82.9179831,jemaesthetics.com,Facility
CA,45.3957655,-73.9613452,smokemeatpete.com,Facility
CA,43.2550338,-79.9317774,fairweatherbrewing.com,Commerce
CA,49.0936747,-119.7144824,sevenstones.ca,Commerce
CA,43.7741885,-79.7789672,tvaninnursery.com,Commerce
CA,43.0532209,-81.2958077,arvaflourmill.com,Commerce
CA,42.9037322,-79.6148041,gracedunnville.ca,Facility
CA,49.8597524,-119.5517614,andreens-pharmacy.ca,Commerce
CA,49.5100158,-115.0630753,snowvalleylodging.com,Facility
CA,45.3985055,-71.9113072,elitecoiffure.ca,Facility
CA,44.2174164,-79.5730938,innisfilindy.com,Facility
CA,43.6509183,-79.4790418,snappersfish.com,Commerce
CA,51.1054243,-114.1600916,stanleyaccounting.ca,Commerce
CA,48.4312974,-123.3583122,momosushivictoria.ca,Facility
CA,45.4849108,-75.4673993,capitalgems.ca,Facility
CA,43.6571648,-79.4033684,creatroninc.com,Commerce
CA,44.3552778,-80.5507064,beavervalley.ca,Facility
CA,49.2112984,-122.93543,tiffanysgrooming.com,Commerce
CA,49.2552568,-122.7314345,celebrationpartyrentals.ca,Commerce
CA,45.4935911,-73.5645054,expertshipping.ca,Facility
CA,45.4213343,-75.6965562,fastplumber.ca,Commerce
CA,44.354189,-78.7393998,cornerbites.ca,Facility
CA,43.6933829,-79.7681689,henrysfishnchips.com,Facility
CA,49.2299542,-124.7927958,mobileonsiterv.com,Commerce
CA,46.7841983,-71.2887017,paradoxetatouage.com,Facility
CA,45.4823892,-75.6257363,stetrinite.ca,Facility
CA,43.820657,-79.3883849,greenlanevet.com,Commerce
CA,43.8743939,-79.260268,advancedmedicine.ca,Facility
CA,43.5240004,-79.6822363,summitgarden.com,Facility
CA,43.4595594,-80.5187002,bauerloftswaterloo.com,Commerce
CA,43.5111781,-80.1753731,guelphsikhsociety.ca,Facility
CA,49.0902825,-123.0845074,sapporokitchenladner.com,Facility
CA,49.0285327,-122.2644291,naturespickins.ca,Commerce
CA,50.8801165,-113.9761913,cranstonvethospital.com,Commerce
CA,43.7075323,-79.3983102,functionbar.ca,Facility
CA,49.0574238,-122.3146632,kraftemsstudio.ca,Facility
CA,48.4469894,-123.4765424,millstream-minis.com,Commerce
CA,50.6316235,-96.9843787,gimliartclub.com,Facility
CA,53.2770031,-110.1298641,nelson-homes.com,Commerce
CA,52.1246942,-106.6706919,escapesports.ca,Commerce
CA,48.4401257,-123.3738729,ilesauvage.com,Commerce
CA,48.425732,-123.337039,derykhouston.com,Unknown
CA,52.3290947,-106.2904895,aberdeenrecplex.ca,Facility
CA,43.0485683,-79.0594763,bettysrestaurant.com,Facility
CA,51.0301442,-114.0557386,readersgardencafe.ca,Facility
CA,48.4233415,-123.3477122,kindredspiritsveterinaryhospital.com,Commerce
CA,53.521742,-113.5125684,cafeuppercrust.ca,Facility
CA,44.5674187,-80.9435644,curry-house.ca,Facility
CA,54.322837,-126.668363,moricemountainnordic.ca,Facility
CA,49.305391,-124.2602506,parksvillemuseum.com,Facility
CA,44.7224312,-63.6710782,izzysbagel.com,Facility
CA,49.2629959,-123.0981845,houseofteeth.com,Facility
CA,49.2573361,-123.0907176,liveobeauty.com,Facility
CA,49.0512078,-122.303932,simpsonthomas.com,Commerce
CA,45.5820874,-73.6078432,centrespiritejac.org,Facility
CA,44.6419399,-64.0372365,hookedrugmuseumnovascotia.org,Facility
CA,52.944769,-66.9090793,artsandculturecentre.com,Facility
CA,51.0582016,-113.9854329,franklinautorepair.ca,Commerce
CA,52.768181,-108.3016755,chapelgallery.ca,Facility
CA,43.6599382,-79.8132443,polkadotsplayland.com,Facility
CA,49.9174876,-119.3994194,sexsmithselfstorage.com,Commerce
CA,48.9449315,-125.5549579,canadianprincess.com,Facility
CA,49.2597756,-123.070086,theburrowrestaurant.com,Facility
CA,45.404238,-75.712361,thegladstone.ca,Facility
CA,46.8721501,-71.3368728,alfredcloutier.com,Commerce
CA,43.7449707,-81.7106721,lakeshoreuc.org,Facility
CA,45.7108707,-63.28501,tatamagoucheheritagecentre.ca,Facility
CA,45.5324592,-73.5964387,hindusthali.com,Facility
CA,45.5325488,-73.573472,velo-urbain.ca,Commerce
CA,43.6810653,-79.4295343,roastfinefoods.com,Commerce
CA,49.4726234,-123.7578068,runwithsoupsechelt.com,Facility
CA,42.9874184,-81.2271328,asmaracoffeehouse.com,Facility
CA,43.5401887,-79.6135044,ststephensuc.ca,Facility
CA,43.8641451,-79.3852541,energyauditontarioinc.ca,Unknown
CA,50.981415,-113.9416396,gouldstainless.com,Commerce
CA,53.2745395,-110.0062096,northernfactorysurplus.com,Commerce
CA,43.7021162,-79.7387477,tikkajunctioncanada.com,Facility
CA,43.958384,-78.1672961,ganaraskacu.com,Facility
CA,51.0390477,-114.1005648,scarborounited.org,Facility
CA,45.5521516,-73.5711811,slabrosemont.org,Facility
CA,51.1753279,-115.570768,chayabanff.com,Facility
CA,49.2783489,-123.116222,rosedaleonrobson.com,Facility
CA,43.6496301,-79.3932125,redwoodperforms.com,Commerce
CA,43.3886288,-80.349954,procraftconstruction.ca,Commerce
CA,44.5436855,-79.6768209,carriageridgeresort.ca,Facility
CA,50.5424596,-126.8316763,atthewatersedge.ca,Facility
CA,42.9914105,-80.592173,rcsnorwich.com,Facility
CA,51.0426188,-114.0794355,thebikeshop.com,Commerce
CA,52.3178689,-106.5746282,warmaneyecare.ca,Commerce
CA,49.9392665,-97.1679939,canadawestbootsfactoryoutlet.com,Unknown
CA,45.5180972,-73.5696478,otakulounge.com,Facility
CA,43.0756973,-79.9470054,stpatrickscaledonia.com,Facility
CA,43.561686,-79.5746348,youngerbody.ca,Facility
CA,43.6013715,-80.3081548,nuwaykitchens.ca,Commerce
CA,50.7513765,-121.9344178,xwistentours.ca,Facility
CA,43.6393884,-79.4433498,parkdalevets.com,Commerce
CA,45.0295081,-64.8377479,rickbalsorwelding.com,Commerce
CA,48.4380272,-123.3130061,willowsfamilydental.com,Facility
CA,46.309916,-79.465351,northbaymuseum.com,Facility
CA,49.2076977,-123.144599,vancouvermontessorischool.com,Facility
CA,53.5465633,-113.7838987,thewallcoffeeroasters.com,Facility
CA,45.5223852,-73.579137,billyjaifaim.com,Facility
CA,45.5024519,-73.5726015,leaveshouse.com,Facility
CA,51.0331647,-114.0619616,symbolsyndication.com,Commerce
CA,50.7385274,-114.03183,littlemonkeymetal.com,Commerce
CA,43.2013796,-79.5599687,youhadmeatpizza.com,Facility
CA,44.4983065,-80.2481328,sidelaunchbrewing.com,Commerce
CA,45.5188356,-73.5598507,dermapiderme.com,Facility
CA,46.1089769,-70.6691262,gymdelouest.com,Facility
CA,50.0129997,-114.9198014,mountainmeadowsgolf.com,Facility
CA,44.7338585,-63.6536609,o2wellness.ca,Facility
CA,49.489398,-117.301469,discovernelson.com,Facility
CA,45.3930629,-75.7520014,alicjaconfections.com,Commerce
CA,45.3987202,-71.9055511,levintage5080.com,Facility
CA,46.5069155,-72.7158193,plomberiemontcarmel.com,Commerce
CA,43.8912475,-79.2664323,heritagemusicacademy.ca,Facility
CA,44.5777379,-80.896391,vandolders.com,Unknown
CA,45.407721,-75.6912229,capitalbarbershop.ca,Facility
CA,43.5798325,-79.7109612,thefranklinhouse.ca,Facility
CA,49.2806846,-123.039564,hastingscc.ca,Facility
CA,49.0640507,-122.3262357,twistersgymbc.com,Facility
CA,42.3309152,-82.9333186,saintsimeonchurch.com,Facility
CA,49.2081645,-124.0027253,newcastleengineering.com,Unknown
CA,43.666493,-79.475426,junctionshul.org,Facility
CA,53.4960035,-113.5177604,garage-repairs-edmonton.ca,Commerce
CA,49.1695496,-122.5767465,blacksmithbakery.ca,Facility
CA,45.5431451,-73.5676201,cafekujira.com,Facility
CA,43.447878,-80.4535131,stanleyparkchurch.ca,Facility
CA,45.2626074,-75.4356268,stanleysfarm.com,Unknown
CA,44.7746247,-62.7590448,murphyscamping.ca,Facility
CA,51.0204889,-114.0603778,daysinn-calgarysouth.com,Facility
CA,45.4587823,-73.5715823,dragondechine.ca,Facility
CA,49.6185322,-124.028255,paintedboat.com,Facility
CA,49.5737963,-119.6317765,summerlandmotel.com,Facility
CA,49.3184096,-124.2980495,skylitemotel.com,Facility
CA,45.391011,-75.680989,trinityottawa.ca,Facility
CA,45.3564006,-65.5383748,stmartinscountryinn.ca,Facility
CA,45.3619431,-73.30415,centredentairest-luc.com,Facility
CA,46.2356084,-63.12466,reinvented.net,Commerce
CA,51.0506994,-113.8274771,findadepot.ca,Facility
CA,49.2433186,-124.8027749,coralnastrmt.ca,Facility
CA,43.6405208,-79.538302,canadianarest.com,Facility
CA,49.88458,-97.1833526,amusengames.ca,Commerce
CA,51.1093142,-114.0400713,f2furnishings.ca,Commerce
CA,49.6975083,-112.7800109,pip-international.com,Commerce
CA,50.9613605,-113.9077879,innovativefallprotection.ca,Commerce
CA,50.026112,-125.2442527,lateedalingerie.com,Commerce
CA,43.9239364,-78.9178171,mexico-lindo.ca,Facility
CA,49.2796859,-123.0986023,ks-projects.ca,Unknown
CA,46.2337015,-63.1251961,stdunstanspei.com,Facility
CA,43.8495954,-79.3493058,firstmarkhamplace.com,Commerce
CA,51.0145625,-114.122834,wildrosebrewery.com,Facility
CA,49.8897742,-119.497133,kelownayachtclub.com,Unknown
CA,43.5784213,-79.6853458,thequeenclinic.ca,Facility
CA,49.1708265,-123.136968,empirerestaurant.ca,Facility
CA,43.4188675,-80.4472772,tekniksalon.com,Facility
CA,49.2906533,-123.136931,tangosmeats.com,Commerce
CA,45.9709649,-66.6335797,macleanssports.com,Commerce
CA,44.3562496,-79.6444978,barrie-flowers.ca,Commerce
CA,43.485111,-79.714062,oakvillechiropracticclinic.com,Facility
CA,43.494492,-80.5707139,trinityemc.com,Facility
CA,50.4875771,-120.8180061,loganlakeautosales.ca,Commerce
CA,48.42634,-123.31466,remax-camosun-victoria-bc.com,Commerce
CA,48.8237605,-64.4414629,chantier-naval.com,Facility
CA,45.4477901,-73.2792208,fourquet-fourchette.com,Facility
CA,43.5465574,-80.2500678,newagehealthfood.com,Commerce
CA,43.7563394,-79.4732699,alphatextbooks.com,Commerce
CA,43.2063431,-79.5982154,niagarainformation.ca,Commerce
CA,45.2958376,-66.032494,middletonandassociates.ca,Commerce
CA,45.5540312,-73.5320463,rocknronde.com,Commerce
CA,43.3180121,-80.0836508,planborganicfarms.ca,Commerce
CA,49.2606255,-122.890324,imagine-cannabis.ca,Commerce
CA,51.0242861,-114.1101575,livelifewell.ca,Facility
CA,49.1266611,-123.190482,littlemexicocantina.ca,Facility
CA,43.9842886,-77.4220624,hinterlandwine.com,Commerce
CA,49.2348651,-124.8135706,cghairstudio.ca,Facility
CA,43.6228192,-79.5415349,metalogics.ca,Commerce
CA,51.0417529,-114.068928,lochgallery.com,Facility
CA,45.4454352,-74.2630827,paradisosspa.com,Commerce
CA,53.5236169,-113.511578,ergo-studio.com,Commerce
CA,49.2814113,-123.049572,laughingbeancoffee.com,Facility
CA,49.6913285,-83.6873248,hearstforest.com,Commerce
CA,43.3516512,-80.5356192,thenewdundeeemporium.com,Facility
CA,46.3445016,-79.4433087,ameetingofminds.ca,Commerce
CA,50.691714,-120.3593232,jamaicankitchen.ca,Facility
CA,45.5196956,-73.5739478,veroniquedaragon.com,Commerce
CA,49.704101,-112.8235451,springrollslethbridge.com,Facility
CA,49.8861793,-119.4917983,maryclaris.com,Facility
CA,45.6227655,-61.9913607,antigonishtownhouse.com,Facility
CA,50.9756758,-114.0701387,digitalpost.ca,Commerce
CA,45.3173492,-75.6501988,spotterswiki.com,Unknown
CA,43.6712442,-79.2950865,castroslounge.com,Facility
CA,45.4583126,-73.5719283,ecoledeconduiteacom.com,Facility
CA,43.2144291,-80.1404104,josmaracres.com,Commerce
CA,43.1578884,-79.2200256,pinecrestgunclub.com,Commerce
CA,45.528501,-73.578919,gypsystarboutique.com,Unknown
CA,50.6252876,-116.0680704,raftingtherockies.com,Commerce
CA,45.4205033,-75.6950181,themetcalfehotel.com,Facility
CA,47.5060599,-52.975195,conceptionbaysouth.ca,Facility
CA,51.4842472,-114.6466982,skouttsurveys.ca,Commerce
CA,49.2804382,-123.118103,tractorfoods.com,Facility
CA,44.3792859,-65.0213138,queenscountyfair.ca,Facility
CA,51.0531152,-114.0436062,doodledogsyyc.com,Commerce
CA,49.2675615,-123.0711152,palomacoop.ca,Facility
CA,49.7304536,-54.1782614,fogoislandinn.ca,Facility
CA,43.3358595,-79.8133128,brantcycle.ca,Commerce
CA,43.6385954,-79.6257825,canadianartwholesalers.ca,Commerce
CA,43.0122547,-81.2453644,orshalomlondon.org,Facility
CA,49.8577514,-97.1523375,salisburyhouse.ca,Facility
CA,43.686317,-79.3987164,101stclair.com,Commerce
CA,43.6592648,-79.4842182,hoopdriver.ca,Commerce
CA,49.2173345,-122.9806839,rtbsafetraffic.com,Commerce
CA,53.5402885,-113.9767052,stonyplaininn.com,Facility
CA,45.4853717,-75.6411714,lafoliedesbonbons.ca,Commerce
CA,43.6278697,-79.4966045,tomsdairyfreeze.ca,Facility
CA,43.7294525,-79.418272,fusionartzcafe.com,Facility
CA,48.9241742,-125.537508,wildpacifictrail.com,Facility
CA,45.1339934,-71.8045959,boutiqueboutchoux.com,Commerce
CA,53.3562334,-113.2424326,globalsportresources.com,Commerce
CA,43.5989776,-79.6603825,themaharaja.ca,Facility
CA,42.9787184,-81.2424673,caribbeanstovepickup.ca,Facility
CA,45.0405658,-79.3089335,fashionclosetmuskoka.com,Commerce
CA,43.6307874,-79.5756666,bloormillvet.ca,Commerce
CA,43.0064244,-79.1253107,warnerranchandpumpkinfarm.com,Commerce
CA,53.6336067,-113.6277272,museeheritage.ca,Facility
CA,45.315942,-80.0395379,rosepointmarina.com,Facility
CA,45.4308106,-73.8236006,dizzsbagel.ca,Facility
CA,51.0420323,-114.1405612,suesalterations.ca,Facility
CA,51.0424634,-114.0746666,lastbestbrewing.com,Facility
CA,51.0083301,-114.0816319,urbanvenus.ca,Facility
CA,43.5301439,-80.2542411,waterstreetchurch.ca,Facility
CA,45.5211995,-73.5535278,artefarina.ca,Commerce
CA,50.5502141,-96.629119,juanmorething.com,Commerce
CA,49.2321533,-123.0305266,vancouverkarate.com,Facility
CA,49.2788051,-123.070601,caffelatana.ca,Facility
CA,45.1571592,-64.4202467,villagecoffeehouse.ca,Facility
CA,43.6596669,-79.368036,torontoflooding.ca,Commerce
CA,47.4413485,-70.5006328,gitefleury.com,Facility
CA,48.7753088,-123.2615719,twinislandcider.com,Commerce
CA,49.5030174,-115.061903,ferniemuseum.com,Facility
CA,54.1479859,-113.8795698,westlockag.ca,Facility
CA,46.1577105,-73.6720034,cpaetincelle.com,Unknown
CA,49.0575522,-122.2740557,homelifeabbotsford.ca,Commerce
CA,43.6716577,-79.3830294,migrationlawgroup.com,Commerce
CA,48.4255804,-123.3598574,forgevictoria.com,Facility
CA,45.2115502,-74.5968976,saintraphaelsruins.com,Facility
CA,43.6624394,-79.422796,torontogold.com,Commerce
CA,54.1424574,-115.6846504,whitecourt.ca,Facility
CA,43.6522435,-79.4480707,gelinasdentalstudio.com,Facility
CA,49.2385727,-122.861932,coquitlamheritage.ca,Facility
CA,49.1921407,-123.9738358,kimchalmers.ca,Commerce
CA,50.0240289,-125.2403146,pierstreetcomputers.com,Commerce
CA,43.5396177,-79.6621147,insidestory.ca,Commerce
CA,43.5444046,-79.588719,tribuncare.com,Commerce
CA,51.177513,-115.570567,bowvalleycu.com,Facility
CA,43.6417364,-79.4316157,craigscookies.com,Facility
CA,49.296596,-117.6398557,doukhobor-museum.org,Facility
CA,49.2380309,-123.032291,sunflowerbubbletea.com,Facility
CA,43.2099775,-79.601389,elipsisdayspa.com,Facility
CA,45.5104413,-75.2156234,centrerogerseguin.org,Facility
CA,43.1703967,-80.2366512,bellcitybrewing.com,Commerce
CA,44.0007459,-77.1582162,quintepaint.com,Commerce
CA,49.3799303,-121.4398251,hopecinema.ca,Facility
CA,49.6945622,-112.8375193,boarderlineskateshop.ca,Unknown
CA,53.2792461,-110.003142,flavoursandrolls.com,Facility
CA,44.3251024,-80.1059213,heirloom142.com,Commerce
CA,43.7731142,-79.5302177,radioworld.ca,Commerce
CA,45.5009324,-73.646667,chloesalad.ca,Facility
CA,45.2670495,-75.9290415,mahoganysalonandspa.com,Facility
CA,49.1160625,-121.9979927,rogersfoods.com,Commerce
CA,43.7596359,-79.4112584,greatartmusic.com,Facility
CA,45.5213154,-73.5784815,ichigoichie.ca,Facility
CA,48.4533462,-68.523427,lebienlemalt.com,Facility
CA,49.2652713,-122.977548,hydeparkins.com,Commerce
CA,52.132508,-106.5568261,wilsonslifestyle.ca,Commerce
CA,49.0376409,-122.2740653,coastalriverspet.com,Commerce
CA,43.8205865,-79.3908509,royaltyinkstudio.com,Facility
CA,49.2620334,-123.070496,riotheatre.ca,Facility
CA,49.1915855,-122.9916586,columbiaglazing.com,Unknown
CA,46.2326885,-63.1288499,freshmedia.ca,Commerce
CA,43.6126124,-79.6859298,elsheikhdental.com,Facility
CA,53.5111242,-113.4870401,totemoutfitters.ca,Commerce
CA,46.8096864,-71.2206785,gaocomptoirvietnamien.com,Facility
CA,45.4908285,-73.5790476,cca-bookstore.com,Commerce
CA,48.4238019,-123.3683789,inlinguavictoria.com,Facility
CA,50.6975349,-120.36942,kamloopsjudo.com,Facility
CA,49.2051669,-122.915861,angelakerslakefamilylaw.com,Commerce
CA,45.2763285,-75.8844268,windowguru.ca,Unknown
CA,50.116586,-122.9479668,arbutusroutes.com,Commerce
CA,45.512313,-73.5622913,ste-elisabeth.com,Facility
CA,49.3481893,-124.4452914,qualicumpetfoods.com,Commerce
CA,50.048348,-123.1326611,whistlerrvpark.com,Facility
CA,50.6178888,-116.0700731,thelidomotel.com,Facility
CA,49.1919186,-122.824275,henlongmarket.ca,Commerce
CA,52.8766112,-118.0816918,athabascahotel.com,Facility
CA,44.7685601,-76.6905624,belongsharbotlake.ca,Facility
CA,46.5672666,-61.0274047,wavesendrv.ca,Facility
CA,47.9281539,-84.8056725,whitefangmotel.com,Facility
CA,46.7784366,-71.2467525,mounthermoncemetery.com,Facility
CA,49.2290743,-122.892608,thezestylemonclothing.com,Commerce
CA,53.6192364,-113.4897405,yogalifestudios.ca,Facility
CA,49.2112416,-119.8101067,robinridgewinery.com,Commerce
CA,49.7823418,-124.9936816,kcnaturalbliss.ca,Facility
CA,47.5899349,-69.7344438,gorendezvous.com,Facility
CA,46.9615936,-71.3927877,maraisdunord.com,Facility
CA,49.675447,-112.8005485,swirlslethbridge.ca,Commerce
CA,49.2102364,-122.9246238,vistanewwest.com,Facility
CA,44.6441241,-63.5788004,theshopsplurge.com,Commerce
CA,52.3827403,-114.920337,stdominicschool.ca,Facility
CA,53.2701698,-113.5640731,studio5smartcuts.ca,Unknown
CA,51.0435207,-114.0742602,internatenergy.com,Commerce
CA,49.2199841,-68.1520597,maisonanitalebel.org,Facility
CA,42.9936479,-81.2153307,vietnamrestaurant.ca,Facility
CA,43.6656636,-79.4092301,kensingtonnaturalbakery.ca,Commerce
CA,49.264314,-123.173526,parthenonmarket.ca,Commerce
CA,44.475504,-80.0738138,wasagadental.com,Facility
CA,49.0639604,-123.0185491,kingslinks.ca,Facility
CA,52.3275834,-112.7121649,stettlerfcf.ca,Facility
CA,44.7599924,-79.6977437,swiftoutside.com,Commerce
CA,45.4099428,-75.7089866,jadeliving.com,Commerce
CA,49.2636918,-123.132745,gohikeoutdoor.com,Commerce
CA,52.9771571,-122.4975979,ulyssesquesnel.ca,Facility
CA,49.7719861,-119.7384533,peachlandhistory.ca,Facility
CA,53.5255639,-114.0069232,goodtimetattoo.com,Facility
CA,50.1153444,-122.95476,mongoliegrill.com,Facility
CA,50.281555,-119.2509753,stussisport.com,Commerce
CA,49.2314044,-123.1010406,vancouverbahai.org,Facility
CA,45.522165,-73.5786273,descarydescary.com,Commerce
CA,44.9952434,-64.1713491,windsorelms.com,Facility
CA,45.4186627,-74.0503958,lecafenorah.com,Facility
CA,45.5477073,-73.5924887,boutiqueddd.com,Commerce
CA,45.3512858,-71.9449622,plomberiemariocote.ca,Unknown
CA,49.8345211,-97.1474426,rupertsland.ca,Unknown
CA,49.6877033,-124.993794,trailbicycles.ca,Commerce
CA,43.9542815,-78.9616971,brooklinpub.com,Facility
CA,46.6161084,-72.6900873,votrefleuriste.ca,Commerce
CA,51.049289,-114.0005608,calgaryduilawyer.ca,Commerce
CA,45.4459159,-75.5957231,ogilviedental.com,Facility
CA,45.3984863,-71.9145509,restaurantoverflow.com,Facility
CA,46.1150715,-64.6966425,ljpattersonmoncton.com,Commerce
CA,43.8803413,-78.9420437,nicebistro.com,Facility
CA,53.7123434,-113.2170208,fortheritageprecinct.ca,Facility
CA,60.7197037,-135.0506453,edgewaterhotelwhitehorse.com,Facility
CA,43.45429,-80.5182456,harpandfin.ca,Commerce
CA,43.761031,-79.4102444,ontariovirtualschool.ca,Facility
CA,49.0547715,-122.2850027,gatewaycrc.org,Facility
CA,49.8066817,-97.1432729,bluebombers.com,Commerce
CA,49.6711504,-124.9295283,harbourair.com,Unknown
CA,45.4320675,-75.6891452,safarigrill-restaurant.com,Facility
CA,49.6784248,-96.6010812,lilacresort.com,Facility
CA,49.02414,-122.3790826,whitetablecatering.com,Commerce
CA,52.6699725,-113.5937679,ponokastampede.com,Facility
CA,49.2316722,-123.0050558,thebabysense.ca,Commerce
CA,43.6589839,-79.4854503,pageandpercival.com,Commerce
CA,43.5468396,-79.5925112,creditlandinganimalhospital.com,Commerce
CA,45.3989847,-74.1333116,centreeducatif.ca,Facility
CA,48.4224798,-123.304498,stcmontessori.ca,Facility
CA,42.1054671,-82.422128,camperscove.ca,Facility
CA,49.7215572,-123.1432056,squamishdays.ca,Facility
CA,51.1678599,-115.5691662,beautifulbanff.ca,Facility
CA,43.7942221,-79.3325741,industrypainting.ca,Commerce
CA,43.8611157,-79.3945548,congee-wong.com,Facility
CA,43.551973,-79.585553,papagiuseppes.com,Facility
CA,43.1108549,-80.7198891,bossmokedfish.com,Commerce
CA,51.0379864,-114.073047,lonelymouthbar.com,Facility
CA,50.9545524,-114.1298721,mycedarbrae.ca,Facility
CA,45.2728851,-66.084467,sjpowerboatclub.com,Facility
CA,43.4920639,-79.6746004,uniglobeadvhouse.com,Unknown
CA,50.9838321,-114.0512974,blackforestwood.com,Unknown
CA,46.8117224,-71.3120193,centreautoduberger.com,Commerce
CA,43.4715497,-80.592865,thejavagarden.ca,Facility
CA,45.4395399,-75.6771436,booksonbeechwood.ca,Commerce
CA,45.3135374,-72.6412141,chateaubromont.com,Facility
CA,43.2517766,-79.8514187,hamiltonvictoriaclub.com,Facility
CA,49.285279,-122.7908294,evergreenculturalcentre.ca,Facility
CA,43.6770606,-80.4289971,vitospizzaelora.com,Facility
CA,43.1925693,-79.3911402,victoriashores.org,Commerce
CA,53.5680443,-113.2884709,emeraldhillsvet.com,Commerce
CA,51.0463431,-114.067536,majortombar.ca,Facility
CA,49.2825214,-122.7965389,ninjabubbletea.com,Facility
CA,49.2180474,-122.593666,midtownmedicalclinic.ca,Facility
CA,43.5670985,-79.6595553,lioncityrestaurant.ca,Facility
CA,43.5299563,-79.7682209,pipersheath.com,Facility
CA,45.5514697,-73.5891965,massokinesport.com,Facility
CA,45.5160602,-73.5650449,wafflestreet.nyc,Facility
CA,49.1699619,-122.577578,littledonkey.ca,Facility
CA,43.0985818,-79.0941006,eventective.com,Facility
CA,44.7159513,-63.6761762,jadorenails.ca,Facility
CA,43.5039337,-79.6369452,carprideautospa.com,Commerce
CA,45.515883,-73.5655461,hotelmanoir.ca,Facility
CA,49.050853,-122.3384696,kismetyogaandfitness.com,Facility
CA,43.6552892,-79.4025961,ozzysburgers.com,Facility
CA,45.3941298,-75.6831823,hairrepublic.ca,Facility
CA,52.1267519,-106.6804985,citycentrechurch.ca,Facility
CA,46.1204693,-70.6707384,lecaferoyal.com,Facility
CA,43.8314901,-80.0290212,rjtasteofasia.ca,Facility
CA,43.7441614,-79.6424716,irangetoronto.com,Unknown
CA,49.9013392,-97.1408277,actualgallery.ca,Facility
CA,49.2211354,-122.9799475,coastweldingsupplies.ca,Commerce
CA,45.9635567,-71.9578416,erabliereauxpetitsplaisirs.ca,Facility
CA,49.2635982,-123.128409,raincitytattoos.com,Facility
CA,49.2631642,-123.0205478,bridgestudios.com,Facility
CA,44.6043497,-64.6037261,lahaverivercampground.ca,Facility
CA,43.8890148,-79.3150765,appleblossomscenter.com,Facility
CA,44.5821903,-76.316856,simmonscottages.com,Facility
CA,53.3339158,-113.5987815,radtorqueraceway.com,Facility
CA,45.4771698,-73.5929666,securithor.com,Commerce
CA,43.2123533,-79.8564356,ironchefchineserestaurant.ca,Facility
CA,43.3666401,-80.076532,flamborovalley.com,Facility
CA,49.2050801,-122.9037683,amigostravel.ca,Unknown
CA,51.7926085,-114.1072841,oldsmuseum.ca,Facility
CA,45.5501575,-73.5734636,lasuccursale.com,Facility
CA,48.9462874,-125.5517468,bayshorewaterfrontinn.com,Facility
CA,43.6228894,-79.5195451,buongiornocaffe.ca,Facility
CA,43.8402562,-79.0855014,drtomortho.ca,Facility
CA,43.5629649,-79.7102503,hwmedicalspa.com,Facility
CA,43.0222748,-81.1159556,philadelphiachurchlondon.com,Facility
CA,49.1388918,-119.5662626,stoneboatvineyards.com,Commerce
CA,49.2832655,-123.0978958,stlawrencerestaurant.com,Facility
CA,49.8978093,-97.139569,rosecoffeeandwine.ca,Facility
CA,43.6420584,-79.4251236,freegeektoronto.org,Commerce
CA,45.5258548,-73.5814497,laplanquetattoomtl.com,Facility
CA,43.651252,-79.3720516,cafeorodinapoli.ca,Facility
CA,44.3265338,-80.1062032,chinchinshop.ca,Commerce
CA,49.8825548,-119.4669754,havenhairkelowna.com,Facility
CA,43.694798,-79.7725824,proactivehealthclinic.ca,Facility
CA,49.2650018,-123.1098104,thestudionorth.com,Facility
CA,51.0384115,-114.079522,oohlalawomenswear.com,Commerce
CA,49.2330912,-123.0141249,wonderpointwc.com,Facility
CA,45.7390507,-72.6195746,repertoiredesdefunts.com,Facility
CA,50.9802512,-113.9425812,apfittings.com,Commerce
CA,45.2072997,-72.7274875,andresactouris.com,Commerce
CA,53.795955,-113.6240601,fourwindsschool.ca,Facility
CA,43.7229766,-79.2934889,epicplanetfun.ca,Facility
CA,52.1432664,-106.6516361,perfectionplumbing.ca,Unknown
CA,49.1856845,-123.1294413,pearlcastle.com,Facility
CA,49.2414265,-122.764165,highmarkplumbing.com,Unknown
CA,62.1111014,-136.2671988,coalminecampground.com,Facility
CA,43.6521419,-79.4478866,galleryhouse.ca,Facility
CA,49.1035452,-122.741204,ccmequipment.com,Commerce
CA,43.6485641,-79.3874977,rosensunshine.com,Commerce
CA,60.695533,-135.1351752,whitehorsenordiccentre.ca,Facility
CA,49.4212945,-123.6430402,spiritandsophie.com,Unknown
CA,43.7051564,-79.7259841,bramaleaoptometry.com,Unknown
CA,45.4352974,-75.6999288,ottawarowingclub.com,Facility
CA,49.0399818,-122.3720184,silhouetteenclosures.com,Unknown
CA,45.8849167,-72.4886986,aubiermicrobrasserie.com,Facility
CA,49.5820035,-119.6478941,kaleidoscopefruitranch.ca,Commerce
CA,45.5027874,-73.5796083,appartementsluna.com,Commerce
CA,45.5220854,-73.5747817,lejardindepanos.com,Facility
CA,49.2812492,-122.9972839,roberthallrcc.com,Facility
CA,45.5955344,-73.721176,jmadiagnostics.com,Facility
CA,43.6267514,-79.478923,aceofspadesweed.com,Commerce
CA,45.5227219,-73.5797822,carreblanc.ca,Commerce
CA,43.473558,-80.537141,kensushihouse.ca,Facility
CA,53.5094063,-113.697098,rivercreeresort.com,Facility
CA,43.6883105,-79.5059438,yorkhumber.ca,Facility
CA,48.9217622,-55.2810184,mountpeytonoutfitters.ca,Facility
CA,43.6705816,-79.3828087,halecoffee.com,Facility
CA,43.6108705,-79.6977729,heartland-health.ca,Facility
CA,52.3278863,-112.7041971,thrive360fitness.com,Facility
CA,49.2182153,-122.957809,bdvietcuisine.ca,Facility
CA,43.6475491,-79.4867252,physioplushealth.com,Facility
CA,49.0503591,-122.2890872,avenuebodyshop.ca,Commerce
CA,49.6900238,-125.000928,vvboutique.ca,Commerce
CA,48.7191357,-123.619277,venturischulze.com,Commerce
CA,49.1759912,-123.8316983,wildrosegarden.ca,Commerce
CA,51.2975543,-116.9626243,kickinghorsemovies.com,Facility
CA,43.4472734,-80.4925437,opheliaonqueen.com,Commerce
CA,49.1921606,-123.9915671,ladybugfloral.ca,Commerce
CA,45.218466,-66.1719123,fundyfence.ca,Unknown
CA,43.8594808,-79.9964438,caledonvet.com,Commerce
CA,43.2523324,-79.9295832,westsidebc.org,Facility
CA,53.5368435,-113.5929834,k-9christian.com,Facility
CA,44.5010718,-80.2314769,kamikazebikes.com,Commerce
CA,49.3285973,-123.1575828,savaryislandpiecompany.com,Commerce
CA,49.246206,-123.101504,woovintage.com,Commerce
CA,43.5976403,-79.7596876,prodigymartialarts.ca,Facility
CA,47.4440116,-70.5150615,lesbonyeuses.ca,Commerce
CA,42.9792287,-81.2472802,good-sport.ca,Facility
CA,44.2392184,-76.5453344,puttnblast.com,Facility
CA,49.0339954,-122.2737372,firstpagemarketing.com,Commerce
CA,43.9303342,-78.8938468,theembassychurch.ca,Facility
CA,45.4001024,-74.1391873,chezmaurice.ca,Facility
CA,44.7260826,-63.7003641,driven-auto.com,Commerce
CA,49.2853081,-123.1183154,hotellesoleil.com,Facility
CA,48.3685927,-53.3581367,trinityhistoricalsociety.com,Facility
CA,45.0457534,-64.7367331,feedsnneeds.ca,Commerce
CA,45.5449189,-73.6385975,yogashakmontreal.com,Facility
CA,49.0444742,-122.280704,ambitionsalon.ca,Facility
CA,44.4985625,-80.2178855,collingwooddentistry.ca,Facility
CA,49.1852647,-119.5501975,olivertheatre.ca,Facility
CA,53.5420723,-113.3114725,sweetcreationsbyjohnlory.com,Commerce
CA,45.0417926,-79.3120101,theoldstation.ca,Facility
CA,43.6538505,-79.4258668,follybrewing.com,Facility
CA,43.5627398,-79.5731931,firstaid4u.ca,Commerce
CA,45.3242852,-75.7795304,cruzadodentures.ca,Facility
CA,44.4235572,-78.2719667,herodfinancial.com,Commerce
CA,43.5430422,-80.3067731,neutronelectronics.com,Commerce
CA,49.383164,-123.3513847,knickknacknook.org,Facility
CA,49.0480176,-122.2908323,verdebeautylounge.com,Facility
CA,43.6653303,-79.4095896,puedmaginkpire.com,Facility
CA,43.6512196,-79.4766044,bloorwestmusicstudios.com,Facility
CA,49.2794857,-122.968433,creainnovations.com,Unknown
CA,43.6481355,-79.398709,thegrandindiandining.com,Facility
CA,43.7924924,-79.448395,bathurst-steelesdental.com,Facility
CA,45.3123091,-75.8964885,mintandhoney.ca,Commerce
CA,45.5450916,-73.5768825,cliniquemulti.com,Facility
CA,43.7297579,-79.4318568,vitalmobility.ca,Unknown
CA,43.8307306,-79.3522921,habitatrestore.ca,Facility
CA,43.4506426,-80.4902628,legacygreens.com,Commerce
CA,43.4470958,-79.6897202,techvilleonline.com,Commerce
CA,53.542947,-113.482668,talltoweredmonton.com,Unknown
CA,44.1624353,-77.3692013,rfaplanningconsultant.ca,Commerce
CA,49.2276662,-122.8525527,scootercity.ca,Unknown
CA,43.8714574,-79.7672031,banasstones.com,Commerce
CA,43.6593837,-79.4383539,sweetpetes.com,Commerce
CA,56.2411753,-120.7544877,northernlightsraceway.ca,Facility
CA,45.5590141,-73.5442361,360lagence.com,Commerce
CA,48.6791283,-123.4580656,deepcovemarket.com,Commerce
CA,44.5333618,-78.1450941,wantasaresort.net,Commerce
CA,43.6930579,-79.7683208,mainstreetdentaloffice.com,Facility
CA,45.4791292,-73.6326165,montreal-cac.org,Facility
CA,45.4949143,-74.0314795,tomahawkcycles.com,Commerce
CA,50.9222722,-114.0616017,fatherlacombe.ca,Unknown
CA,49.5138632,-121.4202442,gridlockrvcampground.com,Facility
CA,45.3771662,-63.2710508,truroraceway.ca,Unknown
CA,46.0277029,-73.6923354,campinglafierte.com,Facility
CA,49.2641495,-123.0172339,celticcontractors.ca,Commerce
CA,51.0379426,-114.076734,comeryblock.com,Facility
CA,45.518713,-73.5778841,chezjosecafe.com,Facility
CA,43.1493072,-79.3696587,rpmbakehouse.com,Commerce
CA,49.285625,-123.1210263,cookiesbygeorge.com,Commerce
CA,49.2830427,-123.1041282,fromanother.ca,Commerce
CA,45.5941054,-73.5812596,polycliniquelevasseur.ca,Facility
CA,49.1798282,-123.9731884,davesinteriorrenovations.ca,Commerce
CA,42.2257145,-83.0965141,saloncortacouture.com,Unknown
CA,45.5150055,-73.5753107,harrytoulch.com,Commerce
CA,43.6474845,-79.5117715,allev8massagetherapy.com,Facility
CA,43.2543702,-79.8862454,thelocallife.ca,Commerce
CA,44.9613564,-63.5142833,sangstersautomotive.com,Commerce
CA,45.4681937,-73.6298077,madisonbaptistmontreal.com,Facility
CA,43.6521966,-79.3710914,massage-matters.ca,Facility
CA,50.1187023,-122.95744,crepemontagne.com,Facility
CA,42.7863593,-81.1693392,railwaycitybrewing.com,Commerce
CA,49.8456006,-119.5592655,thehatchwines.com,Commerce
CA,49.8815024,-97.1704002,nothingperfume.com,Unknown
CA,50.4045746,-104.6331907,bethjacobsynagogue.com,Facility
CA,50.5320541,-103.6676973,townofindianhead.com,Facility
CA,45.5561358,-73.5306942,etoiledepacho.ca,Commerce
CA,45.2641167,-74.1296416,curlingvalleyfield.com,Facility
CA,53.5237551,-113.467705,bulgogihouse.ca,Facility
CA,50.9925477,-114.0654946,newlevelbrewing.ca,Facility
CA,43.6064181,-79.5851061,steamulsauna.ca,Unknown
CA,45.5411554,-73.6229488,villeraypizzeria.com,Facility
CA,45.4874499,-73.5670831,centredentaireagispatz.com,Facility
CA,43.7838081,-79.1701876,creekcoffeeco.com,Facility
CA,43.5559546,-79.5823628,northshoredentistry.ca,Facility
CA,49.1713836,-123.8482842,gabriolamuseum.org,Facility
CA,46.8200743,-60.7958776,themountainview.com,Facility
CA,46.7795203,-71.3032624,micrologic.ca,Commerce
CA,45.4974756,-73.6593682,cliniqueovo.com,Facility
CA,44.1635389,-77.3816741,theregiment.ca,Commerce
CA,43.7305188,-79.7902467,cardboardmemories.ca,Commerce
CA,49.228181,-122.9980886,metropolis-comics.com,Commerce
CA,43.669563,-79.3016951,eatmiramira.com,Facility
CA,43.7813833,-79.4072269,suttonsgardensupplies.com,Commerce
CA,49.2389819,-122.9622513,trotterandmorton.com,Commerce
CA,49.2609848,-123.1007601,burdockandco.com,Facility
CA,58.4360257,-129.9871884,arcticdivide.ca,Facility
CA,51.0326658,-114.0722731,klopprichards.com,Commerce
CA,43.400264,-80.3672666,nsenvironmental.com,Commerce
CA,43.5426896,-79.6260968,supremewindows.com,Commerce
CA,43.5585611,-79.5779072,mypurebalance.ca,Facility
CA,49.9741785,-98.2907456,sandybaycfs.org,Facility
CA,45.0964302,-71.5539535,hebergementmonthereford.com,Facility
CA,45.532875,-73.60588,chibitattoomtl.com,Facility
CA,45.6071682,-74.5850414,tradeexcanada.com,Commerce
CA,53.6668833,-113.3407992,ststephenscemetery.ca,Facility
CA,49.2771572,-123.116319,cornerpantry.ca,Commerce
CA,49.8783251,-119.4411273,untouchableinhair.com,Facility
CA,49.3202286,-124.3061198,parksvilleanimalhospital.ca,Commerce
CA,50.9154916,-114.0632664,crossingsdance.com,Facility
CA,43.6472002,-79.5304645,academyhealthcentre.com,Facility
CA,47.4494036,-79.6312555,haileyburybeachmotel.com,Facility
CA,45.5091557,-73.5484737,mtlzipline.com,Facility
CA,45.2920109,-73.2102513,terre-mere.ca,Commerce
CA,43.5929397,-79.6425094,szechuanszechuan.com,Facility
CA,44.5315445,-79.4331385,shawsmaplesyrup.ca,Facility
CA,44.3359788,-79.8230685,phoenixbuilding.ca,Commerce
CA,43.6585252,-79.4875719,sidorovainwood.com,Commerce
CA,45.0809081,-67.0586189,heathercurling.club,Facility
CA,46.2360992,-63.2069183,cornwallpe.ca,Facility
CA,43.7063892,-79.2311898,reelactioncharters.ca,Unknown
CA,45.4750456,-75.7046675,lacademiegatineau.ca,Facility
CA,49.2626254,-122.8390166,evergreenorthodontics.ca,Facility
CA,53.8259444,-101.2419648,thegrubbox.ca,Commerce
CA,49.6726411,-124.9244589,comoxmuseum.ca,Facility
CA,45.4793519,-73.5720717,restaurantkrood.com,Facility
CA,49.0977688,-123.0159309,villagefarms.com,Commerce
CA,49.8726735,-97.1425064,carraratile.ca,Commerce
CA,49.3804243,-123.3447759,floorsmodern.com,Commerce
CA,43.6478392,-79.3830959,epicbaskets.com,Commerce
CA,43.5329837,-80.2329606,artgalleryofguelph.ca,Facility
CA,45.4568933,-73.5676756,boutiquebrockart.com,Commerce
CA,51.1007922,-113.9776088,bigchiefmeatsnacks.com,Commerce
CA,48.4286917,-123.3635491,thedockvictoria.com,Commerce
CA,45.5278057,-73.5792,detatouageskn.com,Facility
CA,50.0425977,-125.1806897,islandbliss.ca,Unknown
CA,50.6873202,-120.356755,brighteyebrewing.com,Facility
CA,49.2753291,-123.0692588,mindatlargemeds.com,Unknown
CA,49.2289343,-123.1175693,jewishmuseum.ca,Facility
CA,53.611817,-113.6480312,amaranthfoods.ca,Commerce
CA,43.6877932,-79.4912508,skullstore.ca,Facility
CA,45.538761,-73.6243318,lunetterieora.com,Commerce
CA,51.0379369,-114.0726146,onenightstans.ca,Facility
CA,45.49733,-73.6226017,lecaravanecafe.com,Facility
CA,43.4525006,-80.493611,waterlooregion.org,Facility
CA,43.6647926,-79.4185841,oneillcentre.ca,Facility
CA,44.4111415,-76.0167828,leeds1000islands.ca,Facility
CA,43.2505344,-79.8690223,bigbeestores.ca,Commerce
CA,53.2819294,-110.0038633,citylocksmithing.com,Commerce
CA,48.4319829,-123.369484,thedukesaloon.com,Facility
CA,53.4796148,-113.5019053,dentaldivas.ca,Facility
CA,43.1308921,-79.2000672,juliestireandauto.com,Commerce
CA,49.9147415,-97.210254,buffalodrivertraining.com,Commerce
CA,43.7415188,-79.381366,cfccreates.com,Facility
CA,43.6405782,-79.4351938,piaparkdale.com,Commerce
CA,49.0443539,-122.2937687,littlekoalamontessori.com,Facility
CA,49.4209133,-91.6797359,agimaklake.com,Unknown
CA,51.0329979,-114.1498321,myglendale.ca,Facility
CA,44.0804332,-80.202677,shelburnetownpharmacy.ca,Commerce
CA,49.2768367,-122.83867,coastalwellnessbc.com,Facility
CA,49.2539709,-123.0208244,sunsetheightscoop.ca,Facility
CA,45.4818782,-75.4735595,crownpointeanimalhospital.com,Commerce
CA,51.0098305,-114.0816657,primarycolours.cafe,Facility
CA,44.3416616,-79.6810265,parkplacenailsbarrie.ca,Facility
CA,45.5134652,-76.5532607,irishcreekoutfitters.net,Commerce
CA,43.7599836,-79.411648,artdecoinc.ca,Commerce
CA,43.8343993,-79.3479159,millergroup.ca,Commerce
CA,50.8576122,-92.7947757,lacseulwalleye.com,Commerce
CA,52.2271043,-113.8068262,westernerpark.ca,Facility
CA,44.2581359,-76.4572411,northernhelm.com,Commerce
CA,43.5837154,-79.7782765,homeofdentistry.ca,Facility
CA,49.0614124,-122.800796,morgangate.dental,Facility
CA,48.4349536,-89.2196133,tomlinrestaurant.com,Facility
CA,43.8913572,-79.2664715,papachangs.com,Facility
CA,53.5231799,-113.5125549,metrocinema.org,Facility
CA,48.4227378,-123.3446464,thecraigmyle.com,Facility
CA,43.5345984,-80.3048867,tooldoctor.ca,Commerce
CA,49.2254218,-122.9918744,coastalreflections.ca,Unknown
CA,43.6597815,-79.4800329,thepottery.ca,Commerce
CA,49.2636562,-123.007797,directliquidation.ca,Commerce
CA,49.1921705,-123.980263,blueflameventures.com,Unknown
CA,51.9412602,-114.3866705,garringtonchurch.com,Facility
CA,55.2411137,-118.7726557,colterheavyduty.com,Commerce
CA,49.2796993,-123.0983026,sparrowchinatown.com,Commerce
CA,48.4470114,-68.5216252,dixieleerimouski.com,Facility
CA,49.2703015,-123.1359968,kidsmarket.ca,Commerce
CA,50.2345339,-119.3639754,vernonyachtclub.com,Facility
CA,45.533253,-73.5837697,soloboutique.com,Commerce
CA,43.4353782,-80.4901934,kwmedicineshoppe.ca,Commerce
CA,47.0564552,-52.8874523,innoncapelinbay.com,Facility
CA,45.4880441,-77.6755934,giftitgray.ca,Commerce
CA,46.293954,-83.300705,birchlandcottages.com,Facility
CA,45.5897119,-73.5830107,ecoquartiersaintleonard.org,Unknown
CA,43.6236015,-79.5667674,crystalgrand.ca,Facility
CA,49.3541782,-124.4335655,crownmansion.com,Facility
CA,43.2521695,-79.870274,bsidesocial.ca,Facility
CA,44.3631149,-76.0130436,villagequay.com,Facility
CA,51.0966929,-114.061986,goldensandscalgary.ca,Facility
CA,42.9562118,-80.0576956,stmary-stannparish.net,Facility
CA,49.2839405,-123.125555,kaenvancouver.com,Facility
CA,45.1360736,-71.8056941,salonfunerairecoaticook.com,Commerce
CA,49.2898328,-123.127829,armitanotary.ca,Commerce
CA,43.5171714,-79.8504021,hannahqnails.com,Facility
CA,49.113659,-122.6613582,travelandrvcanada.com,Commerce
CA,54.3102207,-130.3223348,blackrooster.ca,Facility
CA,45.3998262,-74.1366146,symbiosedentaire.com,Facility
CA,52.1259801,-106.6727502,spokensport.com,Commerce
CA,49.2548685,-123.0211402,azromotors.com,Commerce
CA,45.4202107,-75.5965441,pineviewottawa.com,Facility
CA,49.2587896,-122.9803847,bcairfilter.com,Commerce
CA,51.0547196,-114.0943879,wholelifego.com,Facility
CA,49.1116277,-122.6770837,hudsonautocare.com,Commerce
CA,43.6387098,-79.65152,detailroof.ca,Commerce
CA,49.6953938,-112.7832212,readyengineering.com,Commerce
CA,42.9853585,-81.2445208,wabisabihair.ca,Facility
CA,49.8882074,-97.1407821,downtownfamilyfoods.ca,Commerce
CA,53.4548624,-113.563162,spaceenginesystems.com,Commerce
CA,49.2806199,-122.7924811,cafedorothy.ca,Facility
CA,62.1660735,-112.6825869,blachfordlakelodge.com,Facility
CA,48.7924386,-123.736644,sundayscoffeebar.com,Facility
CA,44.9855764,-63.4887205,easthantssportsplex.ca,Facility
CA,43.762782,-79.4042922,ontarioironworkers.com,Commerce
CA,44.176182,-77.3918395,collegesportsbelleville.com,Commerce
CA,49.2249994,-123.0316808,littleoakchildcare.ca,Facility
CA,43.8593896,-79.3647162,firstbasesolutions.com,Commerce
CA,48.9530118,-54.6054145,steelehotels.com,Facility
CA,51.1146954,-113.9801983,alliancerenovations.ca,Commerce
CA,43.7645939,-79.4122353,yongedentalcare.com,Facility
CA,51.1742984,-115.5730166,thebanfffarmersmarket.com,Commerce
CA,45.9000342,-79.9864596,whitebirchescamp.com,Facility
CA,50.980856,-118.1837123,journeysperch.com,Facility
CA,45.4902191,-73.851524,hyundaigabrielouest.com,Commerce
CA,45.3998977,-74.1345496,angeliquedentaire.ca,Facility
CA,43.2456119,-80.2527261,drongkowskis.com,Facility
CA,49.062398,-122.5031016,sunrisetrailersales.ca,Commerce
CA,51.0580201,-114.135612,centreforsofttissuepain.ca,Facility
CA,43.6240002,-79.5119086,dentistryontheq.ca,Facility
CA,49.8857921,-119.4952181,inspiredeyes.ca,Commerce
CA,51.0712346,-114.0964368,capitolhillcommunity.ca,Facility
CA,49.2618797,-123.097121,farmhouseon10th.com,Facility
CA,49.4901779,-117.298083,savoyhotel.ca,Facility
CA,45.3767475,-75.7439196,revelacademy.ca,Facility
CA,46.1142664,-70.6593988,artisanducafe.com,Facility
CA,52.7763476,-108.298537,swansongryba.ca,Commerce
CA,49.8638651,-97.1113847,millersmeats.com,Commerce
CA,49.0502899,-122.338619,southernspice.ca,Facility
CA,43.6667123,-79.3857519,ethiopianhouse.com,Facility
CA,49.2821447,-123.1337057,daviedosacompany.com,Facility
CA,49.2705703,-123.1472574,radishrestaurant.com,Facility
CA,50.9687812,-114.1320085,oakridgecommunity.ca,Facility
CA,43.6856177,-79.3932667,lumawellnessspa.com,Facility
CA,43.869961,-79.5153713,purefxfitness.com,Facility
CA,49.2392543,-123.065169,vancouvermath.com,Facility
CA,49.2272147,-122.9946424,burnabyneurology.com,Facility
CA,42.4249253,-82.2114855,shawarmaandmore.ca,Facility
CA,43.4380272,-80.5123673,activaclinics.com,Facility
CA,50.97901,-113.6777931,langdonfirehouse.com,Facility
CA,49.1917357,-123.1004016,genericcomputer.com,Commerce
CA,52.1584296,-106.662321,reclaimsaskatoon.ca,Commerce
CA,49.2628156,-122.9862162,marble-art.com,Unknown
CA,43.7032674,-80.3793448,melvilleunited.com,Facility
CA,43.9734915,-79.237258,stouffvilleonlawyers.ca,Commerce
CA,51.0269111,-114.0052825,inglewoodgolfclub.ca,Facility
CA,51.0233559,-114.1096632,the-wheelhouse.com,Commerce
CA,52.3715902,-114.9166837,rockyfuneralhome.ca,Commerce
CA,49.2687528,-123.046101,littlebubbleteahouse.com,Commerce
CA,49.2630036,-123.100225,electricavenue.cc,Unknown
CA,51.0570546,-113.9787926,princetravel.ca,Commerce
CA,49.3202736,-124.3122585,petalandkettle.com,Commerce
CA,53.0183681,-112.8387254,rootshaircompany.com,Facility
CA,43.6419166,-79.4293443,parkdalelegal.org,Commerce
CA,52.0855804,-106.6570503,minersconstruction.com,Commerce
CA,44.6409192,-63.5785016,lebistrohalifax.com,Facility
CA,45.5564962,-73.570297,yogaetmassagepourvous.com,Facility
CA,43.5417049,-80.2481085,fashionlighting.ca,Unknown
CA,43.7554905,-79.4859307,budgetcamera.ca,Facility
CA,45.4829637,-73.5753751,liverpoolhouse.ca,Facility
CA,45.3988944,-71.9075911,lainetricotsherbrooke.com,Unknown
CA,44.4469029,-64.3851643,mahonebaypool.com,Facility
CA,43.9139823,-78.6887677,claringtonmuseums.com,Facility
CA,49.2808637,-123.0134265,portobelloristorante.ca,Facility
CA,43.4400313,-80.5086974,hbsecurity.com,Commerce
CA,49.0392402,-122.2936283,united-dentists.com,Facility
CA,45.4586804,-73.5958093,avecletemps.ca,Commerce
CA,44.0422676,-81.1192437,harleyspubandperk.com,Facility
CA,45.5123401,-73.6191731,maisonstraphael.org,Facility
CA,43.258255,-79.8938293,gravityclimbinggym.com,Facility
CA,43.0875058,-79.120717,canadaoneoutlets.com,Commerce
CA,47.9406259,-80.6465198,matachewan.com,Facility
CA,45.3841444,-75.7041704,canadensisgarden.ca,Facility
CA,45.2979843,-75.9116631,altitudegym.ca,Facility
CA,47.6477884,-52.7251657,adogsworldinc.ca,Facility
CA,49.1250867,-123.1856189,stevestonpizza.com,Facility
CA,45.4255878,-75.6940152,metropolitainbrasserie.com,Facility
CA,44.888861,-76.3174388,tayvalleytwp.ca,Facility
CA,44.0092603,-79.4719365,standrewsdental.ca,Facility
CA,45.4812624,-73.6123008,marianopolis.edu,Facility
CA,47.6876148,-70.3182611,hippodromedelavallee.com,Facility
CA,44.4334801,-77.891875,alleninsurance.ca,Commerce
CA,49.1071104,-122.665652,lemonbakery.ca,Facility
CA,43.4964891,-80.5840877,laurelwoodvets.ca,Commerce
CA,45.3500794,-75.9246973,gaming-kingdom.com,Commerce
CA,45.5251767,-73.5752678,mapoulemouillee.ca,Facility
CA,43.6444354,-79.4026203,blacktoerunning.com,Commerce
CA,43.8427181,-79.6697992,kleinburgchristian.ca,Facility
CA,49.2798648,-123.127675,elysiancoffee.com,Facility
CA,49.0615884,-122.3244289,abbysportshalloffame.ca,Facility
CA,45.9463618,-66.6381263,maxhealthfred.com,Facility
CA,42.6658079,-81.2115527,kettlecreekinn.com,Facility
CA,46.101509,-64.701553,mikesbikeshop.ca,Commerce
CA,49.2734536,-123.1036623,scienceworld.ca,Facility
CA,50.0246449,-114.9195081,elkfordmotorinn.com,Facility
CA,46.422988,-73.014362,saint-paulin.ca,Facility
CA,46.8286557,-71.246202,snomicrobrasserie.com,Facility
CA,43.5697186,-79.5669051,lakeviewdentalcentre.ca,Facility
CA,49.8570939,-97.1532925,awesomehotyoga.ca,Facility
CA,43.4774489,-80.5256273,sakuraislandrestaurant.com,Facility
CA,50.9526181,-114.0662108,southcentremall.com,Commerce
CA,45.5464712,-73.572145,francoisthibaultkinosteo.com,Facility
CA,51.1480087,-114.255098,rockyridgedental.com,Facility
CA,45.4698323,-73.581203,dreamydreamydreamy.com,Facility
CA,45.0831514,-71.65772,campingvillette.com,Facility
CA,48.4379914,-123.3129819,salonmodello.ca,Facility
CA,43.4842669,-80.5409121,kohinoor-restaurant.ca,Facility
CA,51.0442666,-114.0860237,emeraldmanagement.com,Commerce
CA,49.2812333,-123.1046109,onyxstudio.ca,Facility
CA,43.4970988,-79.8745395,derryheightsdental.ca,Facility
CA,45.7318761,-63.8727083,conniesfinancial.com,Commerce
CA,43.6547113,-79.4229636,caribbeantales.org,Commerce
CA,51.0417885,-114.0804741,mirchirestaurant.ca,Facility
CA,51.0521915,-114.0885706,peacockboutique.ca,Commerce
CA,43.6530437,-79.3635433,propertelevision.com,Commerce
CA,45.4158925,-75.6885011,ottawalemongrass.com,Facility
CA,43.4855164,-80.5865917,greenacrepark.com,Facility
CA,49.3801888,-123.3444538,artisaneats.ca,Facility
CA,53.5322369,-113.2935584,sportscloset.ca,Commerce
CA,53.2749256,-110.0064409,startuplloyd.com,Commerce
CA,49.0528557,-122.3254609,mworthodontist.com,Facility
CA,49.281197,-123.012774,dentistinburnaby.com,Facility
CA,45.5229766,-73.5772905,epiceriebasta.ca,Commerce
CA,43.3712499,-80.981217,fellinisstratford.com,Facility
CA,50.9748203,-114.0602654,oursaviourchurch.ca,Facility
CA,43.6271541,-79.4997971,cakesbymickey.com,Commerce
CA,43.3387978,-79.7775443,portnelsonunitedchurch.com,Facility
CA,43.4382781,-80.4596264,thumbsupbarbershop.ca,Facility
CA,49.2653605,-122.9995182,brentwoodblock.com,Commerce
CA,46.385061,-63.5956174,venturestables.com,Facility
CA,48.372591,-68.7104005,jardindejulie.com,Commerce
CA,47.439751,-68.3933963,jardinnbgarden.com,Unknown
CA,49.2492298,-122.858843,khobkhunthaicuisine.com,Facility
CA,51.0383899,-114.079098,josefsalibasalon.ca,Facility
CA,49.8911526,-97.1442908,mottolagrocery.com,Facility
CA,43.440059,-80.4882732,flowespresso.ca,Commerce
CA,45.5090105,-73.6249977,bellinghamnett.com,Facility
CA,45.5311453,-73.6109044,tavernecobra.com,Facility
CA,43.6590758,-79.3501367,thebroadviewhotel.ca,Facility
CA,49.2822423,-123.1037049,casahairstudio.com,Facility
CA,49.2263226,-122.99395,liftrevolution.com,Facility
CA,43.744479,-81.2507468,fourwindsbarn.com,Facility
CA,43.3993635,-80.3030616,brookstone.ca,Commerce
CA,49.2370586,-124.8085243,blackdogorg.ca,Commerce
CA,43.562574,-80.27345,luisasdraperies.com,Unknown
CA,51.0173101,-114.1451704,myglamorgan.ca,Facility
CA,45.3762805,-71.9780973,magasinscpc.com,Commerce
CA,44.7449656,-81.1082974,flywiarton.com,Facility
CA,45.4630278,-75.7026887,reseautact.com,Facility
CA,50.659162,-120.362785,johnsonwalsh.com,Unknown
CA,51.6523379,-115.3587924,jkltrailrides.com,Facility
CA,49.0308505,-122.867797,oceanparkvillage.com,Facility
CA,45.5555597,-73.5860584,defeuillesenfeuilles.com,Commerce
CA,43.0925244,-79.0717356,fallsviewwaterpark.com,Facility
CA,53.5466847,-113.5354778,blueplatediner.ca,Facility
CA,44.5921005,-64.0847027,aspotoganridge.com,Facility
CA,43.7349334,-79.4196298,sibelrestaurant.ca,Facility
CA,49.275369,-123.0697294,knowledgebarbers.com,Facility
CA,50.0445099,-125.2676316,billhowichchrysler.ca,Commerce
CA,45.548238,-73.5849921,epicerievalmont.com,Commerce
CA,45.5561023,-73.5851941,santoexpressviet.com,Facility
CA,46.3198988,-72.5780851,harnoisenergies.com,Commerce
CA,43.9438591,-79.30439,lionelsfarm.com,Facility
CA,44.9825505,-64.946709,hairexpressionsanddayspa.com,Facility
CA,48.4291691,-123.3673,silkroadtea.com,Commerce
CA,49.1979946,-122.978327,spotlesslaser.com,Facility
CA,45.5354821,-80.4568994,ojibwayclub.com,Unknown
CA,53.5634059,-113.5055222,edmontondental.ca,Facility
CA,53.5329085,-113.638809,aliceacupressuretherapy.ca,Facility
CA,43.1294641,-80.7574983,cityofwoodstock.ca,Facility
CA,49.2340779,-123.035371,thecaptainsboil.ca,Facility
CA,43.4405593,-80.5032504,highlandbaptist.ca,Facility
CA,51.05982,-113.9995543,tandthonda.ca,Commerce
CA,48.0862666,-52.8974307,baydeverde.com,Facility
CA,43.6720403,-79.3914072,dnovogroup.com,Commerce
CA,43.6623483,-79.4049913,parentbooks.ca,Commerce
CA,45.644947,-61.5802962,hyclass-campground.com,Facility
CA,46.3315856,-72.5569974,soluhardwood.com,Commerce
CA,48.9865207,-125.5829146,surfjunction.com,Facility
CA,51.1271881,-114.0737089,centralorthodontics.ca,Facility
CA,43.1065093,-79.0663558,butterflygallery.ca,Facility
CA,49.2017844,-122.9846384,elementsbrazil.com,Commerce
CA,43.7067091,-79.3996471,ghardytours.com,Unknown
CA,49.8823846,-97.1259261,hughesinsurance.ca,Commerce
CA,49.281278,-123.0501902,irondogbooks.com,Commerce
CA,45.5173257,-73.5679878,strategygames.ca,Commerce
CA,53.5185902,-113.520083,kepleracademy.ca,Facility
CA,48.4233201,-123.3545838,wecompound.com,Commerce
CA,49.2025583,-122.9124384,themetrohall.com,Facility
CA,43.4579769,-80.4945285,planetpizzakw.com,Facility
CA,46.8127482,-64.0649989,townofalberton.ca,Facility
CA,47.5620777,-52.7098041,rocketfood.ca,Commerce
CA,45.6289253,-72.950339,calibrecuisine.ca,Facility
CA,49.0399389,-122.2762715,laminartindustries.com,Commerce
CA,50.0946917,-122.9934837,snowboardwhistler.com,Facility
CA,61.9008397,-123.2256165,simpsonair.ca,Facility
CA,53.5390138,-113.504327,matrixedmonton.com,Facility
CA,47.9736621,-66.9503958,matapediaaventure.com,Facility
CA,45.4555136,-75.6530813,polarisschool.ca,Facility
CA,49.1331376,-123.9210587,boldknight.ca,Facility
CA,43.4578819,-80.5131833,kwvascularlab.ca,Unknown
CA,51.0911458,-114.0476664,interiorpainter.ca,Unknown
CA,53.3076655,-110.0019937,diamond7meats.ca,Commerce
CA,49.1927441,-123.9763804,islanddautomotive.ca,Commerce
CA,43.6482424,-79.4496267,cookery-store.ca,Commerce
CA,43.9573086,-80.0810224,pacepottery.com,Commerce
CA,51.1775433,-115.5710823,snowflakecanada.com,Commerce
CA,43.5751086,-79.6466592,muslimwelfarecentre.com,Facility
CA,53.4885332,-113.4854402,albertsfamilyrestaurants.com,Facility
CA,43.5673867,-79.6515767,sargentfarms.ca,Commerce
CA,42.0358889,-82.7150103,cindysgarden.com,Commerce
CA,45.4273528,-75.6920551,byward-market.com,Commerce
CA,43.3427349,-79.8248889,pioneercannabis.com,Commerce
CA,45.1210798,-67.0771443,rossmountinn.com,Facility
CA,44.6636393,-63.563266,jukairestaurant.com,Facility
CA,49.6197229,-125.027687,gravitymtb.ca,Commerce
CA,46.0998014,-71.3060059,villethetford.ca,Facility
CA,45.2945983,-66.0337054,fernhillcemetery.ca,Commerce
CA,47.4228258,-68.3951163,pizzalepatrimoine.com,Facility
CA,44.6459133,-63.5949911,aerobicsfirst.com,Commerce
CA,46.8917841,-71.3205029,smakmanutention.com,Commerce
CA,48.7257971,-88.5420034,superiorshoresrvpark.ca,Facility
CA,53.5303264,-113.7443074,theranchgolf.com,Facility
CA,49.6202088,-125.0282134,cumberlandcommunitychurch.ca,Facility
CA,46.0839664,-74.6705833,campingdomainedescedres.com,Facility
CA,49.2147569,-122.920704,modern-acupuncture.ca,Facility
CA,43.1637133,-79.2664518,martindale-kennels.com,Facility
CA,49.8600404,-119.5513607,itsabakery.ca,Facility
CA,45.4488964,-75.5360299,chapelhillgrooming.com,Commerce
CA,43.3453014,-81.4798254,ranchhouseinn.ca,Facility
CA,46.3434821,-72.5411704,manoirdeblois.com,Facility
CA,48.4479231,-123.4007665,myhealthessentials.ca,Commerce
CA,43.0818341,-79.0833235,wyndhamfallsviewhotel.com,Facility
CA,42.2848044,-82.7520276,countyofessex.ca,Commerce
CA,45.1390398,-63.3474015,roselandtech.ca,Commerce
CA,43.6004322,-79.5075053,banihalalfood.ca,Commerce
CA,50.4050003,-90.5582992,wildewoodonlakesavant.com,Unknown
CA,46.896801,-71.135788,boischatel.ca,Facility
CA,44.9919634,-64.0373866,hilltophops.ca,Facility
CA,49.2693335,-122.826086,coastaldesign.ca,Commerce
CA,50.0266065,-125.2425445,directartinc.com,Commerce
CA,43.4043782,-80.4810552,stecklehomestead.ca,Commerce
CA,49.1187964,-122.3818972,mtlehmanhall.ca,Commerce
CA,45.502704,-75.8087572,oldchelseabb.com,Facility
CA,43.6516655,-79.4746645,figtreetoronto.com,Commerce
CA,49.2429565,-123.1086046,phoenixgymnastics.com,Facility
CA,49.2812895,-123.025292,locushealth.ca,Facility
CA,45.4904632,-73.4888129,noisetteetchocolat.ca,Commerce
CA,43.8713781,-79.5951746,kdlatvianhome.com,Facility
CA,50.0265589,-125.2466113,healthywaynaturalfoods.com,Commerce
CA,49.2388841,-122.9703908,deerlakepark.org,Facility
CA,43.6453059,-79.4127048,mattyspattysburgerclub.com,Facility
CA,51.1754584,-115.571249,littlewildcoffee.ca,Facility
CA,43.7102128,-79.7910988,brocodeera.ca,Facility
CA,49.9319971,-125.1863337,shelterbayresort.ca,Facility
CA,45.5056496,-73.5536481,imagesboreales.com,Facility
CA,43.7422433,-79.8403864,bramptoncs.org,Facility
CA,51.0212126,-114.053716,cabinbrewing.ca,Facility
CA,46.3753418,-72.5304969,rosevanille@icloud.com,Commerce
CA,45.4977316,-73.5567601,fonderiedarling.org,Facility
CA,46.2099498,-71.759586,garagemoderne.ca,Commerce
CA,46.8113087,-71.2172628,tattooshack.ca,Facility
CA,46.5393621,-72.7638867,espaceshawinigan.com,Facility
CA,51.0128672,-114.1415426,dekorbutik.ca,Commerce
CA,45.4571183,-73.567389,barverdunbeach.com,Facility
CA,49.9706783,-125.2160778,boughandantler.com,Commerce
CA,49.1535133,-122.9021815,deltalearns.ca,Facility
CA,49.2088652,-123.1402667,tadssportinggoods.ca,Commerce
CA,48.4615013,-123.297314,thailemongrass.ca,Facility
CA,49.4726381,-123.7574736,belvederebarbershop.ca,Facility
CA,51.1270692,-114.0561833,beddingtonvet.com,Commerce
CA,53.4172971,-113.4689049,lakesummerside.ca,Facility
CA,43.4773547,-80.764989,barnesfamilychiropractic.ca,Facility
CA,49.244491,-123.0633558,highsunmattress.com,Commerce
CA,48.4654761,-123.3927666,victoriaairphotos.com,Commerce
CA,51.1745041,-115.5717142,phoneexperts.com,Unknown
CA,43.9600598,-78.1636183,greenbackspawnshop.com,Commerce
CA,53.233161,-114.9879365,zingerrentals.com,Commerce
CA,43.4603078,-80.5187935,movementality.ca,Facility
CA,45.4553758,-73.6309436,lincolngabriel.com,Commerce
CA,45.7257302,-73.4904834,charlemagne.ca,Facility
CA,53.0176381,-112.8441739,stardustmotelcamrose.ca,Facility
CA,50.9120882,-114.0634694,gratisites.com,Commerce
CA,49.8846347,-97.1235034,pastramiandthings.com,Facility
CA,50.9913059,-114.0369593,carecentre.ca,Commerce
CA,45.5209927,-73.5768526,videoexpressmontreal.com,Unknown
CA,52.7777808,-108.296983,battlefords.ca,Facility
CA,45.5057331,-75.6520093,bellevuepizza.ca,Facility
CA,43.7227785,-79.7872867,kenedyruthdentalcentre.com,Facility
CA,49.0485234,-122.2905507,confettifloral.com,Commerce
CA,43.8386467,-79.0883693,pickeringsmiles.com,Facility
CA,43.661814,-79.519658,humbertown.com,Commerce
CA,49.0951142,-117.7085717,renewmedispa.ca,Facility
CA,47.1407574,-70.769763,sentierdescaps.com,Facility
CA,49.2651195,-123.1156212,cambievillagedental.com,Facility
CA,49.6961436,-112.828012,pekarollshutters.com,Unknown
CA,49.0533038,-122.338395,robertsonhearing.ca,Unknown
CA,50.0259032,-125.2541001,rivercityplayers.ca,Facility
CA,43.6472279,-79.4046816,torontoalliancechurch.ca,Facility
CA,43.913516,-65.8019388,deepskyeye.com,Facility
CA,49.3651368,-125.7780626,clayoquotwildernesslodge.com,Facility
CA,44.7193278,-75.5062161,prescottgolfclub.ca,Facility
CA,45.5017852,-73.6065287,cimetierenotredamedesneiges.ca,Facility
CA,49.689493,-116.0051927,tricklecreeklodge.com,Facility
CA,44.241788,-76.5019775,5678dancestudio.com,Facility
CA,44.3526379,-79.6641351,advancedlaserskinclinic.org,Facility
CA,45.3987282,-71.9059829,viridis-env.com,Commerce
CA,51.0754834,-114.0717797,velvetcafecalgary.ca,Facility
CA,53.5980706,-113.604579,edmontonhumanesociety.com,Facility
CA,45.0196948,-76.2190366,mccrearysbeach.com,Facility
CA,43.7671642,-79.2704426,rollnbowlscarborough.ca,Facility
CA,51.0135561,-114.1161051,themilitarymuseums.ca,Facility
CA,51.0780016,-114.1317957,dentalchoice.ca,Facility
CA,43.6469328,-79.5139642,privehairgallery.com,Facility
CA,50.4509021,-104.6162796,merchantlaw.com,Commerce
CA,49.5131571,-115.7565805,westernfinancialplace.ca,Facility
CA,45.5663811,-73.5760239,cliniquedentairebbc.com,Facility
CA,47.3656001,-68.3261026,lindaboulay.com,Commerce
CA,49.1340636,-122.3045249,hubcobrewing.com,Facility
CA,50.9790038,-114.0837201,empireprovisions.com,Facility
CA,49.2334254,-123.035338,kung-fu-noodle.com,Facility
CA,43.0922688,-79.0715749,fallsavenueresort.com,Facility
CA,51.0844757,-114.1819819,bownessseniorscentre.com,Facility
CA,49.0525626,-122.3129064,pacificpathways.ca,Facility
CA,48.8410477,-123.4923081,oxeatsgrass.ca,Facility
CA,43.2584549,-79.9090951,tradeinpost.ca,Commerce
CA,53.5379309,-113.3222524,jvedmonton.ca,Facility
CA,50.6653067,-96.5540601,hillsidebeacheatery.ca,Facility
CA,45.474645,-73.6232671,therestaurantchase.com,Facility
CA,45.3973615,-63.5079897,elmrivercampground.com,Facility
CA,48.0159936,-66.372276,campingheronbleu.com,Facility
CA,43.6524903,-79.4495922,banditbrewery.ca,Facility
CA,46.3503349,-72.5918261,juliecarpentier.ca,Facility
CA,49.2782179,-122.8119643,riobraziliansteakhouse.ca,Facility
CA,46.999461,-72.1735621,scierie-adelard-goyette.com,Commerce
CA,49.8871498,-97.1412358,ohdoughnuts.com,Facility
CA,43.5221945,-80.2138136,manhattans.ca,Facility
CA,44.2312435,-76.4811408,aoneclothing.com,Commerce
CA,49.3477015,-124.4468513,youplusmestudio.ca,Facility
CA,44.7192827,-63.6730322,bedfordhealthcentre.com,Unknown
CA,43.5522917,-81.3947264,petesofficepro.ca,Commerce
CA,43.7652693,-79.4679901,troykaonline.com,Commerce
CA,49.2541948,-122.965479,burnabyarchers.org,Facility
CA,51.0490502,-114.0817068,plusmaeyewear.com,Commerce
CA,46.8234944,-71.1688665,contrevent.org,Facility
CA,49.2327666,-124.8078435,wescofoods.ca,Unknown
CA,50.9490973,-114.5638811,braggcreekdental.ca,Facility
CA,50.8777778,-114.0354286,massageon194th.com,Facility
CA,44.5552193,-80.926083,albrighttruckinginc.com,Commerce
CA,42.9796771,-80.0338027,hewittsdairy.com,Facility
CA,44.5585952,-80.97606,owensoundhyundai.com,Commerce
CA,50.6257098,-116.0667901,crescentmotel.ca,Facility
CA,49.2745948,-123.1091557,harbourconventioncentre.com,Facility
CA,53.2824293,-110.0347116,lloydbounce.com,Commerce
CA,49.235566,-123.0387426,kingswayvet.com,Commerce
CA,48.4484993,-123.4987709,fountaindiner.ca,Facility
CA,51.0379549,-114.076455,5sensesyyc.com,Facility
CA,48.6305652,-123.4280743,mctavishacademy.ca,Commerce
CA,49.914309,-74.3636598,youcanbook.me,Facility
CA,44.6448757,-63.5726919,go2doorsdown.com,Facility
CA,53.5560592,-113.5286058,thelocalomnivore.com,Facility
CA,49.8378576,-97.1119578,brianreimeraudio.com,Unknown
CA,45.521912,-73.5620509,painatartine.com,Facility
CA,49.2639149,-124.8503592,haahuupayak.com,Facility
CA,49.2630684,-123.1018403,tattachulha.ca,Facility
CA,49.1062115,-122.73783,olafitforlife.com,Facility
CA,43.4552915,-80.4962787,stationdentaloffice.ca,Facility
CA,42.3135996,-83.0211074,noochwindsor.ca,Facility
CA,49.9047695,-97.1321209,winnipegarchitecture.ca,Unknown
CA,43.6263043,-79.6765075,mississaugagrand.com,Facility
CA,53.254546,-110.0046833,signsnmore.ca,Commerce
CA,51.1253751,-114.2116437,pho99calgary.com,Facility
CA,43.5236974,-79.8728826,smallbizpros.ca,Commerce
CA,46.3405211,-72.557983,mcbinformatique.com,Commerce
CA,49.0390083,-123.085242,fairweatherclothing.com,Commerce
CA,43.6557187,-79.454417,animalhospitalbloorwest.ca,Commerce
CA,49.1539408,-125.905327,ahousadventures.com,Commerce
CA,43.6295291,-79.5680141,neilsonparkcreativecentre.com,Commerce
CA,47.9503785,-84.8041907,backcountrymotorsportsandmarine.ca,Commerce
CA,43.2536699,-79.860055,cafeoranje.ca,Facility
CA,49.3081143,-123.0332607,thewoodsspiritco.com,Commerce
CA,45.5202081,-73.5762524,almaplantes.com,Commerce
CA,49.5154875,-96.6906237,letscelebraterentals.com,Commerce
CA,50.1151374,-122.9564497,whistlerbooks.com,Commerce
CA,43.4200892,-80.5272509,bodybeautifulclinic.com,Facility
CA,43.7770869,-79.4144883,torontoartclass.com,Facility
CA,49.0323708,-122.3749227,alpineaerotech.com,Commerce
CA,45.422664,-75.6939499,oscarpeterson.com,Facility
CA,45.6167202,-73.6286772,marchediaz.com,Commerce
CA,45.5167881,-73.5787144,lebreizhcafe.com,Facility
CA,49.9971915,-96.8891799,pineridgehollow.com,Facility
CA,49.2290438,-122.9990519,yoonclinic.ca,Facility
CA,43.8558916,-79.7079694,starautoglassbolton.com,Commerce
CA,45.5363145,-73.6031963,theatreplaza.ca,Facility
CA,50.952437,-114.564633,handle-bar.ca,Unknown
CA,45.3664451,-71.8568112,bibliolennoxvillelibrary.ca,Facility
CA,45.5223196,-73.56151,groupemanovra.com,Commerce
CA,43.7109677,-79.3990667,shervin-mrfade.com,Facility
CA,49.1339856,-122.3147775,mapleviewheights.com,Commerce
CA,49.1634235,-122.756041,darbarsrigurugranthsahibji.com,Facility
CA,45.5207779,-73.5983958,animalvert.com,Commerce
CA,43.7773643,-79.4154055,royalaccounting.ca,Commerce
CA,43.6468518,-79.4062923,ramenmisoya.ca,Facility
CA,49.3261726,-117.6658943,chameleonhotel.com,Facility
CA,49.2004517,-122.9102069,fraserriverdiscovery.org,Facility
CA,48.2433015,-70.1803824,nuancesdegrains.com,Facility
CA,45.2763725,-66.0557644,flagshopcanada.com,Commerce
CA,43.6507118,-79.4775461,simplythaicuisine.com,Facility
CA,45.2892181,-72.0621584,vignoblechdelariviere.com,Commerce
CA,43.6469717,-79.3989805,waterworksfoodhall.com,Facility
CA,46.0956191,-64.7555295,voxinteractif.com,Commerce
CA,43.6833777,-79.3919771,lovesewing.com,Commerce
CA,45.6609752,-65.7770572,midlandbaptist.ca,Facility
CA,45.4550383,-73.5949402,bicycleseddy.com,Commerce
CA,52.1432106,-106.6578335,backsideboardshop.com,Commerce
CA,52.1436352,-106.5903016,princesskitchen.ca,Facility
CA,49.2811818,-123.0004121,northburnabydental.com,Facility
CA,46.8504232,-71.2470578,chezbicepsbbq.com,Facility
CA,43.9579269,-78.1647972,cucinaurbana.ca,Facility
CA,43.5147162,-80.2375843,guelphvapourco.com,Commerce
CA,49.0467089,-122.3392771,taborvillage.org,Facility
CA,45.8178095,-64.5782868,thehopewellrocks.ca,Facility
CA,43.4625129,-80.5057254,boucherandjones.com,Commerce
CA,45.4567439,-75.488986,robertsonrentall.com,Commerce
CA,53.5474148,-113.5278766,tokiwaramen.ca,Facility
CA,48.4663097,-123.3620073,phoenixbar.ca,Facility
CA,45.5450242,-73.5769245,pizzamasson.ca,Facility
CA,43.7077458,-79.3755306,macfabfabrics.com,Commerce
CA,48.3519664,-74.1017994,barragegouin.com,Facility
CA,45.5391402,-77.0947534,bonnecherevalleytwp.com,Facility
CA,49.6907904,-124.999927,palaceplaceapartments.com,Unknown
CA,49.6742186,-124.9271679,stpeterscomox.ca,Facility
CA,51.0893291,-115.3622741,fallenleafgallery.com,Commerce
CA,53.2506445,-110.0073434,bestwesternplusmeridian.com,Facility
CA,50.2350971,-119.3595268,okanaganlanding.com,Facility
CA,49.245858,-122.9410069,scrapuniversity.com,Facility
CA,42.3251686,-83.0141751,walkerpower.ca,Commerce
CA,45.2926633,-75.7291455,barrhavenmusicacademy.com,Facility
CA,49.2696458,-123.1442945,bookstocooks.com,Commerce
CA,45.247427,-81.6584812,lightandlifecommunitychapel.ca,Facility
CA,43.7389038,-79.2436416,perfectretouching.com,Commerce
CA,43.3784448,-80.9972569,kickmasters.ca,Facility
CA,45.2733075,-75.746197,robinsondental.ca,Facility
CA,43.6656225,-79.4704103,3030dundaswest.com,Facility
CA,44.5378658,-78.5543129,mochisbakery.ca,Commerce
CA,43.6483458,-79.3976013,leostextiles.com,Commerce
CA,49.3795233,-123.334371,squirrelonbowen.com,Commerce
CA,47.988353,-84.7779257,beavermotel.com,Facility
CA,51.0047686,-114.1160406,calgaryfrc.com,Facility
CA,43.2593656,-79.8680272,jamesnorthgs.com,Commerce
CA,44.5340843,-78.1443856,mccrackenslanding.com,Facility
CA,43.2173587,-79.0609002,reifwinery.com,Commerce
CA,49.2274272,-122.852526,dynamicrescue.com,Commerce
CA,44.6516914,-63.5742394,sublimedentistry.ca,Facility
CA,42.9066447,-78.9278028,picardpeanuts.com,Unknown
CA,49.0545027,-122.3219038,dedicateddentalcare.ca,Facility
CA,49.185277,-122.798376,jongkimmartialartsguildford.ca,Facility
CA,43.4526334,-80.5179019,strataresearch.ca,Commerce
CA,43.5170981,-79.8793258,businessisblooming.ca,Commerce
CA,53.5464602,-113.5464007,whitespark.ca,Facility
CA,43.6213123,-79.4829834,physiofirst.ca,Facility
CA,48.4232392,-123.3671417,magnoliahotel.com,Facility
CA,49.7044682,-112.8102855,greenwoklethbridge.com,Facility
CA,43.2534463,-79.8602099,moonbeautyco.com,Facility
CA,43.9035253,-80.1268391,davesbutchershop.ca,Commerce
CA,51.0332897,-114.0457017,janusacademy.org,Facility
CA,43.6603989,-79.3661925,416dentist.com,Facility
CA,49.2808859,-123.0144574,companionbooks.com,Commerce
CA,43.9798993,-80.7305704,mountforestunitedchurch.com,Facility
CA,43.4056597,-80.343474,eagleautomall.ca,Commerce
CA,50.0123803,-119.4930547,lakeokanagan.com,Commerce
CA,53.5127505,-113.32946,picturethisgallery.com,Facility
CA,46.2324254,-63.1250344,thesonrestaurant.ca,Facility
CA,49.291342,-122.9293001,lotussports.com,Facility
CA,49.6742885,-124.9287588,comoxavenuedental.com,Facility
CA,42.3181872,-83.0402929,greentowncannabis.com,Facility
CA,49.2356556,-123.038979,vectortrainingcentre.com,Facility
CA,49.2784435,-123.114328,jurestaurant.com,Facility
CA,50.7244439,-113.968053,bistro1882.com,Facility
CA,44.7334077,-63.6537424,blueberrycommercial.ca,Commerce
CA,49.6189415,-125.0282087,lanewaycoffeekitchen.com,Facility
CA,43.5239753,-79.6825405,bcufinancial.com,Facility
CA,49.2157167,-122.923302,groovecatbooks.com,Commerce
CA,45.5248368,-73.6046865,phonopolis.ca,Commerce
CA,51.0698689,-114.0619764,redroseflorist.net,Commerce
CA,43.3649074,-80.3139166,cambridgesheltercorp.ca,Facility
CA,50.4143825,-104.6601175,harbourlandingvillage.ca,Facility
CA,42.970915,-80.3538381,cjsantiques.ca,Commerce
CA,43.6495311,-79.4501155,pollockshomehardware.ca,Commerce
CA,49.2031201,-122.9489349,mindfulmutts.ca,Facility
CA,45.4073542,-65.9649543,firstbiblebaptistnb.com,Facility
CA,50.2398873,-90.3373184,barringtonlakecamp.com,Facility
CA,48.9673875,-57.899109,princeedwardrvpark.com,Facility
CA,43.4469381,-79.6671422,titikaactive.com,Commerce
CA,42.6238201,-80.4501762,cheshiresonbay.com,Commerce
CA,49.2613559,-123.2463657,eatonarrowsmith.com,Facility
CA,49.2531334,-123.0678362,collectivegoods.ca,Facility
CA,45.5142136,-73.5641946,barbershopcoiffure.com,Facility
CA,49.8723409,-97.1493476,winnipegsunshine.com,Facility
CA,49.2628286,-123.056921,goldenseafoodvancouver.com,Facility
CA,47.540581,-52.7395064,doodlelovely.com,Commerce
CA,45.4842395,-75.6259425,attache-remorques.com,Commerce
CA,44.816368,-63.615691,dhrobertsfinancial.ca,Commerce
CA,45.4325556,-75.6944959,idealcoffees.com,Facility
CA,43.6271571,-79.476928,edentrattoria.com,Facility
CA,46.1150322,-74.5695601,groupeyvesgagnon.com,Commerce
CA,43.4642569,-80.4656811,grandriverpersonnel.ca,Commerce
CA,43.5485149,-79.6631641,blackwoodgallery.ca,Facility
CA,51.048547,-114.0618098,auttarotethaicuisine.com,Facility
CA,49.2854117,-124.976154,sproatlakelanding.com,Facility
CA,51.064635,-114.062278,diversecities.org,Commerce
CA,44.9783401,-63.5103742,lovemylibrary.ca,Facility
CA,48.4500955,-123.3854779,hometechgamesplus.com,Unknown
CA,46.1084964,-60.1893241,membertouschool.ca,Facility
CA,43.2532494,-79.8867195,donutmonster.ca,Commerce
CA,51.178345,-115.571681,stjamesgatebanff.com,Facility
CA,49.2854,-123.1215344,royalcentredentalgroup.ca,Facility
CA,48.4560841,-123.438329,artelectric.ca,Unknown
CA,49.2724917,-123.0956922,columbiacollege.ca,Facility
CA,51.1748994,-115.5712927,peakcafebanff.com,Facility
CA,51.038357,-114.0812175,myoasisspa.ca,Facility
CA,47.2371795,-61.8493447,mesilesmonpays.com,Facility
CA,43.759132,-79.4228716,doctorbernstein.ca,Facility
CA,50.8877088,-98.8733804,grazemeatco.com,Unknown
CA,48.4580612,-123.4442496,viewroyalfire.ca,Facility
CA,50.9300834,-113.971661,dreamsleep.ca,Facility
CA,45.4661744,-75.4958644,selectbloomsorleans.com,Commerce
CA,52.091274,-106.5316279,meadowsliving.ca,Commerce
CA,52.836707,-119.2847462,yellowheadcampground.com,Facility
CA,45.5419852,-73.5547099,boutiquerollin.com,Commerce
CA,51.0300169,-114.1421729,citypubcalgary.com,Facility
CA,45.3108585,-75.9205168,tandashoes.com,Commerce
CA,43.6753261,-79.3520992,noelyardley.ca,Commerce
CA,45.247761,-66.1045861,applestorage.com,Commerce
CA,45.9549145,-66.6825791,switchenergies.ca,Commerce
CA,43.4056584,-80.3887823,bapoopizza.com,Facility
CA,45.50957,-73.8031756,skylitayurveda.com,Facility
CA,53.5318556,-114.0012009,tracksidedental.ca,Facility
CA,43.1369764,-79.2141253,johnnyroccos.com,Facility
CA,44.5626022,-79.4428112,scalesnaturepark.ca,Facility
CA,45.0329784,-64.7367068,jonnysberwick.com,Facility
CA,59.6117399,-109.2578643,cameconorth.com,Unknown
CA,49.266816,-123.006264,menyakokoro.com,Facility
CA,43.8605414,-79.5133576,jessicahair.ca,Facility
CA,43.4675994,-80.525072,waterloopreschool.org,Facility
CA,43.5835311,-79.7618413,wokthisway.ca,Facility
CA,46.6081578,-72.8781358,labyrinthecoureurdesbois.com,Commerce
CA,48.4306679,-123.367323,thewhitepeony.com,Unknown
CA,53.2477755,-131.9967271,haidagwaiimuseum.ca,Facility
CA,49.2798544,-123.0948135,maudancoop.ca,Facility
CA,46.2189763,-64.5525239,shediaclobster.ca,Commerce
CA,50.3504389,-112.6414918,villageoflomond.ca,Facility
CA,49.1928902,-123.9916191,edgebarbershop.ca,Facility
CA,43.625723,-79.6776466,elsombrero.ca,Facility
CA,49.2308201,-123.0116248,concordgreenhouse.com,Commerce
CA,46.2327731,-63.1254548,eastwoodave.com,Commerce
CA,49.8558302,-119.5549289,volcanichillswinery.com,Commerce
CA,43.0910274,-79.0735361,niagarabrewingcompany.com,Commerce
CA,53.5446718,-113.9073129,sprucegrovedentist.ca,Facility
CA,49.1706043,-122.7970692,surreychristian.com,Facility
CA,53.5660324,-113.3727304,sunridgeskiarea.com,Facility
CA,49.6978503,-124.9354665,bluehavenfarm.org,Commerce
CA,43.3739819,-80.9840313,stjamesstratford.ca,Facility
CA,43.6976142,-79.65652,zorrossteakhouse.com,Facility
CA,48.4501996,-123.4970863,queenbeenailsspa.com,Facility
CA,46.187313,-82.3363168,almenaraenelrio.com,Facility
CA,43.2554276,-79.8857848,sushiazuki.ca,Facility
CA,49.0771804,-117.801224,mountainnugget.com,Commerce
CA,49.6732217,-124.9246117,innerstrengthacupuncture.ca,Facility
CA,51.1789578,-115.5708578,rundlewear.com,Commerce
CA,51.0779145,-114.145036,boroughbar.ca,Facility
CA,43.5804114,-79.7123611,crafteddecor.ca,Commerce
CA,45.5030862,-73.5550021,petithotelmontreal.com,Facility
CA,43.6960157,-79.7725871,marca-college.com,Facility
CA,45.5422926,-73.6073982,ateliertonic.com,Commerce
CA,44.3794183,-80.8715511,williamsfordpiecompany.ca,Commerce
CA,49.1063428,-122.6527908,langleyvineyard.com,Facility
CA,43.7139507,-79.7998428,chickenmaster.com,Facility
CA,49.2714452,-123.089486,vancouverfleamarket.com,Commerce
CA,43.4601353,-80.4827157,offtheropes.ca,Facility
CA,49.4057542,-124.6333317,crownandanchorpub.ca,Facility
CA,43.4503372,-80.4934695,innovationeyeclinic.ca,Unknown
CA,48.332555,-123.643852,mountainspringsretreat.com,Facility
CA,43.6653581,-79.4698071,kingswayjunctionchiropractic.com,Facility
CA,43.1481193,-80.7260898,woodstockcovenant.ca,Facility
CA,43.6640608,-79.326064,omniacoffeeroasters.com,Facility
CA,49.1972449,-122.810906,bonnycastledaycare.com,Facility
CA,44.5743386,-80.9281212,theeuropeanbakery.com,Facility
CA,49.225604,-122.9918937,blackfishcpa.com,Commerce
CA,49.1330618,-123.0837581,countryfarms.ca,Commerce
CA,52.1200927,-106.6574801,fivecornerscafe.ca,Facility
CA,49.8594662,-119.423468,mccullochstation.ca,Facility
CA,43.1422118,-79.2402193,burgercafeandbeyond.ca,Facility
CA,48.6482048,-123.3973314,goodfortunerestaurantsidney.ca,Facility
CA,49.2795689,-123.1269981,vadastudios.com,Facility
CA,45.1763383,-77.0954844,theeaglesrest.ca,Facility
CA,60.7269263,-135.0622899,stopinfamilyhotel.ca,Facility
CA,47.5662979,-69.8654754,grandourse.ca,Facility
CA,43.6410343,-79.3373744,mooredalesailing.com,Facility
CA,45.5145413,-73.5721828,cafecampus.com,Facility
CA,52.9883784,-113.4525747,edmontonraceway.com,Unknown
CA,43.7773065,-79.4716459,patternedconcrete.ca,Unknown
CA,43.6686049,-79.3887048,baybloorradio.com,Commerce
CA,46.2699248,-63.1706977,retrocannabis.ca,Commerce
CA,45.3965257,-75.7502049,naturalfoodpantry.ca,Commerce
CA,51.1805197,-115.5750946,wolfdenbedandbreakfast.ca,Facility
CA,45.4960673,-73.575695,grumpysbar.ca,Facility
CA,43.6655411,-79.4672375,lowesmusictoronto.ca,Facility
CA,45.2936791,-75.7415625,laportoacasarestaurant.com,Facility
CA,53.2525481,-110.0063212,southsidevets.ca,Commerce
CA,43.7863118,-79.4456738,sprint-driving.com,Facility
CA,51.0933567,-114.010148,astoriabanquethall.com,Facility
CA,43.7828992,-79.5735993,abcreativelooks.com,Facility
CA,49.2325905,-123.0584555,bcogvancouver.org,Facility
CA,49.6987172,-125.0037141,puntledgerv.ca,Facility
CA,43.7712331,-79.4795787,sapcieximinc.ca,Commerce
CA,44.7455816,-65.5186921,annapolisroyalfarmersmarket.com,Commerce
CA,43.6400303,-79.5211901,healthcare-medsupply.com,Facility
CA,49.2806177,-122.981784,sushi-giwa.ca,Facility
CA,49.2717271,-123.0697935,ginger-sushi.ca,Facility
CA,45.3856118,-65.9963606,shadowlawninn.com,Facility
CA,49.1844544,-122.949835,queenshotel.ca,Facility
CA,49.3965605,-123.3607006,thearkonbowen.com,Facility
CA,46.2227216,-63.6446368,lordsseasidecottages.com,Facility
CA,49.3176761,-123.1069293,martinmarine.ca,Commerce
CA,49.092282,-122.9516864,vandulafarms.ca,Commerce
CA,53.2813017,-109.9783626,lightninghydrovac.ca,Unknown
CA,50.6348633,-116.0391478,hotsprings.ca,Facility
CA,42.2842011,-83.011131,walkerscandies.com,Commerce
CA,45.5412086,-73.598299,cafechiado28.com,Facility
CA,49.8630915,-119.5628002,gracelutherankelowna.com,Facility
CA,45.4020313,-75.6918658,stjamestennis.ca,Facility
CA,49.2149779,-122.987986,burnabyhobbies.net,Commerce
CA,45.1428561,-76.1461992,stjamescarletonplace.ca,Facility
CA,45.4719594,-73.4712523,bijouteriedelmoral.com,Commerce
CA,50.7111769,-105.2082321,villageofbethune.com,Facility
CA,43.5812762,-79.7128933,goodfellaspizza.ca,Facility
CA,45.5241746,-73.5830773,mont-tacos.com,Facility
CA,43.4678144,-80.5296014,waterloopotters.ca,Unknown
CA,43.6498975,-79.3916038,blackmarkettoronto.com,Commerce
CA,49.6365311,-112.8683436,lethbridgeastronomysociety.ca,Facility
CA,49.6684002,-125.0121503,klmechanical.ca,Commerce
CA,43.9754763,-78.1947203,highlandshorescas.com,Unknown
CA,45.5032853,-75.6759791,makiageetkoiffure.com,Facility
CA,44.9766502,-63.5058063,chillstreetcraftbeverageco.com,Commerce
CA,46.2369484,-63.1281685,atlantictechnologycentre.ca,Facility
CA,45.5262419,-73.5875562,cliniquealtermed.com,Facility
CA,49.2737031,-123.125806,notarymatters.ca,Commerce
CA,43.6267974,-79.5013527,bhandariplater.com,Commerce
CA,43.4998086,-80.1871602,bosssupplements.com,Commerce
CA,50.420189,-104.6404633,courtsidedental.ca,Facility
CA,45.8289918,-64.20146,cumberlandcountymuseum.com,Facility
CA,46.8126413,-71.2125167,tatouagetoutankhamon.com,Facility
CA,49.2680363,-123.156837,delararestaurant.ca,Facility
CA,50.4767963,-115.9450808,windermerecreek.com,Unknown
CA,44.8952974,-75.1751129,morrisburgdivesites.com,Facility
CA,42.9799552,-81.2524609,benthanhlondon.com,Facility
CA,44.5036487,-80.2343064,theironskillet.ca,Facility
CA,45.3444981,-75.7316235,tailgators.ca,Facility
CA,49.2701665,-123.0444724,vancouverdenturist.com,Facility
CA,48.2371946,-79.0245651,ticketacces.net,Facility
CA,44.7292816,-63.6601362,scottmanor.ca,Facility
CA,49.1936038,-121.9606443,sturgeonhunter.com,Unknown
CA,49.1933799,-122.8355338,olgcschool.ca,Facility
CA,43.5265275,-79.8876519,louiesdiner.ca,Facility
CA,45.5178789,-75.4115015,riverpizza.ca,Facility
CA,45.411186,-75.6932161,threetarts.ca,Commerce
CA,45.2770035,-66.0760852,tsacurlingclub.com,Facility
CA,49.0437623,-122.2939743,healinggrounds.ca,Facility
CA,48.4905845,-123.3845276,babindentistry.com,Facility
CA,44.4234751,-78.2719594,theartshop1.com,Commerce
CA,52.1003908,-106.567692,metroliquorsk.com,Commerce
CA,43.2613986,-79.906663,westdaleflorists.ca,Commerce
CA,43.6566687,-79.5609248,robarflooring.com,Commerce
CA,49.859988,-97.1442599,lordrobertscc.ca,Facility
CA,45.4874069,-73.5689612,restaurantambiance.ca,Facility
CA,48.3886618,-123.7073725,sookecampground.com,Facility
CA,45.5273593,-73.5979714,crossfitplateau.ca,Facility
CA,49.2813203,-123.0589528,blackridertattoo.com,Facility
CA,46.4368828,-72.7700638,sdpautosport.com,Commerce
CA,44.4636919,-80.2029531,southbayfields.ca,Commerce
CA,45.5240841,-73.6002605,cafeolimpico.com,Facility
CA,45.8940103,-77.2543183,petawawaheritagevillage.com,Facility
CA,45.4282316,-75.6938129,thelookoutbar.com,Facility
CA,53.3014263,-60.3136659,pepsdinerandtakeoutnl.com,Facility
CA,43.9197195,-80.0959809,thescenteddrawerltd.ca,Commerce
CA,49.2639745,-123.1387578,kurbatoffgallery.com,Commerce
CA,49.6882061,-124.9991088,communityjusticecentre.ca,Facility
CA,49.2784095,-123.0986332,stbernadine.com,Commerce
CA,43.391725,-80.3239685,thevillagetakeout.com,Facility
CA,43.8500912,-79.0215072,pitadelites.ca,Facility
CA,44.2196712,-79.5919525,thebarkleysquare.com,Facility
CA,43.6563476,-79.4029568,ottosdoner.com,Facility
CA,49.9204266,-121.4520238,mightyfrasermotel.com,Facility
CA,49.2718543,-123.1905115,brockhousesociety.com,Commerce
CA,43.4376346,-80.4879296,stephanieboutari.com,Commerce
CA,43.5192579,-79.8768194,animalhospitalofmilton.com,Commerce
CA,46.7841592,-71.2886089,yogafitness.com,Facility
CA,49.2851447,-123.1144698,feast@hungryzus.com,Facility
CA,45.5388184,-73.6243021,bottesanfibio.com,Commerce
CA,45.5312065,-73.6077434,brasseriebeaubien.com,Facility
CA,54.02987,-123.1052077,nesslakebiblecamp.com,Commerce
CA,44.4476266,-64.4159602,chicoryblue.ca,Commerce
CA,50.9329273,-114.066631,5elementscalgary.com,Facility
CA,43.6605299,-79.3834113,torontocollegepark.com,Commerce
CA,49.2864758,-123.1227826,kinematicsrehab.com,Facility
CA,43.4495444,-80.4888587,2020visionclinic.ca,Commerce
CA,43.6513298,-79.4113592,maytoronto.com,Facility
CA,49.359003,-121.4606045,holiday-motel.com,Facility
CA,50.9161083,-114.0506114,dhlmechanical.ca,Unknown
CA,49.1543625,-122.860189,goldensamosa.ca,Commerce
CA,43.4548989,-80.4920698,pinklotusacupuncture.com,Facility
CA,49.1540994,-125.9113266,icehousetofino.ca,Facility
CA,49.8791026,-97.1461458,zapizzabistro.com,Facility
CA,49.2610234,-123.002098,wicksandwax.com,Commerce
CA,49.2050075,-122.9098742,vancouverpizzaheaven.ca,Facility
CA,49.0343819,-122.2499256,kidsclubabbotsford.com,Facility
CA,46.3752936,-72.5523952,lemieuxassurances.com,Commerce
CA,48.3842987,-123.7064095,sookeregionmuseum.ca,Facility
CA,43.5136911,-79.8833243,jdhairsalonandspa.com,Unknown
CA,49.2639608,-123.11825,kameibroadway.ca,Facility
CA,49.2025536,-122.9094473,ablemployment.com,Commerce
CA,49.2356998,-123.0390388,royalpacific.com,Commerce
CA,49.3172063,-106.3834854,woodmountainrodeoranchmuseum.org,Facility
CA,43.4919479,-79.8787403,eyesonderry.com,Commerce
CA,43.6854995,-79.4057999,arrowsmithschool.org,Facility
CA,43.6518959,-79.4736043,260highpark.com,Commerce
CA,43.6805214,-79.4174256,knitomatic.com,Unknown
CA,51.1705501,-115.569428,silverdragonbanff.ca,Facility
CA,45.5485197,-73.6338666,cliniquecmv.com,Facility
CA,43.4880207,-79.9846816,timberspecialties.com,Unknown
CA,49.1649775,-121.952787,benannabakery.com,Commerce
CA,49.2272607,-122.9946692,drimransamad.com,Facility
CA,43.8746905,-79.2574201,villageanimalclinic.ca,Commerce
CA,44.0822639,-80.1905657,dufferinwindows.ca,Commerce
CA,49.9521008,-97.2703192,pdcrailway.com,Facility
CA,42.9326188,-80.2975396,waterfordmuseum.ca,Facility
CA,43.681425,-79.4279067,romisbakery.com,Facility
CA,49.2454749,-124.8064337,bberryenterprises.ca,Commerce
CA,46.615696,-72.6924289,bernard-gauthier.ca,Commerce
CA,49.0522927,-122.3192801,fraservalleyendo.com,Facility
CA,43.648043,-79.5054643,princeedwardmedical.ca,Facility
CA,49.6139764,-110.2796386,elkwatergolf.ca,Facility
CA,43.8500289,-79.3247678,lannacuisine.com,Facility
CA,51.0448881,-114.063422,germaincalgary.com,Facility
CA,43.2582781,-79.8574464,drinkatthewell.com,Facility
CA,49.860022,-119.5505541,lakesiderbrewing.com,Facility
CA,43.4479624,-79.6661279,beaconsocialhouse.com,Facility
CA,51.0274299,-114.1605297,emmanuelcrc.org,Facility
CA,49.2614123,-122.7820442,tricitytransitions.com,Commerce
CA,45.4021825,-71.8910095,bastacommunication.ca,Unknown
CA,45.2563609,-79.6521768,ferncliffedevelopment.com,Commerce
CA,49.2808895,-123.0149992,valleybakery.com,Commerce
CA,44.3522446,-79.6634762,lewiskarateschools.com,Facility
CA,45.0467581,-78.5090082,outdoorsplus.ca,Commerce
CA,49.0636076,-122.3804511,emmanuelfrc.org,Facility
CA,49.3294539,-123.0707212,flickagymclub.com,Unknown
CA,43.2638471,-79.8660881,mooncraftmarket.ca,Commerce
CA,45.7168949,-65.4930276,allseasonsinn.ca,Facility
CA,49.8788913,-97.1467181,shopstylebar.com,Commerce
CA,45.5450316,-73.5877616,monpetitpoulet.ca,Facility
CA,43.5492726,-80.2403934,consignyourcurves.com,Commerce
CA,52.1229663,-122.113831,lakesidemotelwilliamslake.net,Facility
CA,49.1918329,-122.7902582,fraserheightsvet.com,Commerce
CA,43.1949186,-79.5593807,thefortyouthcentre.com,Facility
CA,53.5280111,-114.0059749,eyelashaddict.com,Facility
CA,49.1671802,-123.9368012,smokerings.ca,Commerce
CA,45.4273834,-75.6483612,antoninesisters.ca,Facility
CA,46.7324543,-71.2629817,bistroevolution.ca,Facility
CA,49.2641764,-122.9935784,concordbrentwood.com,Commerce
CA,49.8863048,-97.1443737,meritsofmanitoba.com,Unknown
CA,43.6706332,-79.6708565,macrotechbiz.com,Commerce
CA,49.2345615,-123.173789,almawellness.ca,Facility
CA,45.5213627,-73.5787762,studioargentique.ca,Unknown
CA,49.2266253,-122.9212807,beehivepreschool.ca,Facility
CA,50.8809451,-119.5063564,leftfields.ca,Commerce
CA,49.6902571,-125.001042,taco-bandido.ca,Facility
CA,43.4727489,-80.5362427,mizurestaurantonline.com,Facility
CA,49.3855393,-124.5887013,qualicumlanding.com,Facility
CA,50.4465666,-104.5596028,avanabuilds.com,Commerce
CA,51.0841581,-113.9990619,rivieraplazacalgary.com,Facility
CA,51.0207416,-114.0248798,atlanticpacificwoodfab.com,Unknown
CA,43.9484356,-78.2910879,olympusburger.ca,Facility
CA,45.3987227,-75.7358331,gastrodiner.ca,Facility
CA,43.6556059,-79.4871906,maison-basque.com,Commerce
CA,43.7775045,-79.6240136,integrityfitness.ca,Facility
CA,49.5039588,-115.059662,bluetoquediner.com,Facility
CA,52.0900347,-106.6603677,alliancetrainingcenter.com,Commerce
CA,44.2538897,-64.39621,ploughmanslunch.ca,Commerce
CA,50.998032,-114.0627362,chinookbottledepot.ca,Facility
CA,45.5046325,-73.621336,amenagement.coop,Commerce
CA,53.5390108,-113.9781899,yellowheadvet.com,Commerce
CA,43.3997505,-80.4831311,horizon-furniture.com,Commerce
CA,46.810878,-71.2182425,boutiqueseraphin.com,Commerce
CA,49.0474486,-122.2694677,greatwestfitness.ca,Facility
CA,45.4571998,-75.4873616,tenthlineanimalhospital.ca,Commerce
CA,48.4254608,-123.3679429,thechurchill.ca,Facility
CA,49.8965841,-97.1378049,baileysprimedining.com,Facility
CA,49.2329598,-123.078039,luckysexoticbodega.ca,Commerce
CA,43.3394338,-80.6825598,nithvalleymennonite.com,Facility
CA,49.3121978,-124.2661911,ocean-trails.com,Facility
CA,48.7778021,-123.7059003,cowichangreencommunity.org,Commerce
CA,43.6780541,-79.3501729,pilatesprocess.ca,Facility
CA,51.161454,-56.0024011,tuckamorelodge.com,Facility
CA,43.6799461,-79.3389238,sunwireless.com,Unknown
CA,49.8900348,-119.4930612,getintheloop.ca,Commerce
CA,51.1681762,-115.9467653,shadowlakelodge.com,Facility
CA,49.0406978,-123.0849853,tsawwassencommons.ca,Commerce
CA,47.7711913,-65.0286783,maisontouristiquedugas.ca,Facility
CA,43.6449002,-79.4159094,bistro-jules.com,Facility
CA,43.468455,-80.4526508,petersauto.ca,Commerce
CA,43.6266377,-79.5006639,bambootattoostudio.ca,Facility
CA,52.8312258,-106.8827885,bandbcraftsupplies.ca,Commerce
CA,49.0358957,-122.2927011,redrhinonetworks.com,Commerce
CA,44.3665303,-79.6619393,agalleryofinteriors.ca,Commerce
CA,53.5028272,-113.4982379,outofboundssnow.com,Commerce
CA,48.4590038,-123.3322249,littlethai.com,Facility
CA,47.0446824,-67.7577658,elementairesacrecoeur.com,Facility
CA,44.4839873,-77.6809895,marmoraandlake.ca,Facility
CA,46.3432694,-79.4916705,nipissingu.ca,Facility
CA,45.4566737,-73.5717724,infinitymovement.ca,Facility
CA,56.0287397,-121.9081983,hudsonshopemuseum.com,Facility
CA,49.0499101,-122.290966,houlihanoryall.com,Commerce
CA,49.270789,-123.1149203,citystudiovancouver.com,Facility
CA,49.2808573,-123.001452,poshpantry.ca,Facility
CA,53.0083798,-122.5058574,airportinnrv.com,Facility
CA,44.1047049,-80.076054,mrsmitchells.com,Facility
CA,49.2788488,-123.0702835,lowermainlandtile.com,Unknown
CA,50.0644869,-120.8032639,edisonmotors.ca,Commerce
CA,51.0570571,-114.0950724,thebrouhaha.ca,Facility
CA,48.9431141,-125.548919,pacificrimmotel.com,Facility
CA,43.5022553,-80.2161377,stairworks.ca,Unknown
CA,43.7426519,-79.6272971,campoequipment.com,Commerce
CA,46.2447769,-63.1345454,pizzadonairhub.com,Facility
CA,48.48476,-123.3800044,vicnazarene.ca,Facility
CA,43.6673916,-79.3882215,newwavetravel.net,Commerce
CA,45.9634407,-66.6445288,thedonutbarfreddy.com,Commerce
CA,49.6544451,-124.9858749,tilleyelectrical.ca,Unknown
CA,43.6563915,-79.3824728,atriumtoronto.com,Commerce
CA,43.1941953,-80.3848446,arlingtonhotel.ca,Facility
CA,48.8564255,-54.0068259,townofharebay.com,Facility
CA,45.4835419,-72.7596182,cidreriemilton.com,Commerce
CA,51.0275387,-114.0952052,ourdailybrett.com,Facility
CA,49.2805024,-122.977465,pekingrestaurantburnaby.com,Facility
CA,50.1139759,-122.9541636,sundialhotel.com,Facility
CA,49.3209406,-123.0541729,northshorechristiancentre.com,Facility
CA,45.4511147,-73.5940399,gourmetaldo.com,Commerce
CA,49.2764359,-123.123087,theneurolounge.com,Facility
CA,43.6461144,-79.6571386,bakhtarkabab.ca,Facility
CA,43.5318353,-79.6126235,eastwestkaratefitness.com,Facility
CA,54.7767787,-127.1586921,all-westglass.com,Commerce
CA,43.651806,-79.9287613,thestgeorge.ca,Facility
CA,45.1780561,-76.0486159,alaskawood.com,Commerce
CA,44.3616724,-79.700774,decorwindowfashions.ca,Commerce
CA,49.2802476,-122.9649932,vancouverflowerschool.com,Facility
CA,51.189486,-114.472581,masahestudio.com,Facility
CA,49.2028472,-122.948601,empanadagal.ca,Facility
CA,48.6475563,-123.399362,sidneypharmacy.ca,Commerce
CA,43.6598748,-79.8143538,drsimratdentistry.com,Facility
CA,45.6766909,-62.7226524,mccullochcentre.ca,Facility
CA,45.5313375,-73.6131135,dinettetriplecrown.com,Facility
CA,43.6732362,-80.4315466,grandriverraceway.com,Facility
CA,50.2726806,-124.621763,klahooseresort.com,Facility
CA,43.6467184,-79.4058144,fashionablyyours.com,Commerce
CA,45.3012882,-75.8808973,mykanatachiropractor.com,Facility
CA,43.6591324,-79.4396247,duffystavern.ca,Facility
CA,53.0192854,-112.8569682,camroseliquor.com,Commerce
CA,52.3927912,-106.6643992,barnplayhouse.com,Facility
CA,43.1934588,-79.5605286,grimsbymassage.com,Facility
CA,49.2454508,-122.9410123,unlimiteddesignltd.com,Commerce
CA,49.2327669,-123.024231,executivesuite.ca,Commerce
CA,60.5982605,-134.8533407,caribou-rv-park.com,Facility
CA,43.5794175,-79.7112073,streetsvilleunited.ca,Facility
CA,53.7771073,-113.8416311,camillaschool.ca,Facility
CA,51.0934214,-114.1289652,macdonaldlawnorth.ca,Commerce
CA,49.0496383,-122.305656,ifixcomputershop.com,Commerce
CA,49.4943711,-119.6133307,pentictonramada.com,Facility
CA,48.0779376,-84.5558465,macintyretrucking.com,Commerce
CA,49.2809765,-123.0558484,tentatsujapanese.com,Facility
CA,42.8344204,-80.3082231,simcoetowncentre.com,Commerce
CA,49.2812783,-123.0502882,baaadannas.com,Unknown
CA,47.5322106,-52.8628915,sprucehills.ca,Facility
CA,50.1980878,-119.3928173,sparklinghill.com,Facility
CA,44.6992402,-63.5795288,delectabledesserts.ca,Commerce
CA,53.8828859,-112.3342985,seniorcareaccess.com,Facility
CA,45.5231957,-73.6014889,kouzinaniata.com,Facility
CA,43.6474816,-79.4198053,ossingtonchiro.ca,Unknown
CA,43.1932768,-79.5611232,villagestudio.ca,Commerce
CA,45.8760988,-72.5046669,plancherepoxydrummondville.com,Commerce
CA,43.5804423,-79.759501,softrontax.com,Unknown
CA,45.9810994,-81.9270056,employmentoptions.ca,Unknown
CA,51.0456083,-114.0750074,globecinema.ca,Facility
CA,51.1795252,-115.5743032,stmarysparishbanff.ca,Facility
CA,46.8081096,-71.1816266,annecarrier.com,Unknown
CA,45.5201859,-73.596701,patisserieluandi.com,Commerce
CA,43.5530444,-81.3939244,bloomsnrooms.com,Commerce
CA,49.1051981,-122.6524037,farmcountrybrewing.com,Facility
CA,43.6495469,-79.4189019,academyoflions.com,Facility
CA,51.0524403,-114.0663344,tigersugaralberta.com,Facility
CA,48.4256105,-123.3680189,garrickshead.com,Facility
CA,49.0469952,-122.3366898,arvissalon.ca,Facility
CA,46.2141852,-63.4888432,peilighthousesociety.ca,Unknown
CA,52.65229,-114.2425797,hawktailbrewery.com,Commerce
CA,44.5437599,-80.9373872,owensoundtourism.ca,Facility
CA,43.5374698,-80.2623241,noahsarkchildcareguelph.ca,Facility
CA,49.1508481,-125.8949848,shelterrestaurant.com,Facility
CA,45.5257677,-73.5814827,abra-kad-abra.com,Commerce
CA,46.3448181,-72.540859,aufourabois.ca,Facility
CA,49.2809073,-123.009823,antonspastabar.com,Facility
CA,51.0306869,-114.1174487,calgarywowcentre.com,Facility
CA,43.6553008,-79.4563732,dhirarchitects.com,Unknown
CA,52.2056865,-113.8153178,glenns-restaurant.com,Facility
CA,43.5480473,-80.2526211,thewoolypub.ca,Facility
CA,50.5735663,-102.6709601,lastoakgolf.com,Facility
CA,49.3229584,-124.3246545,evergreenhotelgroup.com,Facility
CA,51.0515602,-113.8249738,dunnandcompany.ca,Facility
CA,47.3643087,-68.3305584,brandsourcerice.ca,Commerce
CA,45.3999877,-74.1400219,ristoranteiltesoro.com,Facility
CA,53.2822998,-110.0059398,centralsuite.com,Facility
CA,50.9875066,-113.9106568,oceantrailer.com,Commerce
CA,48.9255528,-123.727412,sawmilltaphouse.com,Facility
CA,49.2453734,-124.7941431,goodfaithpharmacy.com,Commerce
CA,43.6645258,-79.3802695,soyboysburgers.ca,Facility
CA,45.2336163,-66.1516642,alsultracar.com,Commerce
CA,49.0378056,-122.3160708,abbotsfordhospice.org,Commerce
CA,49.2623773,-123.138297,urbanproperties.ca,Commerce
CA,45.5080605,-73.5596247,qinghuadumpling.com,Facility
CA,52.1427284,-106.6534112,europeanmassageclinic.ca,Facility
CA,49.1551307,-122.8672785,shagunsweetsrestaurant.com,Facility
CA,45.4149637,-75.6992173,mazarinebrunch.com,Facility
CA,43.7564778,-79.3581979,movingstore.com,Commerce
CA,52.2006198,-106.6651352,fmssaskatoon.com,Commerce
CA,43.1678373,-80.2730201,yourevangel.ca,Facility
CA,48.4236243,-123.3548731,simpleremedies.ca,Unknown
CA,49.0513301,-122.3155026,gladwincrossingdental.ca,Facility
CA,50.6629394,-120.3643533,petlandkamloops.ca,Commerce
CA,49.2833421,-123.0195382,sthelensschool.ca,Facility
CA,53.5979497,-113.490369,dentistsatnorthgate.ca,Facility
CA,49.2477169,-122.931423,bakestonebrothers.com,Commerce
CA,45.4892433,-75.7484623,physiooutaouais.ca,Facility
